     2.10           OBSERVATION DATA    G (GPS)             RINEX VERSION / TYPE
teqc  2002Dec5      gpsops              20030414 01:46:04UTCPGM / RUN BY / DATE
Linux 2.0.36|Pentium II|gcc -static|Linux|486/DX+           COMMENT
ASC1                                                        MARKER NAME
30602M001                                                   MARKER NUMBER
GGN                 JPL                                     OBSERVER / AGENCY
T337-U              AOA SNR-8000 ACT    3.3.32.2            REC # / TYPE / VERS
203                 AOAD/M_T                                ANT # / TYPE
  6118526.0863 -1572344.6793  -876451.1980                  APPROX POSITION XYZ
        0.0677        0.0000        0.0000                  ANTENNA: DELTA H/E/N
     1     1                                                WAVELENGTH FACT L1/2
     7    L1    L2    P1    P2    C1    S1    S2            # / TYPES OF OBSERV
    30.0000                                                 INTERVAL
                                                            COMMENT
This data is provided as a public service by NASA/JPL.      COMMENT
No warranty is expressed or implied regarding suitability   COMMENT
for use.  For further information, contact:                 COMMENT
Dave Stowers, NASA/JPL m/s 238-600                          COMMENT
4800 Oak Grove Drive, Pasadena CA 91109 USA                 COMMENT
                                                            COMMENT
    P1 =    P1  TurboRogue; =    Y1  Benchmark              COMMENT
    L1 = L1(CA)                                             COMMENT
    P2 =    P2  TurboRogue; =    Y2  Benchmark              COMMENT
    L2 = L2(P2) TurboRogue; = L2(Y2) Benchmark              COMMENT
 SNR is mapped to RINEX snr flag value [1,4-9]              COMMENT
    SNR:  >=316 >=100 >=31.6 >=10 >=3.2    >0 bad=0         COMMENT
L1 & L2:      9     8     7     6     5     4     1         COMMENT
teqc windowed: start @ 2003 Apr 13 00:00:00.000             COMMENT
teqc windowed: delta = 86399.000 sec                        COMMENT
  2003     4    13     0     0    0.0000000     GPS         TIME OF FIRST OBS
                                                            END OF HEADER
 03  4 13  0  0  0.0000000  0  9G 5G10G30G 9G29G24G26G 7G17
 -19537350.746 8 -15223908.000 8  22436369.959    22436373.632    22436370.487
       307.000         211.000
 -21286764.547 8 -16587058.782 8  22219505.011    22219509.313    22219505.561
       246.000         265.000
  -7805368.087 7  -6082107.431 6  24703358.677    24703361.835    24703358.071
        45.000          24.000
   2155970.781 7   1679969.156 7  24347556.605    24347566.334    24347556.561
        48.000          33.000
  -4903699.836 6  -3821035.509 6  25053392.301    25053401.045    25053392.179
        31.000          31.000
  -6853248.133 7  -5340138.700 6  24725289.991    24725293.758    24725289.788
        41.000          23.000
  -2150140.957 6  -1675420.406 6  25223209.242    25223221.437    25223208.965
        25.000          17.000
   4151976.871 6   3235355.195 6  26490755.519    26490764.004    26490755.525
        13.000          10.000
    -96978.108 6                  25639745.031                    25639745.302
        14.000  
 03  4 13  0  0 30.0000000  0 10G 5G10G30G 9G29G24G26G21G 7G 6
 -19579052.418 8 -15256402.819 8  22428434.324    22428438.013    22428434.731
       312.000         211.000
 -21264128.171 8 -16569420.015 8  22223812.555    22223816.842    22223813.005
       248.000         265.000
  -7893624.753 7  -6150878.890 6  24686563.966    24686567.112    24686563.392
        45.000          27.000
   2198729.549 7   1713287.251 7  24355693.692    24355703.603    24355693.216
        47.000          34.000
  -4953025.398 6  -3859470.739 6  25044005.790    25044014.324    25044005.640
        31.000          31.000
  -6782057.784 7  -5284665.699 6  24738836.772    24738840.692    24738836.859
        40.000          21.000
  -2190777.825 6  -1707085.126 6  25215476.374    25215487.979    25215476.146
        27.000          17.000
         0.06616                  26395468.247                    26395468.775
        13.000  
   4198877.960 6   3271901.326 4  26499681.774    26499684.825    26499682.077
        17.000           2.000
        -0.86415                  26765485.424                    26765485.333
         8.000  
 03  4 13  0  1  0.0000000  0  8G 5G10G30G 9G29G24G26G 7
 -19620256.338 8 -15288509.780 8  22420593.431    22420597.219    22420593.815
       314.000         210.000
 -21240953.519 8 -16551361.820 8  22228222.655    22228226.682    22228223.202
       249.000         261.000
  -7981651.054 7  -6219470.837 6  24669813.066    24669816.457    24669812.610
        46.000          28.000
   2241558.623 7   1746660.177 6  24363844.020    24363854.062    24363844.268
        45.000          30.000
  -5002430.790 7  -3897968.149 7  25034604.063    25034612.627    25034603.971
        32.000          33.000
  -6710964.336 7  -5229268.205 6  24752365.583    24752369.061    24752365.803
        39.000          18.000
  -2231580.440 6  -1738878.970 6  25207711.561    25207723.365    25207711.463
        29.000          19.000
   4245964.935 6   3308592.413 5  26508642.900    26508647.570    26508643.023
        17.000           5.000
 03  4 13  0  1 30.0000000  0 10G 5G10G30G 9G29G24G26G 7G17G 6
 -19660935.531 9 -15320207.864 8  22412852.555    22412856.268    22412852.993
       317.000         210.000
 -21217216.048 8 -16532865.064 8  22232739.689    22232743.758    22232740.242
       251.000         262.000
  -8069419.298 7  -6287861.699 6  24653111.195    24653114.614    24653110.517
        45.000          30.000
   2284481.230 7   1780106.075 6  24372012.161    24372022.205    24372012.098
        45.000          31.000
  -5051888.467 7  -3936506.329 6  25025192.328    25025200.718    25025192.176
        34.000          30.000
  -6639943.910 7  -5173927.601 6  24765880.235    24765883.732    24765880.354
        38.000          17.000
  -2272522.046 6  -1770781.147 6  25199920.217    25199932.274    25199919.920
        29.000          19.000
   4293263.693 5   3345448.426 5  26517640.774    26517648.801    26517641.558
         9.000           4.000
         0.10516        -0.24714  25612551.485    25612563.930    25612551.868
        15.000           3.000
        -0.38516        -0.36614  26743637.971    26743642.067    26743637.765
        10.000           3.000
 03  4 13  0  2  0.0000000  0 11G 5G10G30G 9G29G24G26G21G 7G17G 6
 -19701108.624 8 -15351511.583 8  22405207.716    22405211.603    22405208.117
       310.000         208.000
 -21192936.463 8 -16513945.875 8  22237359.770    22237364.157    22237360.267
       249.000         266.000
  -8156946.980 7  -6356065.103 6  24636455.289    24636458.664    24636454.780
        45.000          30.000
   2327474.379 7   1813606.948 7  24380193.407    24380203.557    24380193.492
        45.000          32.000
  -5101416.078 7  -3975099.028 6  25015767.485    25015775.593    25015767.234
        36.000          31.000
  -6569018.043 7  -5118660.682 6  24779377.030    24779380.482    24779376.912
        37.000          16.000
  -2313620.775 6  -1802805.731 6  25192098.909    25192111.106    25192098.848
        28.000          18.000
        -0.09516                  26371003.411                    26371003.720
        10.000  
   4340755.015 6   3382454.500 5  26526679.455    26526687.632    26526679.997
        11.000           8.000
    -46950.418 6    -36584.058 6  25603616.264    25603633.994    25603616.558
        15.000          10.000
    -57671.612 6    -44938.915 4  26732663.121    26732665.685    26732663.348
        10.000           1.000
 03  4 13  0  2 30.0000000  0  9G 5G10G30G 9G29G24G26G 7G17
 -19740787.429 8 -15382430.143 8  22397656.966    22397660.897    22397657.184
       306.000         204.000
 -21168128.692 8 -16494615.113 8  22242080.774    22242084.959    22242081.294
       256.000         268.000
  -8244244.740 7  -6424089.353 6  24619843.122    24619846.490    24619842.452
        46.000          31.000
   2370522.156 7   1847150.339 6  24388385.146    24388395.872    24388384.835
        43.000          30.000
  -5151024.482 7  -4013754.682 6  25006326.973    25006335.383    25006326.767
        36.000          31.000
  -6498201.352 7  -5063478.838 6  24792852.796    24792856.224    24792852.926
        37.000          15.000
  -2354888.480 6  -1834961.978 6  25184246.223    25184257.424    25184246.061
        30.000          16.000
   4388425.932 6   3419600.475 4  26535752.268    26535756.953    26535752.185
        15.000           2.000
    -93580.979 6    -72918.766 5  25594741.323    25594758.982    25594741.488
        14.000           9.000
 03  4 13  0  3  0.0000000  0 10G 5G10G30G 9G29G24G26G21G 7G17
 -19779955.904 8 -15412951.049 8  22390203.544    22390207.269    22390203.834
       306.000         203.000
 -21142779.221 8 -16474862.252 8  22246904.559    22246908.725    22246905.072
       259.000         266.000
  -8331295.855 7  -6491921.414 7  24603277.899    24603281.260    24603277.207
        48.000          32.000
   2413636.706 7   1880745.835 7  24396589.678    24396601.027    24396589.600
        42.000          32.000
  -5200696.798 7  -4052460.139 6  24996874.445    24996882.981    24996874.170
        37.000          30.000
  -6427481.130 7  -5008372.170 6  24806310.595    24806314.082    24806310.301
        36.000          16.000
  -2396308.816 6  -1867237.162 6  25176363.557    25176374.975    25176363.221
        28.000          15.000
        -1.02616                  26354960.674                    26354961.144
        11.000  
   4436291.498 6                  26544859.228                    26544860.006
        11.000  
   -139876.756 6   -108992.510 5  25585931.733    25585943.355    25585932.107
        17.000           4.000
 03  4 13  0  3 30.0000000  0  9G 5G10G30G 9G29G24G26G17G 6
 -19818591.727 8 -15443056.896 8  22382851.425    22382855.225    22382851.862
       302.000         208.000
 -21116867.781 8 -16454671.494 8  22251835.245    22251839.294    22251835.802
       260.000         261.000
  -8418076.692 7  -6559542.864 6  24586763.943    24586767.557    24586763.038
        47.000          31.000
   2456836.507 7   1914407.755 6  24404810.448    24404821.674    24404810.633
        43.000          31.000
  -5250409.748 7  -4091197.272 6  24987414.294    24987422.651    24987414.045
        36.000          31.000
  -6356837.799 7  -4953325.412 6  24819753.800    24819757.485    24819753.998
        35.000          16.000
  -2437859.182 6  -1899613.677 6  25168455.926    25168467.745    25168455.890
        25.000          15.000
   -185817.446 6   -144789.751 5  25577188.920    25577205.853    25577188.989
        16.000           9.000
        -0.13516         0.37114  26699527.239    26699529.065    26699527.321
        10.000           3.000
 03  4 13  0  4  0.0000000  0 10G 5G10G30G 9G29G24G26G 7G17G 6
 -19856723.464 8 -15472769.947 8  22375595.082    22375599.152    22375595.499
       298.000         211.000
 -21090425.362 8 -16434066.985 8  22256867.120    22256870.992    22256867.634
       258.000         257.000
  -8504614.734 7  -6626975.130 6  24570296.202    24570299.865    24570295.362
        45.000          31.000
   2500088.715 7   1948110.521 6  24413041.658    24413052.303    24413041.750
        43.000          29.000
  -5300191.053 7  -4129987.665 6  24977940.901    24977949.321    24977940.877
        35.000          31.000
  -6286302.610 7  -4898362.917 6  24833176.227    24833179.884    24833176.361
        34.000          16.000
  -2479568.047 6  -1932113.715 6  25160519.126    25160530.484    25160518.731
        28.000          15.000
        -0.88716        -0.63614  26563194.832    26563200.321    26563194.948
        15.000           2.000
   -231433.194 6   -180333.853 5  25568507.629    25568525.576    25568507.895
        17.000           9.000
    -58403.764 6    -45508.892 5  26688412.670    26688415.995    26688412.289
        10.000           6.000
 03  4 13  0  4 30.0000000  0 11G 5G10G30G 9G29G24G26G21G 7G17G 6
 -19894330.989 8 -15502074.525 8  22368438.581    22368442.633    22368438.990
       299.000         214.000
 -21063434.218 8 -16413034.900 8  22262003.207    22262007.398    22262003.713
       255.000         258.000
  -8590889.045 7  -6694201.873 6  24553878.814    24553882.481    24553877.745
        44.000          31.000
   2543409.568 7   1981866.778 6  24421285.339    24421296.670    24421285.196
        42.000          29.000
  -5350019.645 7  -4168814.919 6  24968458.949    24968467.109    24968458.881
        36.000          30.000
  -6215858.468 6  -4843471.365 6  24846580.959    24846584.545    24846580.959
        31.000          17.000
  -2521415.030 6  -1964721.376 6  25152555.595    25152566.707    25152555.516
        30.000          15.000
        -0.10016                  26331309.013                    26331309.813
        11.000  
     48473.665 6     37771.582 4  26572419.168    26572424.109    26572419.254
        12.000           2.000
   -276704.996 6   -215609.794 5  25559892.959    25559908.433    25559893.461
        17.000           8.000
   -116979.843 5    -91152.564 5  26677265.675    26677269.814    26677265.278
         9.000           5.000
 03  4 13  1 24 30.0000000  0  4G 6G26G29G10
         0.07817         0.25517  22792967.160    22792970.503    22792967.340
        48.000          32.000
        -0.61218        -0.24617  22043495.882    22043500.470    22043495.585
       107.000          91.000
        -0.29417        -0.49617  21916522.211    21916525.883    21916522.104
        93.000          86.000
        -0.95717        -0.06317  22435506.337    22435509.720    22435506.847
        78.000          53.000
 03  4 13  1 25  0.0000000  0 12G30G24G18G23G21G17G 9G 6G26G 5G29G10
        -0.49218         0.24418  21087117.407    21087121.322    21087116.911
       163.000         130.000
        -0.93416        -0.32914  24888843.080    24888844.819    24888843.371
        14.000           1.000
        -1.20716        -0.95616  23643115.224    23643122.693    23643115.216
        24.000          14.000
        -0.39316        -0.62816  24025845.772    24025854.663    24025845.709
        23.000          19.000
        -1.18116        -0.14615  23891478.006    23891483.611    23891478.290
        17.000           8.000
        -0.60316        -0.66316  23136601.558    23136607.378    23136602.344
        31.000          24.000
        -0.23116         0.12815  23853681.370    23853688.125    23853680.587
        17.000           6.000
    -75599.339 7    -58908.367 7  22778580.864    22778584.311    22778580.753
        47.000          32.000
    -36388.302 8    -28354.204 7  22036571.607    22036575.982    22036571.400
       111.000          91.000
        -1.20018        -0.21118  20804896.622    20804901.011    20804896.976
       285.000         202.000
    -22822.485 7    -17783.967 7  21912179.314    21912182.806    21912179.138
        91.000          84.000
     90380.512 7     70427.060 7  22452705.196    22452708.896    22452705.718
        76.000          55.000
 03  4 13  1 25 30.0000000  0 11G30G18G23G21G17G 9G 6G26G 5G29G10
    -17777.386 8    -13851.933 8  21083734.672    21083738.486    21083734.183
       165.000         129.000
    -87731.660 6    -68362.599 6  23626421.711    23626427.994    23626421.761
        23.000          13.000
    -92560.331 6    -72125.072 6  24008232.603    24008241.106    24008233.118
        25.000          21.000
     -8890.731 6     -6926.837 5  23889786.692    23889792.233    23889786.728
        18.000           9.000
     -3713.465 6     -2893.660 6  23135894.242    23135900.628    23135894.953
        27.000          25.000
     26982.534 6     21025.526 5  23858816.811    23858822.099    23858816.627
        20.000           9.000
   -151196.247 7   -117815.036 7  22764195.202    22764198.808    22764194.697
        47.000          32.000
    -72558.586 8    -56538.752 7  22029688.629    22029692.822    22029688.447
       116.000          92.000
     48052.044 8     37443.851 8  20814040.536    20814045.335    20814040.958
       278.000         201.000
    -45271.689 7    -35276.802 7  21907907.262    21907910.992    21907907.259
        93.000          87.000
    180940.009 7    140992.903 7  22469938.079    22469941.772    22469938.376
        73.000          55.000
 03  4 13  1 26  0.0000000  0 11G30G18G23G21G17G 9G 6G26G 5G29G10
    -35033.829 8    -27298.568 8  21080451.013    21080454.650    21080450.441
       168.000         129.000
   -175173.784 6   -136499.505 6  23609781.637    23609789.096    23609781.713
        25.000          15.000
   -184885.863 6   -144066.995 6  23990663.096    23990671.679    23990663.679
        24.000          21.000
    -17698.011 6    -13789.415 5  23888111.190    23888115.062    23888110.976
        17.000           8.000
     -7291.798 6     -5681.835 6  23135212.944    23135219.558    23135213.216
        27.000          26.000
     53752.572 6     41885.042 6  23863910.128    23863917.386    23863910.533
        23.000          14.000
   -226770.725 7   -176704.239 7  22749814.009    22749817.463    22749813.978
        47.000          33.000
   -108491.031 8    -84537.967 7  22022850.879    22022854.911    22022850.518
       119.000          92.000
     96539.039 8     75225.901 8  20823267.562    20823272.079    20823267.969
       279.000         199.000
    -67327.669 7    -52463.232 7  21903710.194    21903713.773    21903710.162
        92.000          86.000
    271692.691 7    211709.267 7  22487207.609    22487211.357    22487208.215
        71.000          53.000
 03  4 13  1 26 30.0000000  0 11G30G18G23G21G17G 9G 6G26G 5G29G10
    -51770.476 8    -40340.167 8  21077266.107    21077269.814    21077265.612
       168.000         129.000
   -262325.994 6   -204410.519 6  23593197.637    23593204.636    23593197.463
        24.000          14.000
   -276975.289 6   -215825.038 6  23973138.758    23973148.085    23973139.384
        23.000          21.000
    -26425.228 6    -20589.647 5  23886449.818    23886453.654    23886450.256
        17.000           6.000
    -10738.169 6     -8367.183 6  23134558.012    23134564.360    23134558.013
        29.000          28.000
     80308.414 6     62577.560 6  23868964.448    23868972.681    23868964.097
        28.000          22.000
   -302321.228 7   -235574.746 7  22735437.292    22735440.577    22735437.434
        47.000          34.000
   -144183.841 8   -112350.462 7  22016058.562    22016062.738    22016058.268
       121.000          93.000
    145456.850 8    113343.667 8  20832576.065    20832580.705    20832576.459
       274.000         197.000
    -88988.631 7    -69341.850 7  21899588.297    21899591.923    21899588.309
        94.000          88.000
    362635.424 7    282573.737 7  22504513.498    22504517.104    22504514.064
        69.000          51.000
 03  4 13  1 27  0.0000000  0 12G30G24G18G23G21G17G 9G 6G26G 5G29G10
    -68015.002 8    -52998.296 8  21074174.917    21074178.689    21074174.534
       168.000         130.000
        -0.61116                  24923571.212                    24923571.163
        14.000  
   -349213.564 6   -272115.177 6  23576663.564    23576670.304    23576663.973
        25.000          14.000
   -368854.070 6   -287419.060 6  23955655.247    23955664.318    23955655.708
        23.000          21.000
    -35101.886 6    -27350.461 5  23884799.016    23884803.294    23884799.029
        18.000           8.000
    -14081.808 6    -10972.478 6  23133921.134    23133926.924    23133921.592
        27.000          26.000
    106621.631 6     83080.847 4  23873971.037    23873978.688    23873971.286
        11.000           1.000
   -377873.264 7   -294446.441 7  22721060.095    22721063.590    22721060.084
        44.000          36.000
   -179662.169 8   -139995.827 7  22009307.131    22009311.456    22009306.734
       124.000          95.000
    194775.590 8    151773.826 8  20841961.596    20841966.000    20841961.945
       281.000         200.000
   -110279.915 7    -85932.414 7  21895536.721    21895540.263    21895536.533
        94.000          86.000
    453737.831 7    353562.630 7  22521849.600    22521853.383    22521850.250
        67.000          51.000
 03  4 13  1 27 30.0000000  0 10G30G18G23G21G17G 6G26G 5G29G10
    -83769.145 8    -65274.309 8  21071177.037    21071180.891    21071176.441
       168.000         131.000
   -435836.407 6   -339613.528 6  23560179.724    23560186.276    23560180.093
        25.000          14.000
   -460521.802 6   -358848.730 6  23938211.648    23938220.790    23938212.217
        24.000          22.000
    -43731.314 6    -34074.453 6  23883155.728    23883162.298    23883156.302
        17.000          10.000
    -17326.488 6    -13500.672 6  23133302.739    23133308.805    23133303.549
        25.000          23.000
   -453426.612 7   -353319.163 7  22706682.551    22706686.263    22706682.274
        45.000          36.000
   -214925.440 8   -167473.618 7  22002596.833    22002601.027    22002596.522
       128.000          96.000
    244491.020 8    190513.109 8  20851421.951    20851426.558    20851422.395
       275.000         200.000
   -131201.044 7   -102234.550 7  21891555.430    21891558.890    21891555.201
        95.000          85.000
    544995.307 7    424672.356 7  22539215.210    22539219.208    22539215.884
        64.000          51.000
 03  4 13  1 28  0.0000000  0 11G30G18G23G21G17G24G 6G26G 5G29G10
    -99017.923 8    -77156.539 8  21068275.357    21068279.312    21068274.805
       169.000         132.000
   -522177.292 6   -406892.084 6  23543749.180    23543755.977    23543749.495
        26.000          14.000
   -551961.035 6   -430100.320 6  23920811.295    23920820.868    23920811.936
        25.000          23.000
    -52300.362 6    -40751.432 5  23881525.709    23881529.978    23881526.123
        18.000           8.000
    -20459.080 6    -15941.526 6  23132707.198    23132713.367    23132707.677
        26.000          24.000
        -0.55116        -0.36514  24940743.888    24940747.073    24940744.086
        16.000           2.000
   -528964.006 7   -412179.460 7  22692308.413    22692311.769    22692307.984
        45.000          35.000
   -249956.179 8   -194770.219 7  21995930.770    21995934.740    21995930.522
       133.000          96.000
    294615.593 8    229571.193 8  20860960.278    20860964.829    20860960.713
       273.000         197.000
   -151734.645 7   -118234.718 7  21887647.981    21887651.487    21887648.020
        93.000          84.000
    636419.999 7    495912.376 7  22556612.711    22556616.863    22556613.248
        63.000          51.000
 03  4 13  1 28 30.0000000  0 12G30G 9G18G23G21G17G24G 6G26G 5G29G10
   -113754.575 8    -88639.708 8  21065471.100    21065475.174    21065470.718
       170.000         135.000
        -0.39216        -0.33616  23888724.673    23888732.682    23888724.944
        22.000          10.000
   -608227.081 6   -473943.703 6  23527374.869    23527381.670    23527374.805
        26.000          14.000
   -643162.515 6   -501166.575 6  23903456.178    23903465.280    23903456.619
        25.000          21.000
    -60803.667 6    -47377.210 5  23879907.433    23879910.516    23879907.998
        17.000           7.000
    -23474.242 6    -18290.871 6  23132132.947    23132140.141    23132133.422
        24.000          27.000
     44888.378 6     34977.997 4  24949285.656    24949289.063    24949285.841
        13.000           2.000
   -604476.239 7   -471020.137 7  22677938.980    22677942.282    22677938.934
        49.000          35.000
   -284744.902 8   -221878.235 7  21989310.652    21989314.516    21989310.466
       136.000          97.000
    345153.909 8    268951.687 8  20870577.586    20870582.019    20870578.047
       272.000         197.000
   -171871.353 7   -133925.612 7  21883816.080    21883819.996    21883816.177
        95.000          90.000
    728016.475 7    567286.248 7  22574042.912    22574047.023    22574043.420
        61.000          47.000
 03  4 13  1 29  0.0000000  0 12G30G 9G18G23G21G17G24G 6G26G 5G29G10
   -127926.650 8    -99682.954 8  21062774.286    21062778.366    21062773.867
       167.000         136.000
     25441.729 6     19824.500 5  23893566.415    23893574.867    23893566.250
        19.000           9.000
   -693930.896 6   -540725.474 6  23511065.600    23511072.529    23511065.945
        26.000          15.000
   -734071.731 6   -572004.990 6  23886157.662    23886166.010    23886157.939
        26.000          22.000
    -69190.382 6    -53912.115 5  23878310.832    23878315.460    23878311.760
        17.000           9.000
    -26321.609 6    -20509.485 6  23131590.537    23131597.749    23131591.176
        22.000          24.000
     89676.866 6                  24957808.737                    24957808.575
        10.000  
   -679908.653 7   -529798.632 7  22663584.813    22663588.104    22663584.869
        55.000          35.000
   -319236.720 8   -248754.897 7  21982746.944    21982750.834    21982746.694
       135.000          97.000
    396156.064 8    308693.601 8  20880282.656    20880287.350    20880283.007
       268.000         195.000
   -191556.626 7   -149264.738 7  21880070.068    21880073.966    21880070.002
        95.000          91.000
    819834.572 7    638832.820 7  22591515.530    22591519.120    22591516.146
        61.000          42.000
 03  4 13  1 29 30.0000000  0 11G30G 9G18G23G21G17G 6G26G 5G29G10
   -141621.366 8   -110354.237 8  21060168.337    21060172.352    21060167.865
       168.000         137.000
     50623.956 6     39446.813 6  23898358.232    23898367.765    23898358.151
        20.000          12.000
   -779374.467 6   -607304.583 6  23494805.823    23494812.467    23494805.745
        25.000          14.000
   -824773.712 6   -642681.938 6  23868897.353    23868906.410    23868897.563
        27.000          22.000
    -77548.978 6    -60425.113 6  23876720.855    23876725.257    23876721.654
        17.000          10.000
    -29089.524 6    -22666.174 6  23131064.653    23131070.035    23131065.135
        26.000          20.000
   -755346.099 7   -588581.047 7  22649229.502    22649232.868    22649229.592
        57.000          36.000
   -353516.138 8   -275466.053 8  21976223.586    21976227.779    21976223.395
       134.000         100.000
    447532.624 8    348727.264 8  20890059.643    20890063.968    20890060.051
       271.000         195.000
   -210874.997 7   -164317.969 7  21876393.808    21876397.621    21876393.795
        95.000          90.000
    911784.395 7    710482.044 7  22609013.034    22609016.414    22609013.600
        61.000          40.000
 03  4 13  1 30  0.0000000  0 12G30G 9G18G23G21G17G24G 6G26G 5G29G10
   -154834.626 8   -120650.364 8  21057654.062    21057658.044    21057653.623
       173.000         137.000
     75549.919 6     58869.557 6  23903101.798    23903111.003    23903101.967
        18.000          10.000
   -864550.506 6   -673674.766 6  23478596.652    23478603.486    23478596.712
        26.000          15.000
   -915262.035 6   -713192.338 6  23851678.022    23851686.803    23851678.485
        28.000          22.000
    -85877.168 6    -66914.427 5  23875135.750    23875140.031    23875136.393
        17.000           9.000
    -31776.164 6    -24759.533 6  23130553.182    23130558.960    23130553.529
        25.000          22.000
        -0.27316        -0.21915  24974748.161    24974754.759    24974748.477
        10.000           5.000
   -830782.200 7   -647362.411 7  22634874.594    22634877.973    22634874.491
        61.000          37.000
   -387576.597 8   -302006.588 8  21969741.971    21969746.332    21969741.731
       133.000         104.000
    499285.342 8    389054.033 8  20899907.409    20899912.418    20899907.799
       262.000         196.000
   -229820.269 7   -179080.475 7  21872788.673    21872792.272    21872788.743
        96.000          87.000
   1003867.311 7    782234.970 7  22626535.736    22626539.314    22626536.544
        61.000          40.000
 03  4 13  1 30 30.0000000  0 12G30G 9G18G23G21G17G24G 6G26G 5G29G10
   -167549.067 8   -130557.809 8  21055234.684    21055238.696    21055234.255
       172.000         135.000
    100236.358 6     78105.781 6  23907799.739    23907807.836    23907799.931
        21.000          10.000
   -949440.420 6   -739822.130 6  23462442.636    23462448.567    23462442.735
        26.000          15.000
  -1005516.366 6   -783520.042 6  23834502.885    23834511.961    23834503.493
        29.000          24.000
    -94158.995 6    -73367.619 5  23873559.632    23873563.543    23873559.883
        19.000           8.000
    -34365.272 6    -26776.894 6  23130059.569    23130066.973    23130060.034
        22.000          23.000
     44256.483 6                  24983171.336                    24983171.713
        12.000  
   -906197.295 7   -706127.406 7  22620523.731    22620526.815    22620523.501
        63.000          38.000
   -421398.186 8   -328360.991 8  21963306.080    21963310.185    21963305.844
       135.000         103.000
    551429.444 8    429685.774 8  20909830.495    20909835.001    20909830.947
       264.000         193.000
   -248372.592 7   -193536.783 7  21869258.281    21869261.704    21869258.189
        94.000          86.000
   1096098.210 7    854103.208 7  22644086.844    22644090.258    22644087.620
        63.000          41.000
 03  4 13  1 31  0.0000000  0 11G30G 9G18G23G21G17G 6G26G 5G29G10
   -179740.732 8   -140057.898 8  21052914.669    21052918.700    21052914.175
       173.000         135.000
    124707.210 6     97174.108 6  23912455.056    23912464.880    23912454.935
        19.000          16.000
  -1034017.276 6   -805725.411 6  23446347.374    23446353.258    23446347.487
        27.000          15.000
  -1095510.998 6   -853645.379 6  23817377.603    23817386.299    23817378.232
        29.000          24.000
   -102372.023 6    -79767.186 6  23871996.648    23872000.608    23871996.517
        18.000          10.000
    -36834.646 6    -28700.983 6  23129590.512    23129596.178    23129590.413
        26.000          21.000
   -981565.051 7   -764855.515 7  22606181.719    22606184.787    22606181.378
        67.000          42.000
   -454954.325 8   -354508.553 8  21956920.600    21956924.518    21956920.352
       135.000         102.000
    603986.645 8    470639.416 8  20919831.728    20919836.232    20919832.115
       263.000         189.000
   -266505.420 7   -207666.213 7  21865807.805    21865811.095    21865807.506
        97.000          86.000
   1188498.557 7    926103.481 7  22661670.217    22661673.533    22661670.748
        65.000          42.000
 03  4 13  1 31 30.0000000  0 12G30G 9G18G23G21G17G24G 6G26G 5G29G10
   -191439.532 8   -149173.943 8  21050688.543    21050692.533    21050688.067
       173.000         135.000
    148931.593 6    116050.278 6  23917065.984    23917074.814    23917066.272
        22.000          12.000
  -1118309.147 6   -871406.623 6  23430306.050    23430312.277    23430306.236
        27.000          16.000
  -1185273.471 6   -923589.768 6  23800295.496    23800304.423    23800296.008
        29.000          23.000
   -110547.509 6    -86137.531 6  23870440.789    23870445.686    23870439.561
        19.000          12.000
    -39216.112 6    -30556.539 6  23129137.320    23129142.457    23129137.805
        25.000          20.000
        -0.28116        -0.86914  24999930.102    24999933.442    24999929.903
        12.000           2.000
  -1056913.060 7   -823568.238 7  22591843.278    22591846.518    22591842.858
        66.000          43.000
   -488272.211 8   -380470.466 8  21950580.260    21950584.265    21950580.039
       134.000         102.000
    656924.637 8    511889.774 8  20929905.524    20929910.080    20929905.890
       260.000         189.000
   -284246.523 8   -221490.403 7  21862431.836    21862435.191    21862431.862
       100.000          89.000
   1281036.137 7    998210.694 7  22679279.599    22679282.905    22679280.118
        67.000          42.000
 03  4 13  1 32  0.0000000  0 12G30G 9G18G23G21G17G24G 6G26G 5G29G10
   -202642.013 8   -157903.257 8  21048556.941    21048560.869    21048556.366
       175.000         134.000
    172912.986 6    134737.203 6  23921628.613    23921637.580    23921628.577
        19.000          12.000
  -1202310.859 6   -936861.993 6  23414320.910    23414326.650    23414321.190
        27.000          15.000
  -1274797.365 6   -993347.907 6  23783259.216    23783268.201    23783259.589
        31.000          25.000
   -118683.327 6    -92476.941 6  23868892.460    23868897.303    23868892.582
        19.000          12.000
    -41507.335 6    -32341.799 6  23128700.503    23128707.048    23128700.907
        23.000          21.000
     43786.973 6     34119.022 4  25008261.845    25008266.249    25008261.565
        11.000           2.000
  -1132235.308 7   -882260.884 7  22577510.001    22577513.014    22577509.820
        66.000          43.000
   -521345.789 8   -406242.010 8  21944286.341    21944290.529    21944286.100
       131.000         102.000
    710244.637 8    553437.804 8  20940051.979    20940056.567    20940052.390
       256.000         188.000
   -301589.842 7   -235004.623 7  21859131.308    21859134.783    21859131.311
        99.000          89.000
   1373711.958 7   1070425.626 7  22696915.089    22696918.398    22696915.602
        66.000          40.000
 03  4 13  1 32 30.0000000  0 12G30G 9G18G23G21G17G24G 6G26G 5G29G10
   -213349.020 8   -166246.492 8  21046519.620    21046523.483    21046519.242
       174.000         134.000
    196650.146 6    153233.797 5  23926145.790    23926154.676    23926146.147
        18.000           7.000
  -1286019.909 6  -1002089.029 6  23398391.263    23398397.319    23398391.482
        28.000          16.000
  -1364082.061 6  -1062919.814 6  23766268.624    23766276.572    23766269.119
        30.000          23.000
   -126781.977 6    -98787.397 6  23867352.034    23867355.119    23867351.988
        20.000          10.000
    -43710.916 6    -34058.779 6  23128281.691    23128287.528    23128281.760
        26.000          22.000
     87410.882 6                  25016563.817                    25016563.675
        11.000  
  -1207530.051 7   -940932.094 7  22563181.917    22563184.824    22563182.279
        68.000          42.000
   -554173.322 8   -431821.831 8  21938039.398    21938043.496    21938039.107
       130.000         100.000
    763943.510 8    595281.053 8  20950270.438    20950275.096    20950270.721
       253.000         186.000
   -318533.866 8   -248207.703 7  21855906.962    21855910.238    21855906.905
       100.000          88.000
   1466522.733 7   1142745.711 7  22714576.167    22714579.585    22714576.901
        62.000          40.000
 03  4 13  1 33  0.0000000  0 11G30G 9G18G23G21G17G 6G26G 5G29G10
   -223532.341 8   -174181.660 8  21044581.886    21044585.918    21044581.523
       174.000         136.000
    220171.133 6    171562.061 6  23930621.872    23930629.939    23930621.845
        20.000          11.000
  -1369406.253 6  -1067064.539 6  23382522.135    23382528.057    23382522.344
        29.000          18.000
  -1453096.464 6  -1132281.002 6  23749329.174    23749337.172    23749329.257
        31.000          23.000
   -134816.332 6   -105047.775 6  23865821.909    23865826.991    23865822.153
        18.000          12.000
    -45800.271 6    -35686.740 6  23127884.494    23127889.278    23127885.475
        27.000          20.000
  -1282766.512 7   -999557.896 7  22548864.734    22548867.837    22548864.774
        67.000          41.000
   -586723.891 8   -457185.840 8  21931845.379    21931849.265    21931845.171
       131.000         101.000
    818047.429 8    637439.929 8  20960566.193    20960570.804    20960566.623
       251.000         184.000
   -335047.836 8   -261075.684 7  21852764.558    21852767.798    21852764.301
       103.000          90.000
   1559494.245 7   1215191.047 7  22732268.067    22732271.691    22732268.576
        61.000          40.000
 03  4 13  1 33 30.0000000  0 11G30G 9G18G23G21G17G 6G26G 5G29G10
   -233216.572 8   -181727.950 8  21042739.009    21042743.215    21042738.482
       173.000         136.000
    243451.398 6    189702.752 5  23935051.252    23935059.341    23935051.208
        15.000           7.000
  -1452492.152 6  -1131805.964 6  23366710.961    23366716.957    23366710.976
        28.000          18.000
  -1541862.914 6  -1201448.952 6  23732436.683    23732445.340    23732436.849
        30.000          24.000
   -142812.547 6   -111278.419 6  23864300.184    23864305.095    23864300.884
        20.000          13.000
    -47801.479 6    -37246.022 6  23127503.039    23127508.180    23127503.870
        24.000          18.000
  -1357966.744 7  -1058155.475 7  22534554.548    22534557.694    22534553.996
        67.000          40.000
   -619019.282 8   -482351.009 8  21925699.719    21925703.576    21925699.546
       131.000         101.000
    872529.433 8    679893.416 8  20970933.754    20970938.361    20970934.222
       249.000         182.000
   -351153.991 8   -273625.879 7  21849699.449    21849702.926    21849699.667
       103.000          91.000
   1652599.397 7   1287740.514 7  22749985.456    22749989.125    22749985.739
        60.000          39.000
 03  4 13  1 34  0.0000000  0 12G 9G18G23G30G21G17G24G 6G26G 5G29G10
    266512.005 6    207672.435 6  23939438.889    23939448.544    23939438.557
        18.000          14.000
  -1535254.068 6  -1196295.171 6  23350961.772    23350966.859    23350961.702
        29.000          17.000
  -1630357.646 6  -1270405.251 6  23715596.415    23715604.922    23715597.073
        31.000          25.000
   -242380.092 8   -188868.473 8  21040995.332    21040999.452    21040994.810
       171.000         134.000
   -150750.170 6   -117463.412 6  23862790.448    23862793.818    23862791.174
        20.000          11.000
    -49694.438 6    -38720.948 6  23127142.905    23127147.758    23127143.667
        25.000          17.000
        -0.54716                  25041306.259                    25041305.984
        14.000  
  -1433106.552 7  -1116705.977 7  22520256.129    22520259.002    22520255.909
        67.000          39.000
   -651035.346 8   -507298.522 7  21919607.051    21919611.058    21919606.741
       125.000          99.000
    927408.979 8    722656.675 8  20981377.100    20981381.609    20981377.508
       246.000         180.000
   -366828.228 8   -285839.514 7  21846716.684    21846720.117    21846716.428
       104.000          90.000
   1745857.535 7   1360409.192 7  22767731.914    22767735.373    22767732.238
        57.000          36.000
 03  4 13  1 34 30.0000000  0 11G 9G18G23G30G21G17G 6G26G 5G29G10
    289328.630 6    225451.838 6  23943781.538    23943789.906    23943780.977
        23.000          15.000
  -1617713.614 6  -1260548.789 6  23335269.707    23335275.204    23335269.943
        31.000          19.000
  -1718601.968 6  -1339166.348 6  23698803.439    23698811.729    23698803.925
        31.000          25.000
   -251046.843 8   -195621.870 8  21039346.196    21039350.280    21039345.740
       171.000         135.000
   -158654.476 6   -123622.464 6  23861285.796    23861289.990    23861286.822
        19.000          12.000
    -51504.637 6    -40131.405 6  23126798.395    23126803.297    23126799.065
        27.000          18.000
  -1508207.573 7  -1175226.251 7  22505964.874    22505967.713    22505965.290
        66.000          40.000
   -682793.262 8   -532044.886 8  21913563.589    21913567.532    21913563.371
       122.000         100.000
    982659.983 8    765709.386 8  20991890.862    20991895.545    20991891.216
       242.000         179.000
   -382092.087 8   -297733.383 7  21843812.151    21843815.352    21843812.097
       107.000          90.000
   1839242.347 7   1433176.583 7  22785502.275    22785505.647    22785502.983
        55.000          34.000
 03  4 13  1 35  0.0000000  0 11G 9G18G23G30G21G17G 6G26G 5G29G10
    311903.931 6    243042.995 6  23948076.862    23948085.700    23948076.570
        21.000          12.000
  -1699865.514 6  -1324562.862 6  23319636.153    23319641.994    23319636.030
        30.000          18.000
  -1806590.353 7  -1407727.917 6  23682059.188    23682067.045    23682060.084
        32.000          26.000
   -259213.933 8   -201985.932 8  21037792.194    21037796.228    21037791.832
       175.000         138.000
   -166523.890 6   -129754.306 6  23859788.243    23859792.065    23859788.712
        20.000          11.000
    -53230.612 6    -41476.220 6  23126469.474    23126474.949    23126469.753
        25.000          17.000
  -1583264.136 7  -1233711.880 7  22491681.974    22491685.011    22491682.056
        65.000          41.000
   -714287.312 8   -556585.641 8  21907570.473    21907574.424    21907570.180
       118.000         101.000
   1038283.247 8    809052.164 8  21002475.618    21002480.245    21002475.979
       240.000         177.000
   -396940.009 8   -309303.140 7  21840986.487    21840989.893    21840986.636
       106.000          91.000
   1932754.567 7   1506043.251 7  22803296.932    22803300.459    22803297.580
        53.000          33.000
 03  4 13  1 35 30.0000000  0 12G 9G18G23G30G21G17G24G 6G26G 5G29G10
    334268.831 6    260470.231 5  23952332.949    23952342.027    23952333.141
        17.000           8.000
  -1781675.992 7  -1388310.904 6  23304068.225    23304073.448    23304068.167
        33.000          20.000
  -1894290.279 6  -1476064.857 6  23665369.670    23665377.320    23665370.485
        30.000          25.000
   -266850.796 8   -207936.821 8  21036339.016    21036343.061    21036338.603
       174.000         137.000
   -174329.035 6   -135836.084 6  23858303.003    23858305.947    23858303.505
        21.000          10.000
    -54842.864 6    -42732.431 6  23126163.205    23126167.856    23126163.598
        26.000          16.000
        -1.05716                  25065794.947                    25065794.812
        10.000  
  -1658242.922 7  -1292136.905 7  22477413.911    22477417.065    22477413.754
        66.000          42.000
   -745484.147 8   -580894.793 8  21901633.829    21901637.691    21901633.551
       116.000         101.000
   1094307.124 8    852707.113 8  21013136.802    21013141.297    21013137.254
       245.000         177.000
   -411339.148 8   -320523.196 7  21838246.433    21838249.890    21838246.199
       105.000          92.000
   2026422.497 7   1579031.249 7  22821121.503    22821124.960    22821121.969
        54.000          34.000
 03  4 13  1 36  0.0000000  0 11G 9G18G23G30G21G17G 6G26G 5G29G10
    356393.901 6    277710.753 6  23956543.369    23956552.105    23956543.284
        24.000          18.000
  -1863172.682 7  -1451814.513 6  23288559.600    23288564.467    23288559.566
        33.000          18.000
  -1981728.301 6  -1544197.590 6  23648730.187    23648738.043    23648730.510
        31.000          24.000
   -273986.776 8   -213497.327 8  21034981.039    21034985.292    21034980.539
       171.000         138.000
   -182100.631 6   -141891.744 6  23856823.869    23856826.810    23856823.927
        20.000          10.000
    -56372.455 6    -43924.215 6  23125871.735    23125876.719    23125871.844
        28.000          17.000
  -1733170.717 7  -1350522.210 7  22463155.826    22463158.756    22463155.571
        68.000          42.000
   -776410.782 8   -604993.401 8  21895748.606    21895752.385    21895748.272
       115.000         100.000
   1150699.725 8    896649.378 8  21023868.008    21023872.432    21023868.372
       244.000         175.000
   -425316.666 8   -331414.730 7  21835586.648    21835589.893    21835586.780
       107.000          91.000
   2120214.264 7   1652115.742 7  22838969.718    22838973.038    22838970.168
        56.000          34.000
 03  4 13  1 36 30.0000000  0 12G 9G18G23G30G21G17G24G 6G26G 5G29G10
    378280.927 6    294765.627 6  23960708.269    23960716.124    23960707.864
        20.000          11.000
  -1944350.925 7  -1515069.865 6  23273111.402    23273116.588    23273111.232
        34.000          20.000
  -2068900.150 6  -1612123.049 6  23632141.352    23632148.805    23632141.757
        31.000          26.000
   -280619.661 8   -218665.708 8  21033718.734    21033723.011    21033718.272
       172.000         142.000
   -189837.646 6   -147920.426 6  23855351.224    23855354.606    23855350.867
        21.000          10.000
    -57818.517 6    -45050.922 6  23125596.186    23125601.537    23125596.182
        25.000          17.000
        -0.09716                  25081986.593                    25081986.297
        11.000  
  -1808042.491 7  -1408863.855 7  22448908.350    22448911.210    22448908.383
        69.000          43.000
   -807061.974 8   -628877.387 8  21889915.743    21889919.646    21889915.402
       114.000         100.000
   1207461.260 8    940879.127 8  21034669.416    21034673.813    21034669.755
       244.000         174.000
   -438867.635 8   -341973.880 7  21833008.000    21833011.151    21833008.019
       110.000          91.000
   2214129.703 7   1725296.605 7  22856841.257    22856844.690    22856841.823
        54.000          36.000
 03  4 13  1 37  0.0000000  0 11G 9G18G23G30G21G17G 6G26G 5G29G10
    399945.391 6    311647.057 6  23964831.024    23964839.490    23964831.244
        19.000          10.000
  -2025193.096 7  -1578063.470 6  23257727.365    23257733.282    23257727.607
        34.000          21.000
  -2155787.980 7  -1679827.406 6  23615607.180    23615614.500    23615607.406
        33.000          26.000
   -286734.430 8   -223430.387 8  21032555.144    21032559.167    21032554.687
       174.000         142.000
   -197525.836 6   -153911.079 6  23853888.220    23853891.401    23853888.055
        23.000          10.000
    -59166.972 6    -46101.584 6  23125339.489    23125344.850    23125339.391
        26.000          17.000
  -1882840.101 7  -1467147.703 7  22434674.651    22434677.664    22434674.740
        67.000          44.000
   -837419.625 8   -652532.635 8  21884138.796    21884142.826    21884138.519
       114.000         102.000
   1264604.953 8    985406.659 8  21045543.454    21045548.079    21045543.815
       241.000         174.000
   -451974.315 8   -352186.841 7  21830513.929    21830517.041    21830513.869
       113.000          91.000
   2308182.332 7   1798584.370 7  22874738.813    22874742.293    22874739.305
        53.000          36.000
 03  4 13  1 37 30.0000000  0 11G 9G18G23G30G21G17G 6G26G 5G29G10
    421357.174 6    328331.680 6  23968905.570    23968913.608    23968905.115
        22.000          13.000
  -2105727.789 7  -1640817.656 6  23242401.757    23242407.576    23242401.902
        33.000          20.000
  -2242420.024 7  -1747332.568 6  23599121.152    23599128.526    23599121.588
        32.000          27.000
   -292361.846 8   -227815.354 8  21031484.235    21031488.269    21031483.838
       175.000         140.000
   -205197.293 6   -159888.713 5  23852427.854    23852430.795    23852427.968
        21.000           9.000
    -60449.938 6    -47101.203 6  23125095.532    23125100.398    23125095.475
        26.000          17.000
  -1957591.723 7  -1525395.718 7  22420449.769    22420452.974    22420449.369
        68.000          46.000
   -867511.672 8   -675980.917 8  21878412.512    21878416.562    21878412.265
       118.000         107.000
   1322097.857 8   1030206.304 8  21056483.937    21056488.588    21056484.362
       236.000         172.000
   -464665.024 8   -362075.673 7  21828098.873    21828101.970    21828098.956
       111.000          90.000
   2402339.460 7   1871953.558 7  22892656.193    22892659.686    22892656.849
        52.000          35.000
 03  4 13  1 38  0.0000000  0 12G 9G18G23G30G21G17G24G 6G26G 5G29G10
    442534.270 6    344833.445 6  23972934.995    23972942.805    23972934.659
        19.000          10.000
  -2185934.083 7  -1703316.077 6  23227139.002    23227144.205    23227138.975
        33.000          19.000
  -2328775.082 6  -1814621.968 6  23582687.869    23582695.321    23582688.351
        31.000          26.000
   -297483.177 8   -231805.905 8  21030509.545    21030513.717    21030508.987
       175.000         142.000
   -212834.329 6   -165839.530 5  23850974.406    23850977.582    23850974.342
        20.000           8.000
    -61650.518 6    -48036.624 6  23124866.664    23124871.926    23124866.375
        23.000          16.000
        -1.19915                  25106069.702                    25106069.962
         9.000  
  -2032275.875 7  -1583591.163 7  22406237.812    22406241.005    22406237.586
        69.000          45.000
   -897316.801 8   -699205.625 8  21872740.884    21872744.856    21872740.743
       122.000         110.000
   1379956.401 8   1075290.861 8  21067494.147    21067498.497    21067494.552
       239.000         168.000
   -476918.620 8   -371623.893 7  21825767.028    21825770.161    21825766.852
       109.000          91.000
   2496617.330 7   1945416.832 7  22910596.858    22910600.302    22910597.339
        54.000          36.000
 03  4 13  1 38 30.0000000  0 11G 9G18G23G30G21G17G 6G26G 5G29G10
    463471.861 6    361148.627 6  23976918.700    23976927.766    23976918.628
        19.000          15.000
  -2265814.114 7  -1765560.085 6  23211938.534    23211943.559    23211938.547
        35.000          20.000
  -2414855.521 7  -1881697.246 6  23566306.970    23566314.501    23566307.408
        33.000          28.000
   -302103.734 8   -235406.249 8  21029630.113    21029634.441    21029629.604
       175.000         144.000
   -220443.394 6   -171768.529 5  23849526.674    23849530.054    23849526.790
        20.000           9.000
    -62774.869 6    -48912.653 6  23124652.553    23124658.139    23124652.638
        23.000          17.000
  -2106894.993 7  -1641735.922 7  22392038.502    22392041.398    22392038.734
        72.000          44.000
   -926837.347 8   -722208.579 8  21867123.242    21867127.216    21867122.942
       125.000         110.000
   1438173.240 8   1120654.615 8  21078572.723    21078576.876    21078573.083
       243.000         167.000
   -488737.817 8   -380833.617 7  21823517.842    21823521.078    21823517.651
       108.000          93.000
   2591008.366 7   2018968.289 7  22928559.063    22928562.472    22928559.642
        56.000          36.000
 03  4 13  1 39  0.0000000  0 11G 9G18G23G30G21G17G 6G26G 5G29G10
    484141.865 6    377255.260 6  23980852.812    23980861.038    23980852.877
        22.000          16.000
  -2345393.874 7  -1827570.059 6  23196794.969    23196800.010    23196794.724
        36.000          21.000
  -2500687.306 7  -1948578.811 6  23549974.056    23549980.727    23549974.775
        34.000          28.000
   -306252.032 8   -238638.624 8  21028840.792    21028845.042    21028840.432
       174.000         143.000
   -228053.849 6   -177698.636 5  23848078.540    23848080.876    23848079.343
        19.000           7.000
    -63852.255 6    -49752.088 6  23124447.563    23124453.102    23124448.051
        24.000          18.000
  -2181474.475 7  -1699849.793 7  22377846.475    22377849.370    22377846.495
        75.000          43.000
   -956098.759 8   -745009.612 8  21861554.876    21861558.870    21861554.493
       127.000         110.000
   1496718.018 8   1166273.904 8  21089713.113    21089717.716    21089713.523
       233.000         169.000
   -500148.537 8   -389725.050 7  21821346.298    21821349.777    21821346.264
       108.000          95.000
   2685482.314 7   2092584.356 7  22946536.938    22946540.294    22946537.499
        56.000          35.000
 03  4 13  1 39 30.0000000  0 11G 9G18G23G30G21G17G 6G26G 5G29G10
    504571.156 6    393174.369 6  23984740.114    23984748.035    23984740.107
        20.000          14.000
  -2424644.583 7  -1889323.621 6  23181713.847    23181718.629    23181713.997
        39.000          23.000
  -2586241.558 7  -2015244.205 6  23533693.221    23533700.457    23533693.503
        35.000          29.000
   -309901.423 8   -241482.252 8  21028146.323    21028150.426    21028145.778
       176.000         141.000
   -235640.280 6   -183610.002 5  23846634.209    23846637.042    23846634.692
        20.000           8.000
    -64857.789 6    -50535.522 6  23124255.973    23124261.548    23124256.483
        23.000          17.000
  -2255984.931 7  -1757909.889 7  22363667.531    22363670.411    22363667.107
        76.000          43.000
   -985071.714 8   -767585.875 8  21856041.503    21856045.322    21856041.347
       132.000         109.000
   1555615.172 8   1212167.767 8  21100920.982    21100925.617    21100921.321
       230.000         170.000
   -511121.661 8   -398275.503 7  21819258.300    21819261.678    21819258.172
       109.000          96.000
   2780063.597 7   2166284.060 6  22964535.015    22964538.478    22964535.365
        54.000          31.000
 03  4 13  1 40  0.0000000  0 12G 9G18G23G30G21G17G24G 6G26G 5G29G10
    524736.735 6    408887.890 6  23988576.726    23988585.437    23988576.542
        16.000          13.000
  -2503586.749 7  -1950836.774 6  23166691.519    23166696.516    23166691.553
        38.000          22.000
  -2671538.692 7  -2081709.429 6  23517461.435    23517469.380    23517461.644
        34.000          30.000
   -313074.859 8   -243955.013 8  21027542.372    21027546.320    21027541.779
       179.000         140.000
   -243226.455 6   -189521.164 5  23845191.841    23845193.563    23845192.680
        22.000           8.000
    -65815.574 6    -51281.766 6  23124073.939    23124079.396    23124074.767
        23.000          18.000
        -1.10415        -0.38614  25137777.231    25137782.445    25137777.013
         8.000           2.000
  -2330446.360 7  -1815931.781 7  22349498.004    22349500.772    22349498.011
        75.000          45.000
  -1013776.184 8   -789952.928 8  21850579.257    21850582.917    21850579.029
       136.000         108.000
   1614839.764 8   1258316.779 8  21112191.092    21112195.627    21112191.488
       227.000         166.000
   -521677.686 8   -406500.938 7  21817249.387    21817252.913    21817249.423
       106.000          98.000
   2874727.248 7   2240047.949 6  22982548.849    22982552.260    22982549.474
        54.000          28.000
 03  4 13  1 40 30.0000000  0 12G 9G18G23G30G21G17G24G 6G26G 5G29G10
    544617.942 6    424379.737 6  23992359.672    23992369.354    23992359.298
        15.000          13.000
  -2582238.558 7  -2012123.638 6  23151724.111    23151729.340    23151724.321
        37.000          23.000
  -2756596.388 7  -2147988.073 6  23501275.998    23501282.873    23501276.209
        37.000          30.000
   -315793.028 8   -246072.947 8  21027024.918    21027028.937    21027024.436
       176.000         138.000
   -250834.106 6   -195449.093 5  23843743.453    23843746.259    23843744.161
        20.000           8.000
    -66746.728 6    -52007.257 6  23123897.045    23123902.261    23123897.824
        25.000          18.000
     41236.813 5                  25145625.431                    25145625.829
         9.000  
  -2404876.510 7  -1873929.285 7  22335334.420    22335337.343    22335334.531
        75.000          50.000
  -1042230.062 8   -812124.717 8  21845164.632    21845168.342    21845164.360
       140.000         110.000
   1674369.083 8   1304703.241 8  21123519.113    21123523.585    21123519.548
       226.000         164.000
   -531834.776 8   -414415.510 7  21815316.501    21815320.051    21815316.222
       105.000          98.000
   2969450.591 7   2313858.358 6  23000574.114    23000577.343    23000574.576
        55.000          27.000
 03  4 13  1 41  0.0000000  0 11G 9G18G23G30G21G17G 6G26G 5G29G10
    564273.495 6    439695.790 6  23996099.769    23996109.422    23996099.886
        15.000          14.000
  -2660539.509 7  -2073137.151 6  23136823.403    23136828.891    23136823.538
        37.000          23.000
  -2841353.983 7  -2214032.822 6  23485146.696    23485153.855    23485147.161
        36.000          27.000
   -317998.244 8   -247791.373 8  21026605.309    21026609.450    21026604.890
       174.000         139.000
   -258406.289 6   -201349.342 5  23842301.764    23842304.430    23842302.214
        20.000           8.000
    -67594.706 6    -52667.929 6  23123735.482    23123740.414    23123736.335
        25.000          17.000
  -2479214.104 7  -1931854.667 7  22321188.247    22321191.525    22321188.074
        76.000          55.000
  -1070372.400 8   -834053.747 8  21839809.321    21839813.103    21839809.075
       141.000         113.000
   1734259.120 8   1351370.788 8  21134916.132    21134920.247    21134916.494
       227.000         162.000
   -541532.333 8   -421972.012 7  21813471.309    21813474.629    21813471.335
       110.000          97.000
   3064289.866 7   2387759.104 6  23018621.304    23018624.555    23018621.810
        55.000          25.000
 03  4 13  1 41 30.0000000  0 11G 9G18G23G30G21G17G 6G26G 5G29G10
    583714.814 6    454844.969 6  23999799.367    23999808.856    23999799.520
        17.000          14.000
  -2738476.389 7  -2133867.064 6  23121992.789    23121997.841    23121992.793
        37.000          22.000
  -2925797.879 7  -2279832.994 6  23469077.332    23469084.214    23469077.894
        37.000          30.000
   -319679.529 8   -249101.524 8  21026285.465    21026289.717    21026284.998
       176.000         142.000
   -265933.046 6   -207214.230 5  23840869.936    23840871.565    23840870.524
        22.000           7.000
    -68350.629 6    -53256.885 6  23123591.635    23123596.460    23123592.627
        23.000          17.000
  -2553445.425 7  -1989697.243 7  22307062.352    22307065.905    22307062.053
        76.000          59.000
  -1098189.495 8   -855729.340 8  21834515.570    21834519.494    21834515.258
       138.000         114.000
   1794518.576 8   1398326.192 8  21146382.689    21146387.303    21146383.024
       214.000         162.000
   -550756.927 8   -429159.968 7  21811715.910    21811719.178    21811715.635
       112.000          99.000
   3159253.771 7   2461756.962 6  23036692.285    23036695.460    23036692.664
        53.000          26.000
 03  4 13  1 42  0.0000000  0 12G 9G18G23G30G21G17G24G 6G26G 5G29G10
    602936.661 6    469823.106 6  24003458.021    24003466.520    24003457.591
        20.000          14.000
  -2816051.928 7  -2194315.437 6  23107230.682    23107235.486    23107230.852
        38.000          23.000
  -3009931.217 7  -2345391.250 6  23453067.490    23453074.157    23453067.939
        38.000          29.000
   -320842.089 8   -250007.459 8  21026064.248    21026068.534    21026063.691
       174.000         137.000
   -273420.796 6   -213048.703 5  23839443.816    23839446.627    23839443.918
        20.000           6.000
    -69020.345 6    -53778.669 6  23123464.245    23123468.996    23123465.143
        24.000          17.000
        -0.84215        -0.85014  25169033.065    25169036.677    25169033.230
         9.000           3.000
  -2627572.702 7  -2047458.741 7  22292956.582    22292959.853    22292956.492
        81.000          62.000
  -1125683.654 8   -877153.296 8  21829283.535    21829287.317    21829283.237
       140.000         113.000
   1855140.264 8   1445563.850 8  21157918.657    21157923.380    21157918.943
       211.000         162.000
   -559511.517 8   -435981.691 8  21810049.835    21810053.248    21810050.008
       111.000         100.000
   3254335.278 7   2535846.455 6  23054785.515    23054789.195    23054786.270
        49.000          27.000
 03  4 13  1 42 30.0000000  0 12G 9G18G23G30G21G17G24G 6G26G 5G29G10
    621878.296 6    484582.961 6  24007062.565    24007070.491    24007062.658
        18.000          12.000
  -2893325.083 7  -2254528.304 6  23092525.995    23092531.059    23092525.986
        37.000          23.000
  -3093812.285 7  -2410752.860 7  23437105.436    23437111.953    23437105.863
        41.000          32.000
   -321546.988 8   -250556.581 8  21025930.226    21025934.129    21025929.857
       181.000         140.000
   -280931.378 6   -218900.979 5  23838015.639    23838017.803    23838016.163
        20.000           7.000
    -69665.967 6    -54281.672 6  23123341.106    23123346.310    23123341.665
        25.000          17.000
     40713.372 5                  25176780.187                    25176780.064
         7.000  
  -2701654.165 7  -2105184.539 7  22278859.383    22278862.531    22278859.584
        84.000          63.000
  -1152913.244 8   -898371.098 8  21824102.070    21824105.690    21824101.898
       144.000         113.000
   1916060.884 8   1493034.441 8  21169511.346    21169516.073    21169511.642
       208.000         159.000
   -567854.885 8   -442482.980 8  21808462.127    21808465.509    21808461.989
       110.000         100.000
   3349471.170 7   2609978.320 6  23072889.268    23072892.954    23072890.094
        46.000          28.000
 03  4 13  1 43  0.0000000  0 11G 9G18G23G30G21G17G 6G26G 5G29G10
    640556.564 6    499137.556 6  24010616.007    24010625.458    24010615.679
        15.000          11.000
  -2970275.966 7  -2314489.948 6  23077882.897    23077887.884    23077882.801
        38.000          23.000
  -3177421.897 7  -2475902.968 6  23421194.764    23421200.890    23421195.153
        41.000          30.000
   -321777.894 8   -250736.392 8  21025886.227    21025890.103    21025885.778
       178.000         136.000
   -288449.173 6   -224758.876 5  23836584.305    23836587.486    23836584.372
        19.000           8.000
    -70272.088 6    -54753.903 6  23123225.922    23123229.989    23123226.856
        26.000          16.000
  -2775669.994 7  -2162859.201 7  22264774.435    22264777.794    22264774.309
        84.000          63.000
  -1179858.536 8   -919367.370 8  21818974.666    21818978.413    21818974.424
       148.000         117.000
   1977295.048 8   1540749.353 8  21181164.095    21181168.424    21181164.488
       212.000         156.000
   -575767.739 8   -448648.795 7  21806956.600    21806959.516    21806956.434
       114.000          97.000
   3444676.248 7   2684164.092 6  23091006.221    23091009.897    23091006.799
        45.000          25.000
 03  4 13  1 43 30.0000000  0 12G 9G18G23G30G21G17G24G 6G26G 5G29G10
    658993.629 6    513504.230 6  24014124.719    24014133.534    24014125.147
        20.000          16.000
  -3046881.326 7  -2374182.397 6  23063305.191    23063310.176    23063305.069
        39.000          24.000
  -3260736.109 7  -2540822.912 7  23405340.632    23405346.896    23405341.032
        42.000          32.000
   -321513.404 8   -250530.134 8  21025936.185    21025940.315    21025935.715
       177.000         139.000
   -295953.636 6   -230606.379 5  23835155.935    23835159.978    23835156.366
        20.000           8.000
    -70818.407 6    -55179.535 6  23123121.679    23123126.273    23123122.328
        25.000          15.000
         0.08215                  25192192.259                    25192191.580
         8.000  
  -2849595.698 7  -2220463.644 7  22250706.716    22250710.275    22250706.414
        81.000          62.000
  -1206495.472 8   -940123.368 8  21813905.741    21813909.517    21813905.436
       150.000         119.000
   2038862.071 8   1588723.642 8  21192880.067    21192884.644    21192880.395
       211.000         162.000
   -583226.255 8   -454460.598 7  21805537.094    21805540.045    21805537.169
       113.000          94.000
   3539969.990 7   2758418.955 6  23109140.072    23109143.434    23109140.593
        44.000          25.000
 03  4 13  1 44  0.0000000  0 11G 9G18G23G30G21G17G 6G26G 5G29G10
    677200.843 6    527691.759 6  24017589.764    24017597.978    24017589.217
        20.000          14.000
  -3123127.364 7  -2433594.904 6  23048795.936    23048800.733    23048795.932
        39.000          23.000
  -3343741.117 7  -2605502.024 6  23389544.940    23389551.212    23389545.333
        41.000          31.000
   -320742.566 8   -249929.392 8  21026082.783    21026086.847    21026082.360
       175.000         137.000
   -303434.352 6   -236435.394 5  23833732.104    23833735.233    23833731.065
        20.000           7.000
    -71294.412 6    -55550.363 6  23123031.002    23123035.563    23123031.852
        25.000          15.000
  -2923416.806 7  -2277986.582 7  22236659.105    22236662.665    22236659.506
        81.000          62.000
  -1232809.713 8   -960627.916 8  21808898.159    21808901.997    21808897.913
       150.000         121.000
   2100771.352 8   1636964.613 8  21204660.837    21204665.609    21204661.280
       209.000         160.000
   -590216.693 8   -459907.659 7  21804206.677    21804209.731    21804206.386
       110.000          94.000
   3635361.717 7   2832750.177 6  23127292.552    23127295.798    23127293.232
        44.000          24.000
 03  4 13  1 44 30.0000000  0 11G 9G18G23G30G21G17G 6G26G 5G29G10
    695123.613 6    541657.626 6  24021000.029    24021008.835    24020999.517
        18.000          16.000
  -3199066.739 7  -2492768.449 6  23034345.556    23034350.167    23034345.435
        40.000          24.000
  -3426489.472 7  -2669981.164 6  23373798.668    23373804.456    23373799.068
        40.000          30.000
   -319520.690 8   -248977.232 8  21026315.356    21026319.257    21026314.878
       177.000         136.000
   -310947.475 6   -242289.664 5  23832302.253    23832305.159    23832302.527
        20.000           8.000
    -71756.804 6    -55910.599 6  23122942.888    23122947.453    23122943.054
        25.000          15.000
  -2997185.513 7  -2335468.681 7  22222621.400    22222624.811    22222621.841
        80.000          61.000
  -1258853.623 8   -980921.814 8  21803942.167    21803945.868    21803941.902
       148.000         121.000
   2162965.597 8   1685427.642 8  21216496.036    21216500.444    21216496.446
       202.000         152.000
   -596791.809 8   -465031.087 7  21802955.636    21802958.535    21802955.824
       109.000          96.000
   3730794.448 7   2907113.343 6  23145452.844    23145456.219    23145453.299
        43.000          24.000
 03  4 13  1 45  0.0000000  0 11G 9G18G23G30G21G17G 6G26G 5G29G10
    712768.704 6    555407.073 6  24024357.647    24024366.789    24024357.362
        17.000          14.000
  -3274690.863 7  -2551696.375 6  23019954.856    23019959.380    23019955.016
        42.000          25.000
  -3508972.453 7  -2734253.625 7  23358102.638    23358108.493    23358103.020
        42.000          32.000
   -317841.458 8   -247668.587 8  21026634.823    21026638.691    21026634.222
       179.000         137.000
   -318487.532 6   -248164.919 5  23830867.967    23830871.089    23830867.759
        20.000           9.000
    -72200.402 6    -56256.195 6  23122858.492    23122863.014    23122858.895
        26.000          16.000
  -3070892.570 7  -2392902.746 7  22208595.214    22208598.655    22208594.948
        81.000          59.000
  -1284618.085 8  -1000997.959 8  21799039.334    21799042.800    21799039.133
       146.000         120.000
   2225448.934 8   1734115.932 8  21228385.817    21228390.958    21228386.185
       196.000         157.000
   -602943.005 8   -469824.187 7  21801784.933    21801787.912    21801784.484
       110.000          95.000
   3826272.482 7   2981511.826 6  23163621.810    23163625.127    23163622.370
        43.000          25.000
 03  4 13  1 45 30.0000000  0 11G 9G18G23G30G21G17G 6G26G 5G29G10
    730214.416 6    569001.229 6  24027677.623    24027686.293    24027677.965
        17.000          16.000
  -3349919.681 7  -2610316.254 6  23005639.209    23005643.647    23005639.148
        41.000          24.000
  -3591109.611 7  -2798256.567 7  23342472.213    23342478.454    23342472.692
        41.000          32.000
   -315627.796 8   -245943.559 8  21027056.082    21027059.925    21027055.507
       180.000         136.000
   -325978.056 6   -254001.578 5  23829442.464    23829445.406    23829442.203
        20.000           9.000
    -72548.625 6    -56527.469 6  23122792.178    23122796.648    23122792.461
        27.000          14.000
  -3144457.312 7  -2450225.934 7  22194596.274    22194599.695    22194595.832
        84.000          58.000
  -1310022.651 8  -1020793.666 8  21794204.920    21794208.396    21794204.639
       144.000         119.000
   2288296.900 8   1783088.343 8  21240345.802    21240350.658    21240346.301
       199.000         156.000
   -608590.177 8   -474224.545 7  21800710.238    21800713.087    21800710.177
       109.000          94.000
   3921871.497 7   3056004.563 6  23181813.889    23181817.121    23181814.737
        43.000          25.000
 03  4 13  1 46  0.0000000  0 11G 9G18G23G30G21G17G 6G26G 5G29G10
    747420.521 6    582408.652 6  24030951.371    24030959.932    24030951.382
        18.000          14.000
  -3424791.370 7  -2668657.787 6  22991391.432    22991395.867    22991391.501
        41.000          24.000
  -3672939.228 7  -2862019.874 7  23326900.647    23326906.779    23326901.066
        42.000          33.000
   -312920.351 8   -243833.748 8  21027571.114    21027574.940    21027570.772
       180.000         139.000
   -333460.342 6   -259831.824 6  23828018.112    23828022.129    23828018.008
        20.000          10.000
    -72842.928 6    -56756.711 6  23122736.163    23122740.531    23122736.504
        27.000          15.000
  -3217917.307 7  -2507467.498 7  22180617.505    22180620.766    22180617.623
        83.000          57.000
  -1335105.166 8  -1040338.425 8  21789431.708    21789435.333    21789431.334
       141.000         119.000
   2351466.813 8   1832311.631 8  21252366.635    21252371.160    21252366.927
       199.000         151.000
   -613771.781 8   -478262.127 7  21799724.224    21799727.126    21799724.000
       107.000          94.000
   4017549.084 7   3130558.532 6  23200020.864    23200024.056    23200021.555
        42.000          25.000
 03  4 13  1 46 30.0000000  0 11G 9G18G23G30G21G17G 6G26G 5G29G10
    764374.663 6    595619.734 6  24034177.268    24034186.332    24034177.419
        16.000          12.000
  -3499316.675 7  -2726729.474 6  22977209.503    22977214.650    22977209.615
        40.000          24.000
  -3754471.579 7  -2925551.621 7  23311385.820    23311391.441    23311386.379
        43.000          32.000
   -309732.178 8   -241349.365 8  21028177.440    21028181.498    21028176.787
       175.000         138.000
   -340947.980 6   -265666.238 6  23826593.810    23826597.457    23826594.479
        22.000          11.000
    -73096.926 6    -56954.562 6  23122687.552    23122691.871    23122687.572
        26.000          15.000
  -3291282.071 7  -2564634.847 7  22166656.750    22166660.137    22166656.773
        82.000          59.000
  -1359875.634 8  -1059640.030 8  21784718.094    21784721.622    21784717.887
       142.000         119.000
   2414944.012 8   1881774.355 8  21264445.804    21264450.859    21264446.206
       193.000         155.000
   -618498.243 8   -481945.043 7  21798824.571    21798827.772    21798824.388
       104.000          96.000
   4113290.768 7   3205162.443 6  23218239.810    23218242.963    23218240.500
        42.000          25.000
 03  4 13  1 47  0.0000000  0 11G 9G18G23G30G21G17G 6G26G 5G29G10
    781055.314 6    608617.675 6  24037352.162    24037360.314    24037352.299
        19.000          14.000
  -3573514.936 7  -2784546.236 6  22963090.194    22963095.101    22963090.492
        43.000          26.000
  -3835726.057 7  -2988866.821 7  23295923.445    23295929.167    23295923.941
        44.000          34.000
   -306085.457 8   -238507.576 8  21028871.390    21028875.296    21028870.820
       175.000         135.000
   -348464.060 6   -271522.832 6  23825164.042    23825166.721    23825164.725
        23.000          12.000
    -73334.291 6    -57139.456 6  23122642.695    23122646.971    23122642.725
        28.000          16.000
  -3364570.686 7  -2621742.859 7  22152710.256    22152713.620    22152709.876
        81.000          61.000
  -1384353.221 8  -1078713.415 8  21780060.147    21780063.578    21780059.864
       144.000         120.000
   2478704.068 8   1931457.483 8  21276578.878    21276584.150    21276579.320
       190.000         156.000
   -622789.272 8   -485288.668 7  21798008.235    21798011.016    21798008.287
       107.000          94.000
   4209072.413 7   3279797.494 6  23236466.283    23236469.635    23236466.747
        40.000          24.000
 03  4 13  1 47 30.0000000  0 11G 9G18G23G30G21G17G 6G26G 5G29G10
    797521.185 6    621448.287 6  24040485.911    24040493.664    24040485.905
        19.000          13.000
  -3647325.884 7  -2842061.307 6  22949044.833    22949049.001    22949044.864
        44.000          26.000
  -3916642.098 7  -3051918.304 7  23280525.628    23280531.507    23280526.177
        45.000          35.000
   -301922.332 8   -235263.318 8  21029663.688    21029667.224    21029663.324
       180.000         135.000
   -355951.334 6   -277356.977 6  23823739.343    23823742.392    23823739.924
        25.000          13.000
    -73497.877 6    -57266.844 6  23122611.678    23122615.778    23122611.620
        29.000          16.000
  -3437721.650 7  -2678743.617 7  22138790.161    22138793.406    22138789.881
        84.000          63.000
  -1408476.811 8  -1097510.956 8  21775469.492    21775472.985    21775469.219
       142.000         118.000
   2542803.008 8   1981404.679 8  21288776.455    21288781.246    21288776.858
       186.000         147.000
   -626584.252 8   -488245.761 7  21797286.004    21797288.956    21797285.590
       110.000          96.000
   4304950.509 7   3354507.702 6  23254711.357    23254714.788    23254711.837
        38.000          25.000
 03  4 13  1 48  0.0000000  0 11G 9G18G23G30G21G17G 6G26G 5G29G10
    813774.972 6    634113.622 6  24043577.917    24043586.910    24043577.609
        17.000          14.000
  -3720744.957 7  -2899271.022 6  22935073.335    22935077.691    22935073.350
        43.000          25.000
  -3997214.919 7  -3114702.354 7  23265193.486    23265198.984    23265193.921
        44.000          33.000
   -297240.797 8   -231614.975 8  21030554.230    21030557.721    21030553.784
       183.000         136.000
   -363408.477 6   -283167.649 6  23822320.070    23822322.977    23822321.082
        26.000          14.000
    -73586.378 6    -57335.738 6  23122594.476    23122598.787    23122594.556
        28.000          17.000
  -3510729.586 7  -2735632.913 7  22124897.406    22124900.594    22124897.564
        91.000          65.000
  -1432241.510 8  -1116028.846 8  21770947.049    21770950.714    21770946.792
       142.000         119.000
   2607240.896 8   2031615.994 8  21301038.774    21301043.641    21301039.185
       186.000         148.000
   -629878.884 8   -490812.963 7  21796658.857    21796662.166    21796658.884
       110.000          99.000
   4400925.435 7   3429293.360 6  23272974.682    23272978.269    23272975.402
        37.000          24.000
 03  4 13  1 48 30.0000000  0 11G 9G18G23G30G21G17G 6G26G 5G29G10
    829772.430 6    646579.214 6  24046622.053    24046630.562    24046621.816
        17.000          13.000
  -3793814.430 7  -2956208.332 6  22921168.622    22921173.410    22921168.776
        43.000          26.000
  -4077486.544 7  -3177251.664 7  23249918.064    23249923.400    23249918.419
        47.000          34.000
   -292085.886 8   -227597.663 8  21031534.754    21031538.141    21031534.205
       186.000         141.000
   -370880.946 6   -288990.253 6  23820897.742    23820900.662    23820898.137
        25.000          14.000
    -73645.419 6    -57381.674 6  23122583.199    23122587.635    23122582.981
        26.000          18.000
  -3583636.129 7  -2792443.201 7  22111023.863    22111027.018    22111023.812
        97.000          66.000
  -1455689.318 8  -1134299.807 8  21766485.114    21766488.789    21766484.862
       143.000         122.000
   2671970.951 8   2082054.970 8  21313356.353    21313361.687    21313356.742
       182.000         152.000
   -632715.492 8   -493023.272 7  21796119.329    21796122.252    21796119.236
       112.000          98.000
   4496950.686 7   3504118.230 6  23291247.490    23291251.145    23291248.111
        36.000          25.000
 03  4 13  1 49  0.0000000  0 11G 9G18G23G30G21G17G 6G26G 5G29G10
    845510.164 6    658842.474 6  24049617.144    24049625.549    24049617.207
        19.000          16.000
  -3866536.397 7  -3012874.874 6  22907330.460    22907334.934    22907330.563
        43.000          26.000
  -4157459.028 7  -3239567.919 7  23234699.930    23234705.509    23234700.518
        47.000          35.000
   -286462.999 8   -223215.940 8  21032604.540    21032607.827    21032604.018
       188.000         144.000
   -378373.895 6   -294828.813 6  23819472.151    23819475.171    23819472.860
        24.000          15.000
    -73680.581 6    -57409.009 6  23122576.365    23122581.261    23122576.564
        27.000          17.000
  -3656442.499 8  -2849175.440 7  22097169.244    22097172.333    22097169.033
       103.000          67.000
  -1478821.641 8  -1152324.933 8  21762083.235    21762086.713    21762083.037
       143.000         121.000
   2736986.813 8   2132716.649 8  21325728.400    21325733.469    21325728.795
       177.000         146.000
   -635096.259 8   -494878.373 7  21795666.208    21795669.180    21795666.201
       114.000          98.000
   4593019.852 7   3578977.318 6  23309528.936    23309532.441    23309529.538
        35.000          26.000
 03  4 13  1 49 30.0000000  0 11G 9G18G23G30G21G17G 6G26G 5G29G10
    860988.759 6    670903.725 6  24052562.803    24052571.297    24052562.913
        18.000          14.000
  -3938908.304 7  -3069268.657 6  22893558.464    22893563.155    22893558.461
        45.000          28.000
  -4237129.413 7  -3301648.739 7  23219538.991    23219545.111    23219539.510
        47.000          35.000
   -280371.951 8   -218469.578 8  21033763.507    21033766.908    21033763.062
       178.000         135.000
   -385887.869 6   -300683.778 6  23818041.624    23818045.174    23818041.354
        24.000          15.000
    -73692.338 6    -57418.101 6  23122574.308    23122578.928    23122574.005
        28.000          18.000
  -3729145.194 8  -2905826.890 7  22083334.377    22083337.340    22083334.327
       100.000          65.000
  -1501635.374 8  -1170101.810 8  21757741.854    21757745.288    21757741.560
       141.000         121.000
   2802286.713 8   2183599.667 8  21338154.656    21338159.723    21338155.060
       177.000         146.000
   -637018.469 8   -496376.159 7  21795300.337    21795303.366    21795300.367
       118.000          98.000
   4689131.845 7   3653869.776 6  23327818.427    23327821.969    23327819.070
        35.000          27.000
 03  4 13  1 50  0.0000000  0 11G 9G18G23G30G21G17G 6G26G 5G29G10
    876220.191 6    682772.413 6  24055461.092    24055469.542    24055461.745
        18.000          13.000
  -4010916.219 7  -3125378.841 6  22879855.859    22879860.453    22879855.908
        44.000          27.000
  -4316484.043 7  -3363483.565 7  23204438.420    23204444.344    23204438.747
        47.000          37.000
   -273801.655 8   -213349.838 8  21035013.794    21035017.191    21035013.281
       182.000         142.000
   -393412.312 6   -306546.880 6  23816609.805    23816613.123    23816610.287
        23.000          14.000
    -73670.192 6    -57400.773 6  23122578.341    23122583.067    23122578.161
        27.000          18.000
  -3801729.640 7  -2962386.190 7  22069521.830    22069525.076    22069521.645
        97.000          67.000
  -1524116.530 8  -1187619.537 8  21753463.782    21753467.181    21753463.513
       143.000         120.000
   2867879.972 8   2234711.269 8  21350636.813    21350642.044    21350637.315
       179.000         150.000
   -638468.736 8   -497506.199 7  21795024.410    21795027.347    21795024.288
       121.000          99.000
   4785295.876 7   3728802.784 6  23346117.863    23346121.481    23346118.450
        35.000          27.000
 03  4 13  1 50 30.0000000  0 11G 9G18G23G30G21G17G 6G26G 5G29G10
    891194.107 6    694440.459 6  24058310.859    24058319.039    24058311.285
        18.000          12.000
  -4082568.984 7  -3181212.247 6  22866220.990    22866225.484    22866220.884
        45.000          28.000
  -4395531.378 7  -3425078.962 7  23189396.563    23189401.756    23189397.189
        48.000          36.000
   -266763.445 8   -207865.518 8  21036353.128    21036356.583    21036352.646
       179.000         139.000
   -400959.176 6   -312427.472 6  23815173.228    23815176.926    23815173.268
        23.000          14.000
    -73626.568 6    -57366.707 6  23122586.715    23122591.087    23122586.564
        29.000          18.000
  -3874203.817 7  -3018859.565 7  22055730.437    22055733.771    22055730.227
        96.000          67.000
  -1546273.357 8  -1204884.543 8  21749247.429    21749250.769    21749247.210
       144.000         118.000
   2933753.403 8   2286041.190 8  21363172.295    21363177.207    21363172.756
       182.000         146.000
   -639455.945 8   -498275.409 7  21794836.541    21794839.546    21794836.514
       120.000          99.000
   4881499.115 7   3803766.346 6  23364424.665    23364428.465    23364425.343
        36.000          27.000
 03  4 13  1 51  0.0000000  0 11G 9G18G23G30G21G17G 6G26G 5G29G10
    905924.801 6    705918.996 6  24061112.822    24061122.264    24061112.576
        17.000          12.000
  -4153850.786 7  -3236756.572 6  22852656.285    22852660.890    22852656.115
        43.000          26.000
  -4474255.491 7  -3486422.485 7  23174415.436    23174421.289    23174415.971
        48.000          36.000
   -259244.323 8   -202006.560 8  21037784.043    21037787.492    21037783.636
       180.000         143.000
   -408515.694 6   -318315.572 6  23813735.516    23813739.119    23813735.722
        23.000          14.000
    -73548.892 6    -57306.106 6  23122601.270    23122606.002    23122601.321
        28.000          18.000
  -3946550.728 8  -3075233.768 7  22041963.400    22041966.629    22041963.321
       100.000          68.000
  -1568089.515 8  -1221884.098 8  21745095.770    21745099.287    21745095.449
       142.000         117.000
   2999918.542 8   2337598.423 8  21375762.783    21375767.979    21375763.174
       173.000         143.000
   -639964.127 8   -498671.360 7  21794739.619    21794742.748    21794739.339
       116.000          97.000
   4977753.328 7   3878769.630 6  23382741.391    23382745.071    23382741.860
        38.000          27.000
 03  4 13  1 51 30.0000000  0 11G 9G18G23G30G21G17G 6G26G 5G29G10
    920395.692 6    717195.097 6  24063866.535    24063875.426    24063867.080
        16.000          12.000
  -4224776.609 7  -3292023.447 6  22839159.780    22839164.536    22839159.673
        48.000          29.000
  -4552671.236 7  -3547525.745 7  23159493.249    23159499.349    23159493.699
        48.000          39.000
   -251261.878 8   -195786.600 8  21039303.197    21039306.589    21039302.729
       176.000         136.000
   -416100.250 6   -324225.531 6  23812292.223    23812295.364    23812292.525
        23.000          14.000
    -73455.425 6    -57233.207 6  23122618.865    23122623.741    23122619.000
        27.000          19.000
  -4018784.739 8  -3131520.000 7  22028217.815    22028220.848    22028217.801
       106.000          71.000
  -1589579.657 8  -1238629.609 8  21741006.279    21741009.704    21741006.004
       142.000         117.000
   3066355.888 8   2389367.753 8  21388405.316    21388410.737    21388405.761
       172.000         144.000
   -640008.697 8   -498706.053 7  21794731.290    21794734.210    21794731.253
       121.000          94.000
   5074039.418 7   3953797.753 6  23401063.877    23401067.664    23401064.581
        37.000          24.000
 03  4 13  1 52  0.0000000  0 11G 9G18G23G30G21G17G 6G26G 5G29G10
    934615.038 6    728275.180 6  24066572.893    24066581.176    24066572.974
        17.000          13.000
  -4295337.030 7  -3347005.628 6  22825732.454    22825737.562    22825732.469
        47.000          28.000
  -4630768.768 7  -3608381.099 7  23144632.206    23144638.045    23144632.853
        49.000          39.000
   -242809.228 8   -189200.303 8  21040911.706    21040915.346    21040911.178
       171.000         138.000
   -423705.682 6   -330151.769 6  23810845.196    23810847.893    23810845.554
        23.000          13.000
    -73339.223 6    -57142.596 6  23122641.074    23122645.710    23122640.952
        27.000          19.000
  -4090895.222 8  -3187709.976 7  22014495.446    22014498.677    22014495.311
       105.000          73.000
  -1610733.489 8  -1255113.065 8  21736980.792    21736984.189    21736980.416
       143.000         118.000
   3133070.792 8   2441353.365 8  21401101.144    21401105.909    21401101.655
       179.000         136.000
   -639579.995 8   -498371.963 7  21794812.906    21794815.756    21794812.751
       126.000          95.000
   5170363.368 7   4028855.380 6  23419393.812    23419397.611    23419394.448
        38.000          23.000
 03  4 13  1 52 30.0000000  0 11G 9G18G23G30G21G17G 6G26G 5G29G10
    948580.614 6    739157.569 6  24069230.715    24069238.883    24069230.560
        21.000          12.000
  -4365532.206 7  -3401703.134 6  22812374.635    22812379.593    22812374.888
        48.000          28.000
  -4708548.030 7  -3668988.422 7  23129831.365    23129837.482    23129831.777
        49.000          38.000
   -233889.518 8   -182250.141 8  21042609.113    21042612.990    21042608.638
       172.000         144.000
   -431335.567 6   -336097.056 6  23809392.668    23809395.755    23809393.371
        21.000          12.000
    -73204.525 6    -57037.559 6  23122666.538    23122671.604    23122666.793
        27.000          20.000
  -4162881.482 8  -3243803.155 7  22000796.766    22000800.242    22000796.440
       102.000          74.000
  -1631550.899 8  -1271334.377 8  21733019.428    21733022.841    21733019.084
       147.000         123.000
   3200058.484 8   2493551.550 8  21413848.513    21413852.974    21413848.884
       180.000         132.000
   -638678.503 8   -497669.470 7  21794984.297    21794987.322    21794984.055
       123.000          95.000
   5266720.742 7   4103939.054 6  23437730.148    23437733.809    23437730.572
        38.000          22.000
 03  4 13  1 53  0.0000000  0 11G 9G18G23G30G21G17G 6G26G 5G29G10
    962300.864 6    749848.816 6  24071841.001    24071848.835    24071840.897
        18.000          11.000
  -4435352.470 7  -3456108.535 6  22799088.567    22799093.085    22799088.696
        50.000          28.000
  -4785999.034 7  -3729339.961 7  23115092.925    23115099.105    23115093.420
        50.000          40.000
   -224494.865 8   -174929.711 8  21044397.081    21044400.840    21044396.620
       169.000         136.000
   -438983.137 6   -342056.140 6  23807937.562    23807940.192    23807937.896
        21.000          11.000
    -73044.138 6    -56912.511 6  23122697.048    23122702.091    23122696.744
        26.000          20.000
  -4234732.502 8  -3299790.951 7  21987124.034    21987127.458    21987124.066
       103.000          74.000
  -1652021.519 8  -1287285.459 8  21729124.110    21729127.541    21729123.939
       147.000         125.000
   3267324.616 8   2545966.700 8  21426648.914    21426653.738    21426649.286
       180.000         137.000
   -637294.373 8   -496590.891 7  21795247.775    21795250.658    21795247.870
       123.000          94.000
   5363117.252 7   4179053.227 6  23456073.812    23456077.355    23456074.218
        38.000          20.000
 03  4 13  1 53 30.0000000  0 11G 9G18G23G30G21G17G 6G26G 5G29G10
    975760.899 6    760337.288 6  24074401.669    24074410.383    24074401.507
        15.000          10.000
  -4504811.218 7  -3510232.237 6  22785870.853    22785875.810    22785870.856
        50.000          28.000
  -4863135.050 7  -3789446.059 7  23100414.617    23100420.627    23100415.225
        49.000          39.000
   -214641.846 8   -167252.037 8  21046272.145    21046275.872    21046271.620
       176.000         143.000
   -446664.859 6   -348041.830 6  23806475.901    23806478.188    23806476.108
        22.000          11.000
    -72874.706 6    -56780.417 6  23122729.020    23122734.170    23122729.023
        25.000          20.000
  -4306460.910 8  -3355683.205 7  21973474.624    21973477.911    21973474.606
       104.000          73.000
  -1672158.395 8  -1302976.482 8  21725292.066    21725295.629    21725291.780
       152.000         128.000
   3334851.470 8   2598585.005 8  21439498.826    21439503.883    21439499.201
       179.000         137.000
   -635441.177 8   -495146.813 7  21795600.298    21795603.213    21795600.474
       122.000          91.000
   5459535.850 7   4254184.610 6  23474421.556    23474425.020    23474422.288
        37.000          19.000
 03  4 13  1 54  0.0000000  0 11G 9G18G23G30G21G17G 6G26G 5G29G10
    988947.974 6    770613.085 6  24076911.375    24076920.028    24076911.177
        17.000          12.000
  -4573919.712 7  -3564082.983 6  22772719.937    22772724.829    22772720.005
        50.000          27.000
  -4939967.278 7  -3849315.402 7  23085793.748    23085800.101    23085794.128
        50.000          41.000
   -204344.147 8   -159227.627 8  21048231.482    21048235.165    21048230.973
       178.000         145.000
   -454395.023 6   -354065.263 6  23805004.649    23805007.319    23805005.239
        21.000          11.000
    -72711.335 6    -56653.047 6  23122760.419    23122765.153    23122760.114
        26.000          20.000
  -4378076.999 8  -3411487.939 7  21959846.381    21959849.798    21959846.165
       104.000          74.000
  -1691972.311 8  -1318415.850 8  21721521.619    21721525.027    21721521.368
       154.000         126.000
   3402623.103 8   2651394.049 8  21452395.391    21452400.076    21452395.810
       178.000         131.000
   -633130.604 8   -493346.337 7  21796039.954    21796042.870    21796039.927
       124.000          90.000
   5555961.135 7   4329321.201 6  23492770.625    23492774.196    23492771.250
        36.000          19.000
 03  4 13  1 54 30.0000000  0 11G 9G18G23G30G21G17G 6G26G 5G29G10
   1001916.702 6    780718.736 6  24079378.665    24079387.430    24079378.025
        19.000          12.000
  -4642621.931 7  -3617617.128 6  22759646.672    22759651.013    22759646.801
        54.000          30.000
  -5016439.120 7  -3908903.849 7  23071241.942    23071248.270    23071242.725
        52.000          44.000
   -193549.206 8   -150815.842 8  21050285.707    21050289.227    21050285.347
       177.000         140.000
   -462120.433 6   -360084.992 6  23803534.220    23803536.657    23803534.121
        21.000          10.000
    -72500.572 6    -56488.742 6  23122800.278    23122805.305    23122800.178
        27.000          20.000
  -4449523.580 8  -3467160.598 7  21946250.450    21946254.036    21946250.183
       103.000          73.000
  -1711406.733 8  -1333559.507 8  21717823.337    21717826.573    21717823.079
       152.000         124.000
   3470691.313 8   2704434.192 8  21465348.389    21465353.171    21465348.815
       177.000         130.000
   -630306.595 8   -491145.782 7  21796577.526    21796580.227    21796577.516
       124.000          89.000
   5652445.091 7   4404503.504 6  23511130.762    23511134.530    23511131.304
        34.000          19.000
 03  4 13  1 55  0.0000000  0 11G 9G18G23G30G21G17G 6G26G 5G29G10
   1014656.927 6    790646.336 6  24081803.607    24081811.656    24081803.497
        19.000          12.000
  -4710926.748 7  -3670841.735 6  22746648.349    22746653.298    22746648.400
        50.000          27.000
  -5092559.442 7  -3968218.484 7  23056756.705    23056763.331    23056757.111
        51.000          43.000
   -182267.934 8   -142025.010 8  21052432.037    21052435.864    21052431.422
       183.000         150.000
   -469852.604 6   -366109.995 6  23802062.868    23802064.867    23802062.565
        21.000          10.000
    -72254.436 6    -56296.881 6  23122847.083    23122851.813    23122847.032
        27.000          20.000
  -4520808.437 8  -3522707.235 7  21932685.476    21932688.868    21932685.453
       107.000          75.000
  -1730469.770 8  -1348413.776 8  21714195.655    21714198.930    21714195.351
       154.000         126.000
   3539043.239 8   2757695.409 8  21478355.591    21478360.168    21478356.003
       184.000         129.000
   -626978.031 8   -488552.069 7  21797210.638    21797213.556    21797210.565
       122.000          88.000
   5748975.384 7   4479721.913 6  23529499.815    23529503.439    23529500.268
        32.000          18.000
 03  4 13  1 55 30.0000000  0 11G 9G18G23G30G21G17G 6G26G 5G29G10
   1027166.910 6    800394.558 6  24084184.163    24084191.508    24084184.468
        20.000          10.000
  -4778834.379 7  -3723756.712 6  22733726.084    22733730.980    22733726.089
        52.000          30.000
  -5168328.175 7  -4027259.011 7  23042338.128    23042344.834    23042338.570
        52.000          44.000
   -170503.817 8   -132858.011 8  21054670.676    21054674.222    21054670.317
       177.000         141.000
   -477594.966 6   -372142.928 6  23800589.293    23800591.731    23800588.810
        21.000          11.000
    -71976.233 6    -56080.039 6  23122899.915    23122904.661    23122900.344
        27.000          21.000
  -4591930.686 8  -3578127.167 7  21919151.445    21919154.720    21919151.295
       110.000          76.000
  -1749161.514 8  -1362978.722 8  21710638.850    21710642.094    21710638.547
       157.000         128.000
   3607674.094 8   2811173.981 8  21491415.419    21491419.826    21491415.799
       178.000         122.000
   -623145.565 8   -485565.705 7  21797939.905    21797943.007    21797939.831
       122.000          89.000
   5845547.937 6   4554973.256 6  23547876.959    23547880.526    23547877.265
        31.000          17.000
 03  4 13  1 56  0.0000000  0 11G 9G18G23G30G21G17G 6G26G 5G29G10
   1039427.109 6    809948.161 5  24086517.142    24086524.549    24086516.977
        19.000           9.000
  -4846363.023 7  -3776376.438 6  22720875.884    22720880.533    22720876.123
        52.000          30.000
  -5243763.752 7  -4086040.006 7  23027983.679    23027989.933    23027984.149
        53.000          44.000
   -158277.598 8   -123330.841 8  21056997.118    21057000.581    21056996.537
       184.000         150.000
   -485368.652 6   -378200.276 6  23799110.294    23799112.575    23799109.868
        21.000          11.000
    -71687.094 6    -55854.677 6  23122955.076    23122959.867    23122955.199
        27.000          22.000
  -4662907.418 8  -3633433.716 7  21905644.956    21905648.363    21905644.812
       109.000          78.000
  -1767499.625 8  -1377268.111 8  21707149.038    21707152.397    21707148.743
       157.000         131.000
   3676561.486 8   2864852.452 8  21504523.925    21504528.742    21504524.413
       171.000         121.000
   -618827.642 8   -482201.059 7  21798761.716    21798764.663    21798761.737
       122.000          90.000
   5942140.312 6   4630240.045 6  23566257.821    23566261.428    23566258.208
        31.000          16.000
 03  4 13  1 56 30.0000000  0 11G 9G18G23G30G21G17G 6G26G 5G29G10
   1051453.633 6    819319.663 6  24088805.083    24088813.848    24088804.933
        19.000          11.000
  -4913495.435 7  -3828687.378 6  22708100.830    22708105.195    22708100.878
        53.000          31.000
  -5318848.100 7  -4144547.305 7  23013695.395    23013702.039    23013695.677
        53.000          43.000
   -145574.933 8   -113432.520 8  21059414.329    21059417.743    21059413.838
       183.000         145.000
   -493159.025 6   -384270.637 6  23797627.796    23797630.193    23797627.681
        23.000          11.000
    -71372.595 6    -55609.557 6  23123015.066    23123019.273    23123014.929
        27.000          21.000
  -4733720.022 8  -3688612.371 7  21892169.703    21892173.293    21892169.876
       107.000          81.000
  -1785466.120 8  -1391267.933 8  21703730.066    21703733.413    21703729.759
       156.000         129.000
   3745718.677 8   2918741.150 8  21517684.698    21517689.321    21517685.193
       180.000         124.000
   -614006.763 8   -478444.503 7  21799679.173    21799681.834    21799679.110
       122.000          87.000
   6038766.375 6   4705533.083 6  23584645.258    23584648.746    23584645.624
        30.000          15.000
 03  4 13  1 57  0.0000000  0 11G 9G18G23G30G21G17G 6G26G 5G29G10
   1063248.047 6    828510.293 6  24091050.300    24091057.982    24091050.346
        21.000          13.000
  -4980228.649 7  -3880687.232 6  22695402.215    22695406.613    22695402.237
        52.000          28.000
  -5393578.342 7  -4202778.611 7  22999474.538    22999481.186    22999474.725
        54.000          43.000
   -132395.676 8   -103162.852 8  21061922.212    21061925.462    21061921.760
       187.000         151.000
   -500966.120 6   -390354.027 6  23796142.505    23796144.828    23796142.353
        23.000          11.000
    -71032.964 6    -55344.849 6  23123079.188    23123083.868    23123079.412
        26.000          21.000
  -4804364.582 8  -3743660.076 7  21878726.422    21878730.097    21878726.656
       106.000          81.000
  -1803057.666 8  -1404975.588 8  21700382.574    21700385.749    21700382.230
       157.000         129.000
   3815143.918 8   2972838.729 8  21530895.632    21530900.355    21530896.063
       175.000         120.000
   -608680.452 8   -474294.106 7  21800692.584    21800695.323    21800692.258
       118.000          86.000
   6135425.156 6   4780851.618 6  23603038.856    23603042.544    23603039.296
        28.000          14.000
 03  4 13  1 57 30.0000000  0 11G 9G18G23G30G21G17G 6G26G 5G29G10
   1074786.802 6    837501.712 6  24093245.934    24093253.523    24093245.915
        23.000          12.000
  -5046585.093 7  -3932393.495 7  22682774.691    22682779.361    22682774.831
        56.000          33.000
  -5467976.664 7  -4260751.360 7  22985317.463    22985323.464    22985318.016
        56.000          45.000
   -118764.791 8    -92541.289 8  21064515.953    21064519.277    21064515.451
       179.000         143.000
   -508814.969 6   -396469.952 6  23794648.362    23794651.522    23794648.144
        22.000          12.000
    -70693.844 6    -55080.549 6  23123143.776    23123148.284    23123143.768
        26.000          21.000
  -4874862.145 8  -3798593.244 7  21865311.142    21865314.760    21865311.055
       113.000          83.000
  -1820296.085 8  -1418408.078 8  21697102.026    21697105.360    21697101.847
       155.000         128.000
   3884810.760 8   3027124.560 8  21544152.653    21544157.312    21544153.044
       171.000         116.000
   -602871.123 8   -469767.325 7  21801798.061    21801800.917    21801798.001
       118.000          87.000
   6232090.632 6   4856175.368 6  23621433.560    23621437.148    23621433.973
        26.000          13.000
 03  4 13  1 58  0.0000000  0 11G 9G18G23G30G21G17G 6G26G 5G29G10
   1086066.334 6    846291.150 6  24095391.826    24095399.642    24095391.421
        22.000          11.000
  -5112566.915 7  -3983807.840 6  22670218.534    22670223.074    22670218.892
        52.000          30.000
  -5542045.085 7  -4318467.105 7  22971222.483    22971228.919    22971222.883
        55.000          42.000
   -104687.328 8    -81571.735 8  21067194.584    21067198.060    21067194.154
       178.000         147.000
   -516710.731 6   -402622.432 6  23793145.912    23793148.834    23793145.751
        23.000          12.000
    -70360.365 6    -54820.637 6  23123207.162    23123211.720    23123207.297
        26.000          21.000
  -4945213.938 8  -3853412.830 7  21851923.915    21851927.205    21851923.958
       119.000          86.000
  -1837183.137 8  -1431566.776 8  21693888.401    21693891.876    21693888.267
       151.000         131.000
   3954712.739 8   3081593.623 8  21557454.872    21557459.493    21557455.349
       174.000         117.000
   -596581.309 8   -464866.151 7  21802995.205    21802997.799    21802995.365
       121.000          90.000
   6328756.722 6   4931499.600 6  23639828.506    23639832.051    23639829.062
        24.000          13.000
 03  4 13  1 58 30.0000000  0 11G 9G18G23G30G21G17G 6G26G 5G29G10
   1097103.048 6    854891.381 6  24097492.376    24097499.759    24097492.746
        21.000          12.000
  -5178157.059 7  -4034917.036 6  22657737.360    22657741.758    22657737.662
        55.000          31.000
  -5615765.496 7  -4375911.507 7  22957193.756    22957200.298    22957194.316
        58.000          45.000
    -90148.515 8    -70242.624 8  21069960.974    21069964.544    21069960.475
       174.000         145.000
   -524638.878 6   -408800.162 6  23791637.197    23791639.598    23791637.362
        22.000          11.000
    -70018.149 6    -54553.927 6  23123272.374    23123276.937    23123272.799
        26.000          21.000
  -5015401.214 8  -3908104.210 7  21838567.800    21838571.057    21838567.892
       121.000          89.000
  -1853700.789 8  -1444437.627 8  21690745.287    21690748.637    21690745.073
       153.000         131.000
   4024863.136 8   3136256.256 8  21570803.681    21570808.691    21570803.953
       169.000         115.000
   -589793.629 8   -459577.025 7  21804286.574    21804289.501    21804286.532
       113.000          89.000
   6425437.193 6   5006835.029 6  23658226.119    23658229.681    23658226.519
        22.000          12.000
 03  4 13  1 59  0.0000000  0 11G 9G18G23G30G21G17G 6G26G 5G29G10
   1107937.697 6    863334.152 6  24099554.152    24099560.971    24099554.423
        22.000          13.000
  -5243313.195 7  -4085688.027 6  22645338.535    22645342.881    22645338.503
        56.000          31.000
  -5689096.072 7  -4433052.226 7  22943239.722    22943245.701    22943240.184
        55.000          41.000
    -75109.326 8    -58523.684 8  21072822.930    21072826.184    21072822.400
       175.000         146.000
   -532559.888 6   -414972.315 6  23790129.893    23790132.518    23790129.610
        23.000          12.000
    -69627.590 6    -54249.552 6  23123346.601    23123351.105    23123347.010
        26.000          21.000
  -5085380.727 8  -3962633.697 7  21825251.038    21825254.513    21825250.697
       123.000          92.000
  -1869806.713 8  -1456987.660 8  21687680.508    21687683.676    21687680.234
       156.000         129.000
   4095299.703 8   3191141.880 8  21584207.619    21584211.956    21584208.013
       172.000         109.000
   -582466.570 8   -453867.601 7  21805680.729    21805683.738    21805680.366
       111.000          90.000
   6522170.405 6   5082211.560 6  23676633.847    23676637.381    23676634.602
        22.000          12.000
 03  4 13  1 59 30.0000000  0 11G 9G18G23G30G21G17G 6G26G 5G29G10
   1118521.662 6    871581.569 6  24101567.204    24101575.286    24101566.732
        21.000          14.000
  -5308082.901 7  -4136157.858 7  22633013.520    22633017.276    22633013.711
        57.000          33.000
  -5762084.100 7  -4489925.965 7  22929350.309    22929356.705    22929350.909
        58.000          46.000
    -59620.097 8    -46454.145 8  21075770.523    21075773.678    21075769.947
       176.000         145.000
   -540524.281 6   -421178.283 6  23788614.725    23788616.790    23788614.859
        24.000          10.000
    -69240.024 6    -53947.503 6  23123420.640    23123424.774    23123421.054
        26.000          21.000
  -5155198.856 8  -4017037.432 7  21811965.269    21811968.601    21811964.855
       126.000          93.000
  -1885547.856 8  -1469253.448 8  21684685.084    21684688.113    21684684.893
       155.000         128.000
   4165970.611 8   3246210.121 8  21597655.718    21597660.477    21597656.064
       168.000         112.000
   -574647.713 8   -447774.958 7  21807168.768    21807171.537    21807168.516
       110.000          90.000
   6618904.897 6   5157589.083 6  23695041.848    23695045.119    23695042.490
        23.000          12.000
 03  4 13  2  0  0.0000000  0 11G 9G18G23G30G21G17G 6G26G 5G29G10
   1128868.345 6    879644.087 6  24103535.598    24103543.914    24103535.932
        20.000          12.000
  -5372451.775 7  -4186315.378 6  22620763.985    22620768.549    22620764.020
        54.000          31.000
  -5834714.807 7  -4546521.262 7  22915529.264    22915535.532    22915529.978
        56.000          43.000
    -43669.120 8    -34024.843 8  21078805.982    21078809.338    21078805.517
       180.000         151.000
   -548520.052 6   -427408.707 6  23787092.823    23787095.313    23787092.873
        23.000          12.000
    -68843.378 6    -53638.381 6  23123495.991    23123500.336    23123496.402
        27.000          21.000
  -5224839.727 8  -4071303.036 7  21798713.185    21798716.302    21798713.001
       127.000          93.000
  -1900909.088 8  -1481223.198 8  21681761.572    21681764.960    21681761.254
       146.000         127.000
   4236886.418 8   3301469.176 8  21611150.342    21611155.438    21611150.618
       163.000         111.000
   -566322.746 8   -441287.944 7  21808752.649    21808755.738    21808752.890
       104.000          91.000
   6715651.943 6   5232976.392 6  23713451.935    23713455.219    23713452.716
        22.000          13.000
 03  4 13  2  0 30.0000000  0 11G 9G18G23G30G21G17G 6G26G 5G29G10
   1138956.237 6    887504.977 6  24105456.355    24105463.218    24105456.442
        24.000          10.000
  -5436440.117 7  -4236176.341 7  22608587.353    22608592.165    22608587.156
        55.000          34.000
  -5907008.011 7  -4602853.530 7  22901772.178    22901778.111    22901772.630
        57.000          43.000
    -27279.283 8    -21253.577 8  21081924.852    21081928.224    21081924.460
       174.000         145.000
   -556570.253 6   -433681.532 6  23785560.539    23785563.891    23785560.197
        23.000          13.000
    -68460.471 6    -53339.965 6  23123568.623    23123573.076    23123569.232
        26.000          21.000
  -5294322.319 8  -4125445.301 7  21785490.932    21785494.087    21785490.857
       127.000          92.000
  -1915910.246 8  -1492912.371 8  21678906.926    21678910.363    21678906.673
       146.000         127.000
   4308022.648 8   3356900.005 8  21624687.427    21624691.866    21624687.836
       165.000         107.000
   -557512.306 8   -434422.643 7  21810429.149    21810432.198    21810429.530
       101.000          91.000
   6812387.412 6   5308354.678 6  23731860.202    23731863.530    23731861.106
        23.000          13.000
 03  4 13  2  1  0.0000000  0 11G 9G18G23G30G21G17G 6G26G 5G29G10
   1148792.497 6    895169.804 6  24107328.032    24107334.658    24107328.055
        28.000          12.000
  -5500039.965 7  -4285734.628 7  22596485.031    22596489.152    22596485.289
        58.000          35.000
  -5978955.696 7  -4658916.656 7  22888080.966    22888086.895    22888081.625
        56.000          41.000
    -10445.329 8     -8136.280 8  21085128.167    21085131.453    21085127.570
       173.000         145.000
   -564669.295 6   -439992.418 6  23784019.671    23784022.205    23784019.504
        23.000          14.000
    -68086.123 6    -53048.216 6  23123639.979    23123644.599    23123639.959
        26.000          22.000
  -5363637.079 8  -4179456.792 7  21772300.699    21772303.809    21772300.339
       128.000          87.000
  -1930542.707 8  -1504314.248 8  21676122.637    21676125.947    21676122.488
       148.000         127.000
   4379383.328 8   3412505.729 8  21638266.533    21638271.689    21638266.888
       159.000         110.000
   -548208.455 7   -427172.866 7  21812199.560    21812202.768    21812200.003
        99.000          93.000
   6909116.250 6   5383727.802 6  23750267.341    23750270.816    23750268.038
        25.000          15.000
 03  4 13  2  1 30.0000000  0 11G 9G18G23G30G21G17G 6G26G 5G29G10
   1158414.949 6    902667.989 6  24109158.805    24109166.046    24109158.998
        27.000          14.000
  -5563212.071 7  -4334959.565 7  22584463.255    22584467.795    22584463.324
        54.000          33.000
  -6050518.532 7  -4714679.925 7  22874463.394    22874468.974    22874464.028
        59.000          43.000
      6869.046 8      5355.439 8  21088422.860    21088426.292    21088422.449
       169.000         140.000
   -572781.143 6   -446313.275 6  23782475.792    23782478.178    23782475.954
        22.000          13.000
    -67684.303 6    -52735.067 6  23123716.327    23123721.037    23123716.589
        25.000          22.000
  -5432743.915 8  -4233306.268 7  21759150.247    21759153.126    21759150.221
       136.000          87.000
  -1944767.054 8  -1515398.115 8  21673415.682    21673419.042    21673415.265
       148.000         126.000
   4451003.152 8   3468313.377 8  21651895.805    21651900.674    21651896.210
       165.000         111.000
   -538372.471 7   -419508.439 7  21814071.390    21814074.607    21814070.970
        98.000          95.000
   7005873.697 6   5459123.213 6  23768679.701    23768683.331    23768680.181
        26.000          16.000
 03  4 13  2  2  0.0000000  0 11G 9G18G23G30G21G17G 6G26G 5G29G10
   1167775.225 6    909961.914 6  24110939.424    24110947.453    24110939.009
        22.000          14.000
  -5626003.784 7  -4383888.049 7  22572514.122    22572519.045    22572513.977
        54.000          34.000
  -6121743.621 7  -4770179.904 7  22860909.308    22860915.016    22860909.743
        60.000          45.000
     24613.328 8     19182.128 8  21091799.516    21091802.901    21091798.975
       171.000         143.000
   -580955.809 6   -452683.086 6  23780919.978    23780922.539    23780920.146
        22.000          14.000
    -67305.515 6    -52439.862 6  23123788.485    23123792.915    23123788.823
        27.000          23.000
  -5501688.965 8  -4287029.670 7  21746030.522    21746033.487    21746030.572
       134.000          89.000
  -1958630.344 8  -1526200.641 8  21670777.802    21670780.762    21670777.710
       155.000         125.000
   4522830.599 8   3524282.824 8  21665564.111    21665568.346    21665564.486
       161.000         102.000
   -528052.232 7   -411466.667 7  21816034.961    21816038.269    21816034.903
        94.000          93.000
   7102608.553 6   5534501.018 6  23787087.714    23787091.402    23787088.068
        29.000          17.000
 03  4 13  2  2 30.0000000  0 11G 9G18G23G30G21G17G 6G26G 5G29G10
   1176900.857 6    917072.956 6  24112675.317    24112683.411    24112674.853
        19.000          14.000
  -5688386.853 7  -4432498.070 7  22560643.167    22560647.926    22560643.297
        56.000          36.000
  -6192602.538 7  -4825394.624 7  22847425.223    22847430.952    22847425.839
        59.000          44.000
     42813.213 8     33363.810 8  21095262.983    21095266.263    21095262.390
       174.000         140.000
   -589167.287 6   -459081.588 6  23779357.428    23779360.434    23779357.366
        22.000          14.000
    -66923.471 6    -52142.115 6  23123861.161    23123865.513    23123861.524
        28.000          23.000
  -5570442.450 8  -4340603.797 7  21732946.819    21732950.084    21732946.661
       132.000          92.000
  -1972103.349 8  -1536699.042 8  21668213.935    21668216.937    21668213.655
       158.000         127.000
   4594890.012 8   3580433.018 8  21679275.933    21679280.851    21679276.404
       149.000         102.000
   -517219.388 7   -403025.472 7  21818096.467    21818099.539    21818096.576
        91.000          92.000
   7199345.655 7   5609880.576 6  23805496.358    23805499.865    23805496.781
        32.000          18.000
 03  4 13  2  3  0.0000000  0 11G 9G18G23G30G21G17G 6G26G 5G29G10
   1185756.497 6    923973.627 6  24114361.158    24114367.910    24114360.990
        22.000          13.000
  -5750395.985 7  -4480816.740 7  22548843.179    22548847.895    22548843.044
        57.000          37.000
  -6263129.311 7  -4880350.487 7  22834004.451    22834010.502    22834004.985
        61.000          49.000
     61431.558 8     47871.608 8  21098806.171    21098809.350    21098805.708
       173.000         140.000
   -597452.388 6   -465537.452 6  23777780.757    23777783.434    23777780.711
        22.000          14.000
    -66575.862 6    -51871.202 6  23123927.474    23123931.784    23123928.003
        28.000          23.000
  -5639037.347 8  -4394054.355 7  21719893.562    21719896.803    21719893.345
       128.000          92.000
  -1985220.136 8  -1546919.878 8  21665717.720    21665720.898    21665717.442
       158.000         129.000
   4667142.833 8   3636733.917 8  21693025.975    21693030.888    21693026.406
       159.000         111.000
   -505908.845 7   -394212.036 7  21820248.947    21820251.925    21820248.351
        92.000          93.000
   7296047.385 7   5685232.567 6  23823898.040    23823901.818    23823898.590
        33.000          19.000
 03  4 13  2  3 30.0000000  0 11G 9G18G23G30G21G17G 6G26G 5G29G10
   1194373.627 6    930688.464 6  24116001.012    24116007.408    24116000.507
        27.000          12.000
  -5811998.627 7  -4528818.675 7  22537120.381    22537125.421    22537120.486
        56.000          38.000
  -6333291.300 7  -4935022.105 7  22820652.867    22820658.911    22820653.022
        61.000          48.000
     80497.915 8     62728.476 8  21102434.292    21102437.558    21102433.777
       178.000         149.000
   -605781.476 6   -472027.590 6  23776195.583    23776198.385    23776195.521
        21.000          14.000
    -66232.863 6    -51603.883 6  23123992.489    23123996.840    23123993.157
        27.000          23.000
  -5707439.777 8  -4447354.930 7  21706877.090    21706880.358    21706877.204
       129.000          93.000
  -1997947.798 8  -1556837.493 8  21663295.883    21663298.931    21663295.687
       160.000         129.000
   4739617.480 8   3693207.671 8  21706816.963    21706822.080    21706817.311
       148.000         106.000
   -494088.258 7   -385001.160 7  21822498.139    21822501.469    21822498.463
        93.000          95.000
   7392742.937 7   5760579.752 6  23842298.551    23842302.305    23842299.071
        34.000          19.000
 03  4 13  2  4  0.0000000  0 11G 9G18G23G30G21G17G 6G26G 5G29G10
   1202771.525 6    937232.472 6  24117598.677    24117605.222    24117598.022
        27.000          13.000
  -5873174.835 7  -4576488.426 7  22525478.772    22525483.928    22525478.807
        56.000          37.000
  -6403068.048 7  -4989393.539 7  22807374.864    22807380.736    22807375.374
        59.000          45.000
    100029.660 8     77947.945 8  21106151.150    21106154.356    21106150.668
       167.000         135.000
   -614137.001 6   -478538.329 6  23774605.812    23774608.133    23774605.526
        22.000          14.000
    -65877.283 6    -51326.763 6  23124059.938    23124064.309    23124060.484
        27.000          22.000
  -5775628.041 8  -4500488.622 7  21693901.103    21693904.580    21693901.028
       129.000          92.000
  -2010265.389 8  -1566435.577 8  21660951.797    21660954.989    21660951.520
       166.000         130.000
   4812330.022 8   3749866.796 7  21720653.736    21720658.170    21720654.160
       147.000          97.000
   -481737.713 7   -375377.332 7  21824848.528    21824851.708    21824848.485
        92.000          94.000
   7489448.739 7   5835934.914 6  23860701.084    23860704.606    23860701.691
        36.000          19.000
 03  4 13  2  4 30.0000000  0 11G 9G18G23G30G21G17G 6G26G 5G29G10
   1210922.796 6    943584.300 6  24119149.629    24119156.579    24119149.050
        25.000          14.000
  -5933951.001 7  -4623846.363 7  22513913.706    22513918.217    22513914.010
        58.000          38.000
  -6472485.898 7  -5043485.210 7  22794164.815    22794171.040    22794165.420
        62.000          51.000
    119997.285 8     93507.099 8  21109950.641    21109954.031    21109950.025
       171.000         140.000
   -622547.961 6   -485092.267 6  23773005.387    23773007.720    23773004.999
        25.000          13.000
    -65538.153 6    -51062.462 6  23124124.433    23124128.875    23124124.722
        26.000          22.000
  -5843627.575 8  -4553475.262 7  21680961.127    21680964.362    21680960.909
       127.000          90.000
  -2022199.482 8  -1575734.836 8  21658680.843    21658683.881    21658680.594
       169.000         131.000
   4885249.653 8   3806687.308 8  21734530.086    21734534.763    21734530.498
       148.000         103.000
   -468884.518 7   -365361.827 7  21827294.304    21827297.283    21827294.521
        92.000          92.000
   7586134.598 7   5911274.548 6  23879099.897    23879103.103    23879100.471
        34.000          16.000
 03  4 13  2  5  0.0000000  0 11G 9G18G23G30G21G17G 6G26G 5G29G10
   1218850.985 6    949762.285 6  24120658.161    24120665.415    24120657.695
        22.000          13.000
  -5994303.216 7  -4670874.072 7  22502429.136    22502433.877    22502429.075
        58.000          38.000
  -6541520.550 7  -5097278.322 7  22781027.930    22781034.117    22781028.063
        62.000          51.000
    140422.384 8    109422.765 8  21113837.432    21113840.904    21113837.004
       169.000         142.000
   -630992.668 6   -491672.503 6  23771398.298    23771400.507    23771397.965
        24.000          14.000
    -65193.563 6    -50793.904 6  23124189.927    23124194.402    23124190.261
        27.000          23.000
  -5911412.682 8  -4606294.811 7  21668062.106    21668065.210    21668062.079
       128.000          90.000
  -2033724.914 8  -1584715.653 8  21656487.482    21656490.627    21656487.199
       169.000         133.000
   4958396.867 8   3863685.135 8  21748449.019    21748454.542    21748449.407
       137.000         105.000
   -455504.533 7   -354935.835 7  21829840.474    21829843.468    21829839.985
        93.000          95.000
   7682821.595 7   5986615.066 6  23897498.705    23897501.884    23897499.569
        33.000          15.000
 03  4 13  2  5 30.0000000  0 11G 9G18G23G30G21G17G 6G26G 5G29G10
   1226540.615 6    955754.374 6  24122121.467    24122128.334    24122121.472
        19.000          12.000
  -6054245.748 7  -4717582.426 7  22491022.252    22491026.981    22491022.239
        60.000          39.000
  -6610186.114 7  -5150783.804 7  22767961.158    22767967.097    22767961.820
        61.000          50.000
    161287.369 8    125681.181 8  21117807.982    21117811.340    21117807.529
       166.000         139.000
   -639488.046 6   -498292.223 6  23769781.564    23769783.936    23769781.281
        24.000          14.000
    -64861.139 6    -50534.835 6  23124253.184    23124257.638    23124253.454
        27.000          22.000
  -5978996.393 8  -4658957.430 7  21655201.322    21655204.617    21655201.154
       131.000          91.000
  -2044855.912 8  -1593389.123 8  21654369.332    21654372.620    21654369.144
       170.000         137.000
   5031752.934 8   3920845.712 7  21762408.819    21762413.010    21762409.068
       144.000          96.000
   -441612.438 7   -344110.789 7  21832484.040    21832487.206    21832484.122
        97.000          98.000
   7779491.610 6   6061942.354 6  23915894.699    23915897.521    23915895.427
        31.000          14.000
 03  4 13  2  6  0.0000000  0 11G 9G18G23G30G21G17G 6G26G 5G29G10
   1233981.214 6    961552.421 6  24123536.741    24123543.860    24123536.641
        18.000          12.000
  -6113788.949 7  -4763979.694 7  22479691.981    22479695.949    22479692.093
        61.000          39.000
  -6678492.377 7  -5204009.347 7  22754962.826    22754969.268    22754963.329
        61.000          53.000
    182579.770 8    142272.621 8  21121859.856    21121863.074    21121859.271
       166.000         133.000
   -648046.304 6   -504960.941 6  23768152.746    23768155.454    23768152.683
        25.000          14.000
    -64552.919 6    -50294.626 6  23124311.944    23124316.346    23124312.280
        26.000          23.000
  -6046386.898 8  -4711469.502 7  21642377.418    21642380.762    21642377.221
       136.000          92.000
  -2055601.600 8  -1601762.339 8  21652324.681    21652327.908    21652324.446
       172.000         140.000
   5105304.160 8   3978158.382 7  21776404.943    21776409.633    21776405.309
       137.000          97.000
   -427218.446 7   -332894.655 7  21835223.200    21835226.242    21835223.279
        97.000          97.000
   7876131.703 6   6137246.326 6  23934284.745    23934287.688    23934285.429
        28.000          11.000
 03  4 13  2  6 30.0000000  0 11G 9G18G23G30G21G17G 6G26G 5G29G10
   1241156.171 6    967143.470 6  24124901.581    24124909.267    24124901.576
        20.000          14.000
  -6172948.182 7  -4810077.783 7  22468434.096    22468438.230    22468434.160
        63.000          38.000
  -6746454.851 7  -5256967.031 7  22742029.895    22742036.383    22742030.328
        61.000          56.000
    204281.136 8    159182.809 8  21125989.747    21125992.732    21125989.325
       175.000         141.000
   -656685.626 6   -511692.832 6  23766508.766    23766511.292    23766509.012
        25.000          13.000
    -64287.314 6    -50087.621 6  23124362.507    23124366.940    23124362.864
        27.000          23.000
  -6113598.360 8  -4763842.061 7  21629587.686    21629590.613    21629587.776
       144.000          92.000
  -2065977.256 8  -1609847.224 8  21650349.890    21650353.289    21650349.502
       167.000         137.000
   5179030.976 8   4035607.851 8  21790434.284    21790439.833    21790434.617
       131.000         101.000
   -412338.716 7   -321300.030 7  21838054.470    21838057.718    21838054.464
        94.000          96.000
   7972722.938 6   6212512.221 6  23952665.279    23952668.205    23952665.911
        25.000          11.000
 03  4 13  2  7  0.0000000  0 11G 9G18G23G30G21G17G 6G26G 5G29G10
   1248092.773 6    972548.791 6  24126221.883    24126229.403    24126222.075
        22.000          15.000
  -6231695.631 7  -4855855.019 7  22457254.652    22457259.116    22457254.518
        62.000          39.000
  -6814045.544 7  -5309635.066 7  22729167.712    22729173.932    22729167.997
        58.000          51.000
    226416.177 8    176430.851 8  21130201.858    21130204.990    21130201.356
       173.000         136.000
   -665380.714 6   -518468.172 6  23764854.190    23764857.008    23764854.055
        26.000          13.000
    -64039.618 6    -49894.572 6  23124409.907    23124413.899    23124410.429
        27.000          23.000
  -6180601.573 8  -4816052.348 7  21616837.375    21616840.235    21616837.362
       146.000          93.000
  -2075954.689 8  -1617621.809 8  21648451.358    21648454.350    21648451.108
       172.000         135.000
   5252957.045 8   4093212.595 7  21804502.564    21804506.968    21804502.895
       137.000          95.000
   -396945.782 7   -309305.496 7  21840983.689    21840986.719    21840983.301
        93.000          94.000
   8069289.759 6   6287759.096 6  23971041.416    23971044.585    23971041.518
        23.000          10.000
 03  4 13  2  7 30.0000000  0 11G 9G18G23G30G21G17G 6G26G 5G29G10
   1254814.976 6    977787.046 6  24127501.133    24127507.633    24127501.479
        24.000          14.000
  -6290006.958 7  -4901292.407 7  22446158.527    22446162.559    22446158.599
        64.000          39.000
  -6881239.307 7  -5361993.757 7  22716381.294    22716387.476    22716381.883
        61.000          56.000
    249006.680 8    194033.793 8  21134500.711    21134503.896    21134500.154
       172.000         137.000
   -674109.194 6   -525269.533 6  23763193.408    23763195.660    23763193.548
        26.000          14.000
    -63787.555 6    -49698.116 6  23124457.727    23124461.941    23124458.221
        27.000          23.000
  -6247370.320 8  -4868079.938 7  21604131.589    21604134.698    21604131.276
       145.000          95.000
  -2085508.695 8  -1625066.443 8  21646633.347    21646636.053    21646633.016
       175.000         132.000
   5327103.083 8   4150988.752 7  21818611.418    21818616.379    21818611.840
       124.000          93.000
   -381015.417 7   -296892.195 7  21844015.222    21844018.027    21844015.500
        97.000          95.000
   8165853.296 6   6363003.405 6  23989416.323    23989419.650    23989416.739
        21.000          10.000
 03  4 13  2  8  0.0000000  0 11G 9G18G23G30G21G17G 6G26G 5G29G10
   1261312.859 6    982850.502 6  24128737.566    24128744.114    24128737.458
        23.000          15.000
  -6347891.136 7  -4946396.992 7  22435143.567    22435147.686    22435143.517
        65.000          39.000
  -6948045.157 7  -5414050.262 7  22703668.670    22703674.795    22703669.204
        59.000          51.000
    272041.008 8    211982.628 8  21138883.875    21138887.358    21138883.400
       176.000         143.000
   -682882.468 6   -532105.806 6  23761523.390    23761526.458    23761524.033
        26.000          13.000
    -63542.389 6    -49507.037 6  23124504.134    23124508.684    23124504.575
        27.000          22.000
  -6313912.106 8  -4919930.671 7  21591469.177    21591472.243    21591469.088
       146.000          97.000
  -2094647.853 8  -1632187.826 8  21644894.088    21644896.963    21644893.802
       171.000         131.000
   5401456.004 8   4208926.102 7  21832760.498    21832765.674    21832760.850
       126.000          98.000
   -364557.015 7   -284067.435 7  21847146.954    21847150.054    21847146.478
        95.000          96.000
   8262401.659 6   6438235.898 5  24007788.653    24007792.291    24007788.995
        19.000           8.000
 03  4 13  2  8 30.0000000  0 11G 9G18G23G30G21G17G 6G26G 5G29G10
   1267580.814 6    987734.793 6  24129929.971    24129936.872    24129930.065
        22.000          14.000
  -6405352.912 7  -4991172.368 7  22424208.687    22424213.246    22424208.755
        65.000          40.000
  -7014467.298 7  -5465807.655 7  22691028.917    22691034.729    22691029.239
        63.000          57.000
    295511.184 8    230271.012 8  21143350.057    21143353.416    21143349.516
       161.000         125.000
   -691707.603 6   -538982.485 6  23759844.311    23759846.808    23759844.613
        27.000          14.000
    -63311.442 6    -49327.040 6  23124548.084    23124552.436    23124548.404
        26.000          22.000
  -6380230.433 8  -4971607.275 7  21578849.442    21578852.250    21578849.357
       157.000          98.000
  -2103376.527 8  -1638989.342 8  21643233.014    21643236.055    21643232.794
       166.000         134.000
   5476006.965 8   4267017.780 7  21846947.452    21846952.193    21846947.911
       132.000          95.000
   -347575.732 7   -270835.232 7  21850378.431    21850381.530    21850378.140
        96.000          97.000
   8358926.510 6   6513450.070 5  24026156.643    24026160.352    24026157.030
        18.000           7.000
 03  4 13  2  9  0.0000000  0 11G 9G18G23G30G21G17G 6G26G 5G29G10
   1273583.076 6    992412.051 6  24131072.540    24131078.774    24131072.663
        20.000          15.000
  -6462427.883 7  -5035646.360 7  22413347.523    22413352.031    22413347.712
        65.000          41.000
  -7080541.349 7  -5517293.902 7  22678455.590    22678461.371    22678456.123
        62.000          54.000
    319379.151 8    248869.455 8  21147891.873    21147895.308    21147891.323
       172.000         141.000
   -700622.571 6   -545929.168 6  23758148.331    23758150.201    23758148.342
        28.000          14.000
    -63133.069 6    -49188.012 6  23124581.831    23124586.468    23124582.057
        27.000          23.000
  -6446359.002 8  -5023136.029 7  21566265.587    21566268.445    21566265.413
       168.000          99.000
  -2111729.651 8  -1645498.229 8  21641643.418    21641646.456    21641643.236
       168.000         136.000
   5550716.693 8   4325233.171 7  21861163.570    21861168.540    21861163.932
       122.000          91.000
   -330107.611 7   -257223.679 7  21853702.636    21853705.493    21853702.351
        93.000          94.000
   8455389.272 6   6588615.860 5  24044513.329    24044516.603    24044513.584
        18.000           7.000
 03  4 13  2  9 30.0000000  0 11G 9G18G23G30G21G17G 6G26G 5G29G10
   1279350.560 6    996906.339 6  24132169.638    24132176.163    24132170.016
        19.000          15.000
  -6519084.989 7  -5079794.768 7  22402566.378    22402570.677    22402566.596
        65.000          41.000
  -7146235.650 7  -5568484.250 7  22665954.212    22665960.205    22665954.617
        62.000          56.000
    343673.007 8    267799.696 8  21152515.085    21152518.504    21152514.787
       169.000         136.000
   -709598.467 6   -552923.346 6  23756439.998    23756442.059    23756440.127
        27.000          15.000
    -62978.158 6    -49067.282 6  23124611.429    23124615.618    23124611.687
        27.000          24.000
  -6512264.998 8  -5074491.366 8  21553724.194    21553726.945    21553724.122
       168.000         100.000
  -2119675.473 8  -1651689.745 8  21640131.626    21640134.256    21640131.495
       165.000         135.000
   5625612.567 8   4383593.601 7  21875416.326    21875421.152    21875416.780
       126.000          94.000
   -312121.842 7   -243208.776 7  21857124.973    21857128.068    21857124.791
        90.000          93.000
   8551818.198 6   6663755.276 5  24062863.176    24062866.708    24062864.149
        17.000           6.000
 03  4 13  2 10  0.0000000  0 11G 9G18G23G30G21G17G 6G26G 5G29G10
   1284896.552 6   1001228.055 6  24133224.852    24133231.542    24133224.810
        21.000          14.000
  -6575310.367 7  -5123606.755 7  22391866.908    22391871.513    22391867.061
        65.000          42.000
  -7211536.021 7  -5619367.600 7  22653528.035    22653533.375    22653528.533
        63.000          55.000
    368404.257 8    287070.774 8  21157221.360    21157224.547    21157220.968
       169.000         137.000
   -718623.239 6   -559955.586 6  23754722.538    23754724.436    23754722.718
        26.000          14.000
    -62835.018 6    -48955.707 6  23124638.418    23124642.894    23124638.907
        26.000          23.000
  -6577932.607 8  -5125660.925 8  21541228.109    21541230.815    21541228.261
       168.000         101.000
  -2127199.366 8  -1657552.471 8  21638699.460    21638702.431    21638699.225
       160.000         135.000
   5700704.763 8   4442107.022 7  21889705.847    21889710.876    21889706.373
       125.000          95.000
   -293604.435 7   -228779.597 7  21860648.925    21860651.846    21860648.613
        92.000          95.000
   8648223.802 6   6738876.536 5  24081209.033    24081211.883    24081209.384
        17.000           7.000
 03  4 13  2 10 30.0000000  0 11G 9G18G23G30G21G17G 6G26G 5G29G10
   1290174.373 6   1005340.809 6  24134228.968    24134235.219    24134229.200
        21.000          12.000
  -6631149.830 7  -5167117.974 7  22381241.249    22381245.527    22381241.484
        66.000          42.000
  -7276488.028 7  -5669979.524 7  22641168.194    22641173.450    22641168.884
        65.000          53.000
    393523.791 8    306644.345 8  21162001.673    21162004.828    21162001.305
       170.000         137.000
   -727745.108 6   -567063.488 6  23752986.910    23752988.380    23752986.853
        26.000          14.000
    -62752.085 6    -48891.052 6  23124654.300    23124658.719    23124654.671
        26.000          24.000
  -6643406.287 8  -5176679.367 8  21528768.764    21528771.557    21528768.832
       167.000         101.000
  -2134346.780 8  -1663121.842 8  21637339.423    21637342.382    21637339.364
       161.000         138.000
   5775943.727 8   4500734.803 7  21904023.277    21904027.840    21904023.814
       124.000          88.000
   -274602.031 7   -213972.501 7  21864264.917    21864267.779    21864265.019
        90.000          94.000
   8744557.503 6   6813941.752 5  24099540.369    24099544.013    24099541.146
        17.000           7.000
 03  4 13  2 11  0.0000000  0 11G 9G18G23G30G21G17G 6G26G 5G29G10
   1295239.792 6   1009288.065 6  24135192.915    24135199.220    24135192.851
        22.000          11.000
  -6686547.534 7  -5210284.979 7  22370699.299    22370703.454    22370699.416
        70.000          42.000
  -7341035.672 7  -5720276.390 7  22628884.790    22628890.818    22628885.301
        65.000          55.000
    419084.994 8    326562.094 8  21166865.952    21166868.945    21166865.563
       168.000         130.000
   -736910.364 6   -574205.196 6  23751242.747    23751244.353    23751243.010
        26.000          15.000
    -62675.957 6    -48831.701 6  23124668.933    23124673.339    23124669.323
        26.000          25.000
  -6708628.461 8  -5227501.835 8  21516357.356    21516360.164    21516357.247
       172.000         103.000
  -2141061.360 8  -1668353.933 8  21636061.803    21636064.721    21636061.681
       161.000         140.000
   5851381.314 8   4559517.373 7  21918379.005    21918383.253    21918379.495
       129.000          88.000
   -255059.123 7   -198744.229 7  21867983.372    21867986.586    21867983.207
        83.000          91.000
   8840871.803 6   6888991.848 5  24117868.339    24117872.240    24117869.091
        17.000           8.000
 03  4 13  2 11 30.0000000  0 11G 9G18G23G30G21G17G 6G26G 5G29G10
   1300075.917 6   1013056.652 6  24136112.610    24136119.344    24136112.483
        21.000          13.000
  -6741519.762 7  -5253120.442 7  22360238.438    22360242.641    22360238.614
        71.000          43.000
  -7405194.715 7  -5770270.379 7  22616675.662    22616681.470    22616676.345
        66.000          56.000
    445068.725 8    346809.114 8  21171810.429    21171813.372    21171810.111
       172.000         135.000
   -746137.343 6   -581395.009 6  23749486.303    23749488.279    23749486.589
        26.000          14.000
    -62625.096 6    -48792.045 6  23124678.558    23124682.905    23124679.040
        27.000          24.000
  -6773613.543 8  -5278139.558 8  21503991.137    21503993.953    21503991.156
       171.000         106.000
  -2147358.732 8  -1673260.933 8  21634863.276    21634866.508    21634863.095
       160.000         143.000
   5926997.631 8   4618439.201 7  21932767.688    21932772.882    21932768.130
       119.000          90.000
   -234992.112 7   -183107.564 7  21871802.177    21871805.226    21871801.698
        84.000          90.000
   8937147.561 6   6964011.912 5  24136189.044    24136192.799    24136189.769
        18.000           8.000
 03  4 13  2 12  0.0000000  0 11G 9G18G23G30G21G17G 6G26G 5G29G10
   1304662.421 6   1016630.719 6  24136985.444    24136992.232    24136985.676
        20.000          15.000
  -6796086.807 7  -5295640.170 7  22349854.884    22349858.669    22349855.209
        73.000          43.000
  -7468985.179 7  -5819977.209 7  22604536.970    22604542.407    22604537.660
        66.000          55.000
    471452.181 8    367367.624 8  21176830.959    21176834.349    21176830.610
       169.000         142.000
   -755448.409 6   -588650.337 6  23747714.734    23747716.676    23747715.229
        26.000          15.000
    -62621.815 6    -48789.457 6  23124679.395    23124683.632    23124679.917
        27.000          25.000
  -6838380.018 8  -5328606.930 8  21491666.342    21491669.392    21491666.437
       168.000         110.000
  -2153258.579 8  -1677858.173 8  21633740.511    21633743.684    21633740.298
       157.000         143.000
   6002768.748 8   4677481.643 7  21947186.794    21947191.144    21947187.318
       125.000          88.000
   -214421.695 7   -167078.648 7  21875716.912    21875719.604    21875717.089
        87.000          90.000
   9033361.720 6   7038983.981 5  24154497.968    24154501.625    24154498.570
        18.000           8.000
 03  4 13  2 12 30.0000000  0 11G 9G18G23G30G21G17G 6G26G 5G29G10
   1308991.748 6   1020004.359 6  24137809.310    24137816.296    24137809.857
        20.000          17.000
  -6850255.630 7  -5337849.590 7  22339546.599    22339550.709    22339546.875
        74.000          43.000
  -7532413.783 7  -5869402.057 7  22592466.592    22592472.488    22592467.302
        67.000          57.000
    498225.105 8    388229.517 8  21181925.477    21181929.022    21181925.022
       158.000         129.000
   -764852.729 6   -595978.336 6  23745925.186    23745927.059    23745925.590
        25.000          15.000
    -62675.208 6    -48831.017 6  23124669.189    23124673.450    23124669.913
        27.000          24.000
  -6902933.280 8  -5378908.164 8  21479382.223    21479385.450    21479382.092
       169.000         115.000
  -2158767.362 8  -1682150.690 8  21632692.286    21632695.239    21632692.140
       158.000         144.000
   6078683.738 8   4736636.223 7  21961633.316    21961637.083    21961633.713
       127.000          84.000
   -193355.320 7   -150663.263 7  21879725.553    21879728.260    21879725.519
        84.000          87.000
   9129504.245 6   7113900.229 5  24172793.266    24172796.756    24172794.114
        20.000           9.000
 03  4 13  2 13  0.0000000  0 11G 9G18G23G30G21G17G 6G26G 5G29G10
   1313095.717 6   1023202.411 6  24138589.943    24138596.896    24138589.933
        20.000          16.000
  -6903994.255 7  -5379723.776 7  22329320.511    22329324.688    22329320.687
        75.000          43.000
  -7595448.215 7  -5918519.752 7  22580471.385    22580477.284    22580471.974
        67.000          57.000
    525417.225 8    409418.175 8  21187100.009    21187103.326    21187099.688
       161.000         135.000
   -774320.164 6   -603355.514 6  23744123.504    23744125.140    23744123.946
        26.000          14.000
    -62755.916 6    -48893.867 6  23124653.631    23124658.026    23124654.439
        28.000          25.000
  -6967239.398 8  -5429016.813 8  21467145.134    21467148.377    21467145.187
       167.000         119.000
  -2163852.557 8  -1686113.135 8  21631724.746    21631727.652    21631724.704
       160.000         147.000
   6154771.002 8   4795925.028 7  21976111.187    21976116.566    21976111.669
       110.000          88.000
   -171761.448 7   -133836.832 7  21883834.497    21883837.492    21883834.386
        83.000          88.000
   9225604.338 6   7188783.425 5  24191080.324    24191083.913    24191080.890
        21.000           9.000
 03  4 13  2 13 30.0000000  0 11G 9G18G23G30G21G17G 6G26G 5G29G10
   1316980.485 6   1026229.659 6  24139328.934    24139335.800    24139328.952
        20.000          14.000
  -6957296.198 7  -5421257.670 7  22319177.322    22319181.367    22319177.460
        76.000          43.000
  -7658081.678 7  -5967324.985 7  22568552.976    22568558.694    22568553.620
        70.000          59.000
    553031.922 8    430936.072 8  21192354.884    21192358.476    21192354.353
       159.000         132.000
   -783846.348 6   -610778.474 6  23742310.977    23742312.564    23742311.002
        25.000          15.000
    -62859.750 6    -48974.738 6  23124633.755    23124638.009    23124634.337
        29.000          24.000
  -7031290.205 8  -5478926.519 8  21454956.538    21454959.834    21454956.611
       165.000         117.000
  -2168507.073 8  -1689739.987 8  21630838.667    21630841.855    21630838.473
       158.000         148.000
   6231033.294 8   4855350.204 7  21990624.044    21990628.748    21990624.619
       119.000          88.000
   -149634.058 7   -116594.674 7  21888045.338    21888048.233    21888045.610
        86.000          86.000
   9321665.214 6   7263636.061 5  24209360.275    24209363.539    24209360.802
        22.000           8.000
 03  4 13  2 14  0.0000000  0 11G 9G18G23G30G21G17G 6G26G 5G29G10
   1320607.009 6   1029055.694 6  24140019.039    24140025.756    24140018.851
        20.000          13.000
  -7010200.370 7  -5462481.620 7  22309109.689    22309113.886    22309109.795
        74.000          42.000
  -7720352.807 7  -6015847.865 7  22556702.993    22556708.830    22556703.542
        71.000          61.000
    581027.731 8    452751.044 8  21197682.354    21197685.785    21197681.983
       158.000         138.000
   -793472.131 6   -618279.038 6  23740479.101    23740480.558    23740479.664
        25.000          14.000
    -63027.118 6    -49105.112 6  23124601.710    23124606.239    23124602.545
        28.000          24.000
  -7095122.512 8  -5528665.968 8  21442809.624    21442812.937    21442809.675
       163.000         117.000
  -2172769.452 8  -1693061.277 8  21630027.655    21630030.559    21630027.513
       157.000         145.000
   6307428.123 8   4914878.684 7  22005161.666    22005165.432    22005162.199
       118.000          80.000
   -127012.434 7    -98967.402 7  21892350.175    21892352.812    21892350.355
        89.000          85.000
   9417645.318 6   7338425.757 5  24227624.635    24227628.058    24227625.232
        23.000           9.000
 03  4 13  2 14 30.0000000  0 11G 9G18G23G30G21G17G 6G26G 5G29G10
   1323993.890 6   1031694.992 6  24140662.984    24140669.879    24140662.889
        19.000          12.000
  -7062688.033 7  -5503380.980 7  22299121.551    22299126.054    22299121.715
        75.000          45.000
  -7782242.461 7  -6064073.480 7  22544925.709    22544931.329    22544926.257
        73.000          60.000
    609420.292 8    474875.070 8  21203085.266    21203088.859    21203084.731
       155.000         132.000
   -803180.782 6   -625844.175 6  23738631.091    23738633.172    23738631.684
        25.000          15.000
    -63241.335 6    -49271.980 6  23124561.012    23124565.189    23124561.962
        27.000          24.000
  -7158715.943 8  -5578219.272 8  21430708.071    21430711.483    21430708.132
       158.000         118.000
  -2176620.062 8  -1696061.701 8  21629294.856    21629297.815    21629294.647
       158.000         145.000
   6383970.737 8   4974522.313 7  22019726.421    22019731.225    22019726.913
       106.000          80.000
   -103878.087 7    -80940.598 7  21896752.347    21896755.047    21896752.455
        86.000          84.000
   9513560.501 6   7413164.873 6  24245876.566    24245880.299    24245877.193
        27.000          10.000
 03  4 13  2 15  0.0000000  0 11G 9G18G23G30G21G17G 6G26G 5G29G10
   1327144.799 6   1034150.421 6  24141262.810    24141269.406    24141262.680
        19.000          12.000
  -7114755.281 7  -5543952.747 7  22289213.314    22289217.663    22289213.423
        76.000          45.000
  -7843746.436 7  -6111998.569 7  22533222.002    22533227.398    22533222.592
        75.000          60.000
    638211.093 8    497309.460 8  21208564.158    21208567.670    21208563.656
       155.000         131.000
   -812970.302 6   -633472.338 6  23736768.639    23736770.647    23736769.115
        25.000          16.000
    -63501.354 6    -49474.546 6  23124511.553    23124515.720    23124512.598
        28.000          24.000
  -7222064.706 8  -5627581.926 8  21418653.029    21418656.650    21418652.987
       153.000         120.000
  -2180054.592 8  -1698737.911 8  21628641.196    21628644.244    21628640.974
       157.000         145.000
   6460661.241 8   5034281.173 7  22034320.721    22034325.622    22034321.282
       115.000          88.000
    -80227.726 7    -62511.710 7  21901252.844    21901255.634    21901253.014
        88.000          86.000
   9609411.907 6   7487854.289 5  24264116.496    24264120.274    24264116.850
        25.000           9.000
 03  4 13  2 15 30.0000000  0 11G 9G18G23G30G21G17G 6G26G 5G29G10
   1330076.493 6   1036435.028 6  24141820.721    24141826.939    24141820.319
        19.000          13.000
  -7166385.387 7  -5584183.888 7  22279388.613    22279392.484    22279388.882
        78.000          44.000
  -7904847.547 7  -6159609.753 7  22521594.742    22521600.257    22521595.325
        74.000          60.000
    667414.036 8    520064.996 8  21214121.541    21214124.587    21214121.176
       164.000         137.000
   -822825.795 6   -641151.910 6  23734892.845    23734894.947    23734893.215
        26.000          17.000
    -63792.525 6    -49701.390 6  23124456.244    23124460.142    23124457.217
        27.000          23.000
  -7285150.089 8  -5676739.358 8  21406648.408    21406651.826    21406648.381
       159.000         122.000
  -2183055.698 8  -1701076.400 8  21628070.156    21628072.925    21628069.958
       156.000         141.000
   6537512.972 8   5094165.669 7  22048945.111    22048949.659    22048945.496
       113.000          83.000
    -56044.760 7    -43667.819 7  21905854.932    21905857.573    21905855.330
        92.000          86.000
   9705214.041 6   7562505.293 5  24282347.359    24282351.035    24282347.691
        26.000           9.000
 03  4 13  2 16  0.0000000  0 11G 9G18G23G30G21G17G 6G26G 5G29G10
   1332799.660 6   1038557.133 6  24142338.641    24142345.212    24142338.872
        19.000          14.000
  -7217567.421 7  -5624065.876 7  22269649.081    22269652.818    22269649.226
        81.000          44.000
  -7965534.347 7  -6206898.079 7  22510046.465    22510051.750    22510047.137
        76.000          61.000
    697037.394 8    543148.108 8  21219758.793    21219761.726    21219758.438
       158.000         128.000
   -832738.136 6   -648875.797 6  23733006.814    23733008.895    23733007.574
        27.000          16.000
    -64105.414 6    -49945.163 6  23124396.544    23124400.661    23124397.184
        28.000          24.000
  -7347959.174 8  -5725681.495 8  21394696.485    21394699.732    21394696.440
       168.000         123.000
  -2185611.681 8  -1703068.043 8  21627583.648    21627586.344    21627583.495
       154.000         140.000
   6614533.406 8   5154181.610 7  22063601.040    22063605.593    22063601.455
       101.000          76.000
    -31318.563 7    -24400.626 7  21910560.092    21910562.749    21910560.169
        90.000          84.000
   9800974.868 6   7637124.113 5  24300570.313    24300573.773    24300571.047
        26.000           9.000
 03  4 13  2 16 30.0000000  0 11G 9G18G23G30G21G17G 6G26G 5G29G10
   1335322.974 6   1040523.515 6  24142818.592    24142825.406    24142818.834
        18.000          16.000
  -7268292.840 7  -5663592.033 7  22259996.451    22259999.983    22259996.670
        80.000          44.000
  -8025797.993 7  -6253856.652 7  22498578.330    22498583.938    22498578.945
        76.000          61.000
    727086.944 8    566563.297 8  21225476.978    21225479.979    21225476.659
       159.000         131.000
   -842700.343 6   -656638.522 6  23731111.034    23731113.013    23731111.489
        27.000          17.000
    -64433.717 6    -50200.938 6  23124333.953    23124338.362    23124334.525
        27.000          23.000
  -7410481.396 8  -5774400.095 8  21382798.992    21382802.080    21382798.910
       171.000         120.000
  -2187713.521 8  -1704705.800 8  21627183.813    21627186.482    21627183.781
       155.000         142.000
   6691727.589 8   5214332.961 7  22078291.317    22078295.548    22078291.788
       110.000          81.000
     -6041.037 7     -4703.824 7  21915370.081    21915372.955    21915369.362
        87.000          83.000
   9896700.211 6   7711715.305 5  24318786.340    24318789.516    24318787.354
        24.000           9.000
 03  4 13  2 17  0.0000000  0 11G 9G18G23G30G21G17G 6G26G 5G29G10
   1337618.696 6   1042312.545 6  24143255.630    24143262.252    24143255.493
        20.000          17.000
  -7318589.159 7  -5702783.822 7  22250425.001    22250428.702    22250425.185
        78.000          44.000
  -8085665.870 7  -6300506.833 7  22487185.910    22487191.454    22487186.487
        76.000          62.000
    757532.397 8    590287.045 8  21231270.249    21231273.637    21231269.867
       158.000         139.000
   -852742.319 6   -664463.412 6  23729200.143    23729201.823    23729200.320
        28.000          16.000
    -64807.308 6    -50492.009 6  23124262.848    23124267.420    23124263.216
        28.000          24.000
  -7472742.565 8  -5822915.273 8  21370951.036    21370953.960    21370950.978
       178.000         120.000
  -2189388.255 8  -1706010.752 8  21626865.209    21626867.847    21626865.097
       158.000         141.000
   6769064.224 8   5274595.314 7  22093007.514    22093012.788    22093007.970
       103.000          86.000
     19759.368 7     15400.422 7  21920279.818    21920282.555    21920279.360
        86.000          82.000
   9992359.630 6   7786255.115 5  24336989.543    24336992.635    24336990.142
        22.000           8.000
 03  4 13  2 17 30.0000000  0 11G 9G18G23G30G21G17G 6G26G 5G29G10
   1339657.442 6   1043901.372 6  24143643.584    24143649.976    24143643.833
        21.000          16.000
  -7368485.868 7  -5741664.185 7  22240929.851    22240933.695    22240930.106
        79.000          45.000
  -8145167.018 7  -6346871.204 7  22475862.920    22475868.521    22475863.567
        75.000          62.000
    788341.348 8    614294.005 8  21237133.021    21237136.549    21237132.736
       145.000         124.000
   -862895.203 6   -672374.695 6  23727267.968    23727269.700    23727268.520
        27.000          16.000
    -65256.874 6    -50842.255 6  23124177.241    23124181.531    23124177.942
        27.000          23.000
  -7534770.155 8  -5871248.420 8  21359147.736    21359150.634    21359147.602
       180.000         124.000
  -2190664.715 8  -1707005.323 8  21626622.281    21626624.876    21626622.122
       157.000         139.000
   6846510.401 7   5334943.028 7  22107744.668    22107749.670    22107745.231
        96.000          77.000
     46053.046 7     35889.056 7  21925283.431    21925286.042    21925283.249
        86.000          82.000
  10087921.282 6   7860718.777 5  24355173.811    24355177.504    24355174.217
        20.000           8.000
 03  4 13  2 18  0.0000000  0 11G 9G18G23G30G21G17G 6G26G 5G29G10
   1341455.098 6   1045302.322 6  24143985.320    24143991.768    24143985.407
        22.000          15.000
  -7417967.128 7  -5780220.864 7  22231513.827    22231517.546    22231514.075
        77.000          45.000
  -8204285.162 7  -6392937.147 7  22464613.051    22464618.512    22464613.682
        74.000          62.000
    819527.285 8    638594.782 8  21243067.346    21243070.769    21243067.012
       151.000         133.000
   -873144.713 6   -680361.288 6  23725317.496    23725319.447    23725318.122
        27.000          16.000
    -65768.445 6    -51240.834 6  23124080.439    23124084.237    23124080.587
        27.000          24.000
  -7596546.181 8  -5919385.547 8  21347392.242    21347395.293    21347392.348
       179.000         128.000
  -2191526.330 8  -1707676.661 8  21626458.068    21626460.854    21626457.908
       153.000         137.000
   6924078.722 8   5395385.936 7  22122506.664    22122509.767    22122507.238
       106.000          71.000
     72855.638 7     56774.237 7  21930383.703    21930386.362    21930384.184
        80.000          82.000
  10183398.392 6   7935116.533 5  24373342.412    24373346.253    24373342.783
        17.000           8.000
 03  4 13  2 18 30.0000000  0 11G 9G18G23G30G21G17G 6G26G 5G29G10
   1343023.610 6   1046524.709 6  24144283.750    24144289.825    24144283.840
        21.000          14.000
  -7467021.158 7  -5818444.605 7  22222178.819    22222182.680    22222178.800
        78.000          45.000
  -8263008.137 7  -6438695.160 7  22453438.518    22453444.016    22453439.231
        76.000          62.000
    851099.134 8    663196.238 8  21249075.409    21249078.877    21249075.095
       152.000         131.000
   -883480.645 6   -688415.229 6  23723350.581    23723352.413    23723351.256
        26.000          16.000
    -66332.109 6    -51680.003 6  23123972.874    23123976.800    23123973.253
        27.000          25.000
  -7658056.878 8  -5967315.929 8  21335687.025    21335690.053    21335687.026
       181.000         127.000
  -2191960.775 8  -1708015.142 8  21626375.539    21626378.115    21626375.441
       158.000         137.000
   7001777.334 7   5455930.378 7  22137291.364    22137296.143    22137291.865
        94.000          79.000
    100178.326 7     78064.679 7  21935583.007    21935585.603    21935583.159
        79.000          81.000
  10278800.242 6   8009455.644 5  24391497.154    24391500.351    24391497.625
        15.000           8.000
 03  4 13  2 19  0.0000000  0 11G 9G18G23G30G21G17G 6G26G 5G29G10
   1344355.877 6   1047563.002 6  24144537.230    24144543.348    24144537.186
        19.000          14.000
  -7515655.171 7  -5856341.086 7  22212924.215    22212927.883    22212924.547
        80.000          45.000
  -8321343.115 7  -6484150.856 7  22442337.806    22442342.825    22442338.268
        80.000          63.000
    883046.875 8    688090.531 8  21255154.976    21255158.470    21255154.582
       148.000         124.000
   -893911.768 6   -696543.356 6  23721365.645    23721367.507    23721365.850
        25.000          15.000
    -66957.247 6    -52167.096 6  23123853.963    23123857.684    23123854.273
        27.000          25.000
  -7719307.452 8  -6015043.639 8  21324031.341    21324034.180    21324031.400
       183.000         125.000
  -2191974.849 8  -1708026.068 8  21626372.938    21626375.508    21626372.842
       161.000         139.000
   7079595.745 7   5516568.104 7  22152099.097    22152104.947    22152099.620
        88.000          83.000
    128013.383 7     99754.353 7  21940879.774    21940882.364    21940879.198
        79.000          79.000
  10374117.033 6   8083728.472 5  24409635.413    24409638.801    24409635.683
        13.000           9.000
 03  4 13  2 19 30.0000000  0 11G 9G18G23G30G21G17G 6G26G 5G29G10
   1345476.558 6   1048436.383 6  24144750.253    24144756.552    24144750.085
        18.000          14.000
  -7563844.467 7  -5893891.078 7  22203753.666    22203757.419    22203753.796
        82.000          45.000
  -8379264.880 7  -6529284.601 7  22431315.670    22431320.291    22431316.279
        81.000          62.000
    915392.604 8    713294.959 8  21261310.232    21261313.351    21261309.851
       152.000         124.000
   -904415.482 6   -704728.081 6  23719366.764    23719368.707    23719366.855
        24.000          15.000
    -67620.789 6    -52684.149 6  23123727.368    23123731.500    23123727.942
        26.000          26.000
  -7780271.399 8  -6062548.031 8  21312430.307    21312433.119    21312430.372
       183.000         126.000
  -2191543.129 8  -1707689.667 8  21626454.896    21626457.722    21626454.717
       162.000         141.000
   7157555.088 8   5577315.644 7  22166935.622    22166939.252    22166936.260
       103.000          74.000
    156384.932 7    121862.045 7  21946278.650    21946281.303    21946279.442
        78.000          79.000
  10469370.906 6   8157952.237 5  24427761.686    24427764.978    24427762.087
        12.000           8.000
 03  4 13  2 20  0.0000000  0 12G 9G18G23G30G21G17G15G 6G26G 5G29G10
   1346382.855 6   1049142.721 6  24144922.805    24144928.665    24144922.759
        19.000          14.000
  -7611592.178 7  -5931096.940 7  22194667.632    22194671.315    22194667.938
        84.000          46.000
  -8436776.236 7  -6574098.505 7  22420371.235    22420376.377    22420371.809
        83.000          64.000
    948130.456 8    738804.956 8  21267540.049    21267543.314    21267539.706
       159.000         132.000
   -914996.336 6   -712972.895 6  23717353.256    23717355.254    23717353.676
        24.000          15.000
    -68327.991 6    -53235.207 6  23123592.835    23123597.001    23123593.551
        28.000          28.000
        -0.48815         0.26214  25379118.163    25379122.887    25379120.066
         6.000           1.000
  -7840949.604 8  -6109829.748 8  21300883.559    21300886.546    21300883.465
       190.000         128.000
  -2190668.311 8  -1707007.962 8  21626621.239    21626624.020    21626621.020
       162.000         139.000
   7235649.221 7   5638168.259 7  22181795.691    22181799.626    22181796.066
        92.000          71.000
    185289.559 7    144385.135 7  21951778.700    21951781.542    21951778.644
        78.000          77.000
  10564556.344 6   8232122.690 5  24445873.869    24445878.032    24445874.676
        11.000           8.000
 03  4 13  2 20 30.0000000  0 11G 9G18G23G30G21G17G 6G26G 5G29G10
   1347065.395 6   1049674.733 6  24145052.388    24145058.556    24145052.902
        20.000          16.000
  -7658907.646 7  -5967965.989 7  22185663.520    22185667.473    22185663.700
        84.000          47.000
  -8493886.211 7  -6618599.639 7  22409503.470    22409508.690    22409504.090
        80.000          64.000
    981248.070 8    764610.845 8  21273842.146    21273845.422    21273841.632
       157.000         124.000
   -925665.371 6   -721286.405 6  23715322.606    23715324.993    23715322.894
        23.000          16.000
    -69089.831 6    -53828.814 6  23123447.916    23123452.028    23123448.565
        27.000          27.000
  -7901349.495 8  -6156894.581 8  21289389.851    21289392.784    21289389.783
       196.000         130.000
  -2189359.201 8  -1705987.827 8  21626870.283    21626872.981    21626870.071
       164.000         139.000
   7313865.204 7   5699115.806 7  22196678.640    22196684.306    22196679.193
        83.000          78.000
    214717.352 7    167315.914 7  21957378.626    21957381.380    21957378.604
        78.000          78.000
  10659661.108 6   8306230.296 5  24463971.638    24463976.401    24463972.310
        12.000           9.000
 03  4 13  2 21  0.0000000  0 11G 9G18G23G30G21G17G 6G26G 5G29G10
   1347532.724 6   1050039.049 6  24145141.695    24145147.333    24145141.908
        22.000          17.000
  -7705782.861 7  -6004491.964 7  22176743.251    22176747.205    22176743.379
        84.000          47.000
  -8550586.241 7  -6662781.328 7  22398713.443    22398718.840    22398713.893
        81.000          65.000
   1014751.211 8    790717.146 8  21280217.708    21280220.733    21280217.267
       153.000         118.000
   -936416.124 6   -729663.595 6  23713276.715    23713278.920    23713276.928
        24.000          16.000
    -69900.214 6    -54460.259 6  23123293.478    23123297.760    23123294.039
        28.000          27.000
  -7961460.976 8  -6203734.679 8  21277950.873    21277953.875    21277950.878
       195.000         132.000
  -2187606.980 8  -1704622.417 8  21627203.640    21627206.463    21627203.497
       164.000         140.000
   7392207.882 7   5760162.072 7  22211587.978    22211592.912    22211588.460
        95.000          82.000
    244675.833 7    190660.211 7  21963079.885    21963082.382    21963079.973
        84.000          79.000
  10754691.117 6   8380279.648 5  24482055.936    24482059.102    24482056.794
        12.000           7.000
 03  4 13  2 21 30.0000000  0 11G 9G18G23G30G21G17G 6G26G 5G29G10
   1347766.154 6   1050221.089 6  24145185.694    24145191.504    24145185.661
        21.000          16.000
  -7752236.947 7  -6040689.817 7  22167903.610    22167906.889    22167903.702
        86.000          47.000
  -8606895.053 7  -6706658.172 7  22387998.274    22388003.492    22387998.994
        80.000          66.000
   1048618.107 8    817106.905 8  21286662.448    21286665.536    21286662.054
       155.000         121.000
   -947269.161 6   -738120.486 6  23711211.778    23711213.784    23711211.660
        22.000          16.000
    -70779.707 6    -55145.551 6  23123125.938    23123130.169    23123126.669
        27.000          26.000
  -8021300.941 8  -6250363.211 8  21266563.586    21266566.697    21266563.627
       195.000         132.000
  -2185430.092 8  -1702926.103 8  21627617.999    21627620.823    21627617.855
       167.000         141.000
   7470654.851 7   5821289.626 7  22226515.764    22226519.891    22226516.195
        90.000          71.000
    275145.599 7    214402.911 7  21968877.913    21968880.478    21968876.749
        81.000          76.000
  10849625.006 6   8454254.109 5  24500121.632    24500124.906    24500122.740
        11.000           7.000
 03  4 13  2 22  0.0000000  0 12G 9G18G23G30G21G17G15G 6G26G 5G29G10
   1347767.846 6   1050222.562 6  24145185.774    24145191.904    24145185.618
        22.000          17.000
  -7798267.740 7  -6076557.818 7  22159143.937    22159147.457    22159144.074
        87.000          46.000
  -8662810.305 7  -6750228.347 7  22377357.759    22377362.897    22377358.385
        84.000          65.000
   1082848.177 8    843779.699 8  21293175.994    21293179.436    21293175.600
       153.000         121.000
   -958223.792 6   -746656.537 6  23709127.301    23709129.378    23709126.949
        23.000          16.000
    -71727.987 6    -55884.436 6  23122945.417    23122949.647    23122945.931
        28.000          25.000
        -0.23215        -0.20714  25367651.685    25367658.095    25367652.699
         8.000           2.000
  -8080864.869 8  -6296776.640 8  21255228.916    21255232.068    21255228.840
       197.000         133.000
  -2182825.856 8  -1700896.782 8  21628113.538    21628116.380    21628113.348
       170.000         143.000
   7549204.885 7   5882497.478 7  22241462.351    22241467.113    22241462.778
        80.000          69.000
    306128.250 7    238545.264 7  21974773.694    21974776.217    21974772.748
        85.000          77.000
  10944462.443 6   8528153.424 5  24518168.169    24518171.653    24518169.550
        11.000           6.000
 03  4 13  2 22 30.0000000  0 12G 9G18G23G30G21G17G15G 6G26G 5G29G10
   1347538.016 6   1050043.638 6  24145141.532    24145148.088    24145141.334
        22.000          18.000
  -7843875.048 7  -6112095.836 7  22150464.936    22150468.672    22150465.062
        88.000          47.000
  -8718331.542 7  -6793491.489 7  22366792.096    22366797.523    22366792.569
        84.000          65.000
   1117438.887 8    870733.566 8  21299758.182    21299761.562    21299757.657
       154.000         121.000
   -969281.536 6   -755272.946 6  23707022.935    23707025.183    23707023.059
        24.000          15.000
    -72746.692 6    -56678.200 6  23122751.540    23122755.811    23122751.711
        28.000          26.000
    -15190.078 5                  25364762.162                    25364762.027
         7.000  
  -8140150.812 8  -6342973.462 8  21243947.118    21243950.269    21243947.020
       200.000         133.000
  -2179793.605 8  -1698533.949 8  21628690.305    21628693.207    21628690.041
       164.000         139.000
   7627854.764 7   5943783.135 7  22256429.867    22256434.621    22256430.362
        90.000          77.000
    337623.336 7    263086.918 7  21980767.203    21980769.562    21980767.690
        90.000          77.000
  11039201.246 6   8601975.865 5  24536195.947    24536199.771    24536197.153
        12.000           5.000
 03  4 13  2 23  0.0000000  0 11G 9G18G23G30G21G17G 6G26G 5G29G10
   1347090.229 6   1049694.869 6  24145056.707    24145062.551    24145056.937
        23.000          16.000
  -7889046.239 7  -6147294.023 7  22141868.936    22141872.696    22141869.063
        88.000          48.000
  -8773445.489 7  -6836437.277 7  22356304.228    22356309.434    22356304.846
        85.000          65.000
   1152400.134 8    897976.136 8  21306411.006    21306414.417    21306410.455
       153.000         125.000
   -980431.015 6   -763960.837 6  23704901.099    23704903.319    23704901.297
        25.000          16.000
    -73824.341 6    -57517.901 6  23122546.306    23122550.811    23122546.508
        29.000          25.000
  -8199143.793 8  -6388942.006 8  21232721.180    21232724.238    21232721.118
       206.000         131.000
  -2176320.058 8  -1695827.250 8  21629351.427    21629354.053    21629351.240
       164.000         139.000
   7706614.010 7   6005154.010 7  22271417.252    22271422.163    22271417.441
        89.000          79.000
    369643.126 7    288037.429 7  21986860.074    21986862.821    21986860.384
        87.000          77.000
  11133851.853 6   8675729.582 5  24554207.079    24554210.728    24554207.701
        11.000           4.000
 03  4 13  2 23 30.0000000  0 11G 9G18G23G30G21G17G 6G26G 5G29G10
   1346420.595 6   1049173.224 6  24144929.506    24144935.181    24144929.587
        22.000          16.000
  -7933785.503 7  -6182155.644 7  22133355.239    22133358.806    22133355.409
        88.000          47.000
  -8828155.952 7  -6879068.659 7  22345893.066    22345898.241    22345893.318
        86.000          65.000
   1187725.199 8    925502.137 8  21313132.976    21313136.809    21313132.510
       143.000         114.000
   -991677.826 6   -772724.573 6  23702760.835    23702763.106    23702761.221
        26.000          16.000
    -74966.453 6    -58407.825 6  23122329.278    23122333.432    23122329.257
        30.000          25.000
  -8257845.843 8  -6434683.851 8  21221550.640    21221553.635    21221550.625
       219.000         132.000
  -2172408.619 8  -1692779.336 8  21630095.668    21630098.526    21630095.303
       164.000         142.000
   7785475.406 7   6066604.472 7  22286423.406    22286428.056    22286423.849
        83.000          67.000
    402182.959 7    313393.169 7  21993052.273    21993054.925    21993051.284
        88.000          76.000
  11228407.931 6   8749409.656 4  24572201.030    24572203.863    24572201.670
        11.000           3.000
 03  4 13  2 24  0.0000000  0 12G 9G18G23G30G21G17G15G 6G26G 5G29G10
   1345524.973 6   1048475.485 6  24144758.733    24144764.442    24144758.630
        20.000          14.000
  -7978096.904 7  -6216683.877 7  22124922.802    22124926.336    22124922.617
        89.000          46.000
  -8882467.035 7  -6921388.841 7  22335558.099    22335563.132    22335558.724
        85.000          66.000
   1223407.137 8    953306.295 8  21319923.118    21319926.555    21319922.716
       148.000         119.000
  -1003027.901 6   -781568.770 6  23700601.164    23700603.332    23700601.327
        26.000          16.000
    -76179.566 6    -59353.078 6  23122098.506    23122102.378    23122098.852
        30.000          24.000
        -0.17415        -0.07815  25356036.094    25356040.118    25356036.269
         9.000           4.000
  -8316259.169 8  -6480200.720 8  21210434.941    21210437.858    21210434.869
       219.000         130.000
  -2168063.370 8  -1689393.393 8  21630922.638    21630925.486    21630922.386
       166.000         145.000
   7864431.338 7   6128128.621 7  22301448.914    22301452.724    22301449.399
        88.000          64.000
    435238.024 7    339150.385 7  21999342.398    21999344.937    21999341.443
        88.000          73.000
  11322862.837 6   8823010.881 4  24590174.967    24590177.685    24590175.800
        12.000           3.000
 03  4 13  2 24 30.0000000  0 12G 9G18G23G30G21G17G15G 6G26G 5G29G10
   1344411.869 6   1047608.284 6  24144546.702    24144552.077    24144546.678
        21.000          13.000
  -8021972.948 7  -6250872.865 7  22116573.686    22116576.963    22116573.746
        92.000          47.000
  -8936370.374 7  -6963391.306 7  22325300.300    22325305.827    22325300.792
        85.000          66.000
   1259450.957 8    981392.372 8  21326781.835    21326785.374    21326781.220
       142.000         111.000
  -1014474.457 6   -790488.150 6  23698422.907    23698424.942    23698423.442
        26.000          16.000
    -77457.047 6    -60348.483 6  23121855.293    23121859.263    23121855.789
        30.000          24.000
    -15388.737 5    -11991.019 4  25353107.003    25353111.032    25353107.492
         8.000           2.000
  -8374373.568 8  -6525484.655 8  21199376.110    21199378.852    21199376.057
       222.000         130.000
  -2163275.585 8  -1685662.618 8  21631833.611    21631836.428    21631833.363
       164.000         143.000
   7943486.633 7   6189730.193 7  22316492.155    22316497.081    22316492.473
        84.000          71.000
    468815.650 7    365314.795 7  22005732.143    22005734.484    22005732.053
        89.000          71.000
  11417222.114 6   8896537.585 5  24608131.200    24608134.327    24608131.891
        15.000           4.000
 03  4 13  2 25  0.0000000  0 12G 9G18G23G30G21G17G15G 6G26G 5G29G10
   1343073.638 6   1046565.659 6  24144291.695    24144297.680    24144291.566
        20.000          14.000
  -8065421.647 7  -6284728.868 7  22108305.846    22108309.140    22108306.105
        95.000          48.000
  -8989873.715 7  -7005082.076 7  22315118.983    22315124.106    22315119.543
        86.000          66.000
   1295846.151 8   1009752.319 8  21333707.877    21333711.294    21333707.483
       147.000         117.000
  -1026027.150 6   -799490.237 6  23696224.420    23696226.612    23696224.881
        25.000          16.000
    -78808.491 6    -61401.521 6  23121598.085    23121602.070    23121598.815
        30.000          24.000
    -30837.190 5    -24028.644 4  25350167.272    25350171.589    25350168.193
         9.000           2.000
  -8432195.149 8  -6570540.421 8  21188373.118    21188375.888    21188373.134
       227.000         131.000
  -2158052.966 8  -1681593.013 8  21632827.179    21632830.098    21632826.960
       156.000         141.000
   8022629.920 7   6251400.292 7  22331551.978    22331557.808    22331552.442
        77.000          73.000
    502907.135 7    391879.611 7  22012219.418    22012221.727    22012218.859
        86.000          68.000
  11511475.456 6   8969981.740 4  24626067.045    24626069.763    24626067.192
        16.000           3.000
 03  4 13  2 25 30.0000000  0 12G 9G18G23G30G21G17G15G 6G26G 5G29G10
   1341508.828 6   1045346.465 6  24143993.766    24143999.808    24143993.833
        20.000          15.000
  -8108444.933 7  -6318253.376 7  22100118.381    22100122.051    22100118.221
        96.000          50.000
  -9042978.736 7  -7046462.481 7  22305013.549    22305018.266    22305014.008
        87.000          66.000
   1332588.148 8   1038382.524 8  21340699.506    21340702.991    21340698.898
       142.000         117.000
  -1037689.058 6   -808577.425 6  23694005.182    23694007.402    23694005.501
        25.000          17.000
    -80237.144 6    -62514.721 6  23121326.263    23121330.206    23121326.816
        30.000          24.000
    -46348.959 5    -36115.603 4  25347215.506    25347219.289    25347215.861
         9.000           2.000
  -8489723.512 8  -6615367.704 8  21177425.847    21177428.728    21177425.917
       230.000         134.000
  -2152396.731 8  -1677185.522 8  21633903.677    21633906.371    21633903.472
       154.000         139.000
   8101856.184 7   6313135.076 7  22346629.391    22346633.315    22346629.837
        88.000          63.000
    537510.172 7    418843.043 7  22018804.030    22018806.608    22018803.659
        83.000          70.000
  11605618.657 6   9043340.070 4  24643982.210    24643984.783    24643983.018
        16.000           3.000
 03  4 13  2 26  0.0000000  0 12G 9G18G23G30G21G17G15G 6G26G 5G29G10
   1339720.876 6   1043953.406 6  24143653.357    24143659.219    24143653.725
        21.000          15.000
  -8151040.119 7  -6351444.306 7  22092012.797    22092016.190    22092013.090
        98.000          51.000
  -9095682.084 7  -7087529.891 7  22294984.168    22294989.121    22294984.692
        88.000          67.000
   1369677.101 8   1067283.093 8  21347757.406    21347760.697    21347757.012
       144.000         119.000
  -1049458.880 6   -817748.703 6  23691765.533    23691767.756    23691765.956
        25.000          17.000
    -81741.897 6    -63687.216 6  23121039.949    23121043.973    23121040.189
        30.000          25.000
    -61922.983 5    -48251.137 5  25344252.515    25344257.464    25344252.567
         8.000           4.000
  -8546953.628 8  -6659962.587 8  21166535.291    21166538.118    21166535.197
       230.000         136.000
  -2146303.439 8  -1672437.471 8  21635063.110    21635065.875    21635062.978
       154.000         141.000
   8181165.463 7   6374934.576 7  22361721.466    22361724.879    22361721.859
        84.000          57.000
    572626.882 7    446206.742 7  22025486.545    22025489.311    22025486.247
        84.000          73.000
  11699652.484 6   9116613.201 4  24661876.818    24661878.922    24661877.627
        18.000           3.000
 03  4 13  2 26 30.0000000  0 12G 9G18G23G30G21G17G15G 6G26G 5G29G10
   1337704.211 6   1042382.125 6  24143269.970    24143275.218    24143270.068
        23.000          15.000
  -8193213.146 8  -6384306.284 7  22083987.272    22083990.791    22083987.145
       101.000          52.000
  -9147989.622 7  -7128288.887 7  22285030.091    22285035.274    22285030.528
        87.000          67.000
   1407104.311 8   1096447.208 8  21354879.346    21354882.836    21354878.811
       140.000         117.000
  -1061343.898 6   -827009.746 6  23689503.945    23689506.279    23689504.444
        24.000          17.000
    -83330.278 6    -64924.874 6  23120737.621    23120741.751    23120738.208
        30.000          26.000
    -77567.513 5    -60441.507 4  25341272.792    25341280.254    25341273.657
         6.000           1.000
  -8603889.226 8  -6704327.975 8  21155700.869    21155703.533    21155700.811
       234.000         138.000
  -2139778.659 8  -1667353.197 8  21636304.804    21636307.553    21636304.521
       159.000         143.000
   8260548.372 7   6436791.417 7  22376825.895    22376831.713    22376826.371
        71.000          65.000
    608250.812 7    473965.679 7  22032265.451    22032267.965    22032265.303
        79.000          70.000
  11793568.984 6   9189794.896 4  24679747.948    24679750.506    24679748.492
        18.000           2.000
 03  4 13  2 27  0.0000000  0 11G 9G18G23G30G21G17G 6G26G 5G29G10
   1335491.999 6   1040658.473 6  24142848.732    24142854.177    24142848.599
        23.000          14.000
  -8234931.497 8  -6416813.966 7  22076048.650    22076051.845    22076048.599
       102.000          51.000
  -9199868.306 7  -7168713.705 7  22275157.773    22275162.874    22275158.101
        87.000          67.000
   1444899.739 8   1125898.240 8  21362071.714    21362074.986    21362071.300
       140.000         114.000
  -1073312.755 6   -836336.108 6  23687226.326    23687228.347    23687226.532
        24.000          17.000
    -84971.333 6    -66203.578 6  23120425.123    23120429.275    23120425.910
        29.000          26.000
  -8660495.494 8  -6748436.739 8  21144929.071    21144931.785    21144929.109
       238.000         143.000
  -2132789.335 8  -1661906.936 8  21637634.751    21637637.633    21637634.559
       156.000         143.000
   8340034.364 7   6498728.558 7  22391953.023    22391957.849    22391953.497
        82.000          69.000
    644413.789 7    502144.643 7  22039147.035    22039149.292    22039146.651
        79.000          68.000
  11887398.740 6   9262908.991 4  24697602.762    24697606.222    24697603.119
        18.000           2.000
 03  4 13  2 27 30.0000000  0 12G 9G18G23G30G21G17G15G 6G26G 5G29G10
   1333059.733 6   1038763.346 6  24142385.979    24142391.243    24142385.814
        21.000          14.000
  -8276220.369 8  -6448987.002 7  22068191.607    22068194.561    22068191.855
       102.000          50.000
  -9251343.185 7  -7208823.877 7  22265362.302    22265367.241    22265362.838
        89.000          67.000
   1483035.425 8   1155614.456 8  21369328.773    21369332.104    21369328.263
       142.000         119.000
  -1085391.855 6   -845748.373 6  23684927.755    23684929.857    23684928.144
        24.000          16.000
    -86691.155 6    -67543.662 6  23120098.047    23120101.953    23120098.388
        29.000          27.000
        -0.92915        -0.59315  25335292.552    25335296.250    25335293.147
         9.000           4.000
  -8716795.421 8  -6792306.798 8  21134215.471    21134218.359    21134215.411
       234.000         146.000
  -2125360.096 8  -1656117.888 8  21639048.410    21639051.248    21639048.147
       153.000         140.000
   8419595.210 7   6560724.070 7  22407093.674    22407096.948    22407094.064
        89.000          60.000
    681090.041 7    530723.564 7  22046126.192    22046128.746    22046126.316
        76.000          69.000
  11981114.442 6   9335934.225 4  24715436.550    24715439.362    24715437.176
        17.000           2.000
 03  4 13  2 28  0.0000000  0 12G 9G18G23G30G21G17G15G 6G26G 5G29G10
   1330396.967 6   1036688.598 6  24141878.847    24141884.524    24141879.084
        22.000          15.000
  -8317090.918 8  -6480834.068 7  22060413.881    22060416.994    22060413.725
       105.000          51.000
  -9302424.876 7  -7248627.669 7  22255641.593    22255646.485    22255641.954
        91.000          67.000
   1521497.819 8   1185585.189 8  21376647.702    21376651.004    21376647.177
       142.000         117.000
  -1097593.327 6   -855255.984 6  23682605.649    23682608.046    23682606.249
        23.000          15.000
    -88502.223 6    -68954.847 6  23119753.331    23119757.247    23119753.905
        29.000          26.000
    -15830.352 5    -12335.062 5  25332279.093    25332284.649    25332280.637
         7.000           5.000
  -8772797.622 8  -6835944.862 8  21123558.562    21123561.476    21123558.472
       228.000         147.000
  -2117501.307 8  -1649994.130 8  21640543.847    21640546.432    21640543.660
       156.000         134.000
   8499217.185 7   6622767.205 7  22422243.031    22422247.911    22422243.205
        67.000          53.000
    718268.083 7    559693.495 7  22053200.827    22053203.686    22053200.823
        76.000          72.000
  12074702.867 6   9408860.285 4  24733245.867    24733248.209    24733246.527
        19.000           1.000
 03  4 13  2 28 30.0000000  0 11G 9G18G23G30G21G17G15G 6G26G 5G29
   1327542.494 6   1034464.472 6  24141335.310    24141341.477    24141335.496
        20.000          16.000
  -8357505.341 8  -6512325.715 7  22052723.305    22052726.190    22052723.468
       105.000          51.000
  -9353074.962 7  -7288095.152 7  22246003.619    22246008.248    22246004.276
        95.000          69.000
   1560322.233 8   1215838.010 8  21384035.870    21384039.043    21384035.485
       143.000         116.000
  -1109880.208 6   -864830.154 6  23680267.532    23680269.788    23680268.015
        24.000          15.000
    -90368.332 6    -70408.924 6  23119398.120    23119402.066    23119398.944
        29.000          26.000
    -31702.811 5    -24703.138 4  25329260.192    25329262.934    25329260.234
         8.000           2.000
  -8828461.946 8  -6879319.644 8  21112965.922    21112968.786    21112965.728
       222.000         151.000
  -2109174.565 8  -1643505.733 8  21642128.373    21642130.914    21642128.022
       157.000         135.000
   8578935.136 7   6684885.094 7  22437413.383    22437418.332    22437413.713
        70.000          58.000
    755985.090 7    589083.394 7  22060377.988    22060381.108    22060378.298
        76.000          74.000
 03  4 13  2 29  0.0000000  0 12G 9G18G23G30G21G17G15G 6G26G 5G29G10
   1324483.722 6   1032081.151 6  24140753.023    24140759.077    24140753.146
        18.000          14.000
  -8397476.709 8  -6543472.127 7  22045116.881    22045119.777    22045116.821
       106.000          52.000
  -9403306.230 7  -7327236.291 7  22236444.781    22236449.657    22236445.259
        97.000          72.000
   1599492.933 8   1246360.651 8  21391489.427    21391493.218    21391488.829
       138.000         116.000
  -1122267.165 6   -874482.309 6  23677910.442    23677912.674    23677910.856
        25.000          16.000
    -92303.670 6    -71916.944 6  23119029.767    23119033.667    23119030.084
        29.000          26.000
    -47633.065 5    -37116.242 4  25326227.269    25326233.620    25326228.466
         8.000           3.000
  -8883799.240 8  -6922439.594 8  21102435.487    21102438.432    21102435.391
       215.000         152.000
  -2100392.531 8  -1636662.560 8  21643799.639    21643802.411    21643799.450
       162.000         139.000
   8658732.732 7   6747065.081 7  22452600.234    22452603.803    22452600.650
        91.000          62.000
    794227.368 7    618882.592 7  22067655.610    22067658.304    22067655.516
        78.000          74.000
        -1.19816        -0.73814  24768810.014    24768811.241    24768810.180
        18.000           1.000
 03  4 13  2 29 30.0000000  0 11G 9G18G23G30G21G17G15G 6G26G 5G29
   1321212.015 6   1029531.907 6  24140130.604    24140135.897    24140130.798
        19.000          13.000
  -8437014.051 8  -6574280.333 7  22037593.308    22037596.206    22037593.417
       108.000          53.000
  -9453127.471 7  -7366057.921 7  22226963.967    22226968.763    22226964.386
        97.000          73.000
   1638998.176 8   1277143.945 8  21399007.138    21399010.457    21399006.677
       137.000         112.000
  -1134764.506 6   -884220.470 6  23675532.195    23675534.455    23675532.830
        25.000          15.000
    -94318.554 6    -73486.948 6  23118646.310    23118650.198    23118646.706
        30.000          26.000
    -63631.818 5    -49582.734 4  25323183.210    25323186.916    25323183.852
         7.000           1.000
  -8938816.231 8  -6965309.963 8  21091965.948    21091969.191    21091965.888
       209.000         155.000
  -2091163.654 8  -1629471.200 8  21645555.886    21645558.665    21645555.567
       166.000         140.000
   8738598.046 7   6809297.852 7  22467796.821    22467801.154    22467797.199
        74.000          55.000
    832985.377 7    649083.659 7  22075031.199    22075033.518    22075030.779
        84.000          75.000
 03  4 13  2 30  0.0000000  0 11G 9G18G23G30G21G17G 6G26G 5G29G10
   1317715.502 6   1026807.477 6  24139465.010    24139470.226    24139465.321
        19.000          13.000
  -8476130.331 8  -6604760.451 7  22030149.658    22030152.749    22030149.827
       110.000          55.000
  -9502551.321 7  -7404569.909 7  22217558.724    22217563.608    22217559.085
        99.000          74.000
   1678822.503 8   1308175.900 8  21406585.239    21406588.782    21406584.778
       138.000         113.000
  -1147386.211 6   -894055.540 6  23673130.673    23673132.636    23673131.007
        25.000          15.000
    -96427.198 6    -75130.018 6  23118245.129    23118249.025    23118245.387
        30.000          26.000
  -8993523.542 8  -7007939.020 8  21081555.453    21081558.700    21081555.312
       207.000         157.000
  -2081500.254 8  -1621941.247 8  21647394.542    21647397.176    21647394.252
       166.000         136.000
   8818515.226 7   6871570.989 7  22483002.898    22483008.047    22483003.250
        59.000          50.000
    872245.480 7    679675.966 7  22082501.931    22082504.469    22082501.476
        84.000          76.000
        -0.72016         0.31314  24804282.959    24804285.537    24804283.323
        14.000           1.000
 03  4 13  2 30 30.0000000  0 10G 9G18G23G30G21G17G 6G26G 5G29
   1313984.484 6   1023900.335 6  24138754.774    24138759.916    24138754.817
        19.000          13.000
  -8514836.295 8  -6634920.835 7  22022783.938    22022787.121    22022784.042
       112.000          56.000
  -9551587.824 8  -7442780.057 7  22208227.337    22208232.142    22208227.639
       100.000          73.000
   1718953.098 8   1339446.508 8  21414221.866    21414225.545    21414221.265
       136.000         112.000
  -1160143.716 6   -903996.437 6  23670702.785    23670704.954    23670703.400
        26.000          15.000
    -98641.231 6    -76855.207 6  23117823.931    23117827.624    23117824.389
        31.000          26.000
  -9047929.305 8  -7050333.103 8  21071202.355    21071205.503    21071202.231
       207.000         157.000
  -2071412.253 8  -1614080.442 8  21649314.343    21649316.768    21649314.097
       170.000         136.000
   8898471.089 7   6933874.294 7  22498220.089    22498223.684    22498220.479
        79.000          54.000
    911996.641 7    710650.919 7  22090066.310    22090068.960    22090066.262
        84.000          76.000
 03  4 13  2 31  0.0000000  0 12G 9G18G23G30G21G17G15G 6G26G 5G29G10
   1310073.766 6   1020853.155 6  24138010.066    24138015.100    24138009.930
        20.000          12.000
  -8553078.300 8  -6664719.700 7  22015506.641    22015509.620    22015506.694
       110.000          55.000
  -9600182.742 8  -7480646.124 7  22198980.276    22198984.651    22198981.056
       102.000          73.000
   1759440.914 8   1370995.484 8  21421926.406    21421929.791    21421925.915
       135.000         110.000
  -1172984.057 6   -914001.874 6  23668259.365    23668261.492    23668259.832
        25.000          15.000
   -100908.099 6    -78621.566 6  23117392.503    23117396.230    23117393.015
        31.000          26.000
        -0.60915        -0.07115  25313958.421    25313963.595    25313959.595
         7.000           6.000
  -9101977.587 8  -7092448.633 8  21060917.341    21060920.489    21060917.108
       211.000         159.000
  -2060845.512 8  -1605846.589 8  21651325.177    21651327.790    21651324.931
       173.000         137.000
   8978516.465 7   6996247.369 7  22513452.711    22513456.610    22513452.900
        81.000          61.000
    952292.000 7    742049.918 7  22097734.467    22097736.834    22097734.456
        88.000          74.000
        -1.20216        -0.15414  24839658.932    24839661.344    24839658.927
        11.000           1.000
 03  4 13  2 31 30.0000000  0 11G 9G18G23G30G21G17G15G 6G26G 5G29
   1305963.120 6   1017650.196 6  24137228.136    24137233.356    24137228.209
        20.000          13.000
  -8590877.345 8  -6694173.403 7  22008313.451    22008316.525    22008313.409
       111.000          56.000
  -9648357.022 8  -7518184.424 7  22189812.660    22189817.103    22189813.092
       103.000          72.000
   1800262.264 8   1402804.385 8  21429694.333    21429697.991    21429693.749
       137.000         113.000
  -1185929.239 6   -924089.003 6  23665795.969    23665798.132    23665796.565
        25.000          15.000
   -103250.006 6    -80446.397 6  23116946.601    23116950.633    23116947.356
        30.000          25.000
    -16286.289 6    -12690.133 5  25310859.157    25310864.342    25310860.137
        10.000           5.000
  -9155687.278 8  -7134300.325 8  21050696.794    21050699.900    21050696.728
       214.000         159.000
  -2049820.548 8  -1597255.678 8  21653423.200    21653425.734    21653422.858
       177.000         139.000
   9058627.372 7   7058671.470 7  22528694.878    22528700.750    22528695.287
        59.000          57.000
    993109.606 7    773855.863 7  22105501.673    22105504.123    22105501.361
        88.000          73.000
 03  4 13  2 32  0.0000000  0 11G 9G18G23G30G21G17G15G 6G26G 5G29
   1301658.399 6   1014295.997 6  24136409.057    24136413.977    24136408.630
        21.000          13.000
  -8628228.334 8  -6723277.971 7  22001205.712    22001208.660    22001205.727
       110.000          55.000
  -9696105.105 8  -7555390.614 7  22180726.357    22180730.791    22180726.818
       103.000          72.000
   1841419.787 8   1434875.237 8  21437526.478    21437530.105    21437525.964
       140.000         116.000
  -1198975.372 6   -934254.797 6  23663313.238    23663315.351    23663313.777
        25.000          15.000
   -105663.004 6    -82326.620 6  23116487.549    23116491.405    23116488.249
        31.000          26.000
    -32633.805 5    -25428.358 4  25307749.795    25307751.624    25307749.617
         8.000           2.000
  -9209050.594 8  -7175882.112 8  21040541.995    21040545.175    21040541.916
       214.000         161.000
  -2038331.654 8  -1588303.263 8  21655609.467    21655611.871    21655609.187
       177.000         138.000
   9138806.216 7   7121148.493 7  22543953.183    22543957.309    22543953.382
        64.000          48.000
   1034454.125 7    806072.395 7  22113369.146    22113371.641    22113368.831
        85.000          70.000
 03  4 13  2 32 30.0000000  0 12G 9G18G23G30G21G17G15G 6G26G 5G29G10
   1297143.741 6   1010778.216 6  24135549.937    24135554.848    24135549.572
        21.000          13.000
  -8665147.961 8  -6752046.424 7  21994180.140    21994183.030    21994180.311
       111.000          57.000
  -9743443.421 8  -7592277.518 7  22171718.153    22171722.401    22171718.548
       103.000          72.000
   1882894.237 8   1467193.004 8  21445418.731    21445422.297    21445418.120
       139.000         113.000
  -1212140.115 6   -944513.014 6  23660808.125    23660810.246    23660808.082
        24.000          15.000
   -108164.466 6    -84275.774 6  23116011.352    23116015.267    23116012.158
        31.000          25.000
    -49061.536 5    -38229.162 4  25304622.944    25304627.328    25304623.260
         6.000           2.000
  -9262081.883 8  -7217205.176 8  21030450.396    21030453.552    21030450.371
       216.000         160.000
  -2026394.891 8  -1579001.859 8  21657880.929    21657883.415    21657880.662
       175.000         139.000
   9219033.398 7   7183663.232 7  22559221.438    22559224.516    22559221.717
        80.000          50.000
   1076308.211 7    838685.988 7  22121333.818    22121336.034    22121333.670
        86.000          68.000
        -0.64716        -0.33215  24892562.114    24892565.757    24892562.825
        11.000           4.000
 03  4 13  2 33  0.0000000  0 12G 9G18G23G30G21G17G15G 6G26G 5G29G10
   1292431.664 6   1007106.598 6  24134652.991    24134657.936    24134652.690
        20.000          14.000
  -8701624.914 8  -6780469.931 7  21987238.807    21987241.728    21987238.945
       111.000          58.000
  -9790360.174 8  -7628835.925 7  22162790.234    22162794.555    22162790.693
       107.000          74.000
   1924694.559 8   1499764.681 8  21453373.164    21453376.796    21453372.714
       135.000         108.000
  -1225413.016 6   -954855.501 6  23658282.311    23658284.215    23658282.217
        24.000          15.000
   -110744.520 6    -86286.172 6  23115520.381    23115524.161    23115520.962
        31.000          24.000
    -65559.581 5                  25301481.557                    25301482.578
         9.000  
  -9314767.303 8  -7258258.729 8  21020424.858    21020427.813    21020424.927
       223.000         160.000
  -2013998.438 8  -1569342.256 8  21660239.977    21660242.397    21660239.755
       176.000         141.000
   9299317.576 7   7246222.382 7  22574498.068    22574502.717    22574498.400
        68.000          58.000
   1118682.772 7    871705.143 7  22129397.548    22129399.745    22129397.393
        85.000          66.000
     92423.528 6     72018.502 4  24910150.203    24910152.996    24910151.020
        10.000           2.000
 03  4 13  2 33 30.0000000  0 11G 9G18G23G30G21G17G 6G26G 5G29G10
   1287526.505 6   1003284.516 6  24133719.682    24133724.602    24133719.631
        22.000          14.000
  -8737655.856 8  -6808545.902 7  21980382.246    21980385.249    21980382.418
       110.000          59.000
  -9836851.481 8  -7665062.827 7  22153943.316    22153947.670    22153943.800
       109.000          76.000
   1966821.697 8   1532591.063 8  21461389.626    21461393.180    21461389.021
       139.000         114.000
  -1238791.643 6   -965280.370 6  23655736.261    23655738.351    23655736.582
        23.000          15.000
   -113400.814 7    -88355.978 6  23115014.858    23115018.566    23115015.083
        32.000          24.000
  -9367100.925 8  -7299038.154 8  21010466.164    21010469.110    21010466.093
       235.000         160.000
  -2001138.371 8  -1559321.396 8  21662686.984    21662689.353    21662686.793
       171.000         138.000
   9379659.566 7   7308826.525 7  22589785.203    22589791.312    22589785.691
        57.000          57.000
   1161580.407 7    905131.892 7  22137560.467    22137562.967    22137560.054
        82.000          67.000
    184728.486 6    143944.427 4  24927715.475    24927718.708    24927715.957
        10.000           3.000
 03  4 13  2 34  0.0000000  0 12G 9G18G23G30G21G17G15G 6G26G 5G29G10
   1282422.110 6    999307.203 6  24132748.105    24132753.389    24132747.791
        21.000          15.000
  -8773248.236 8  -6836280.138 7  21973609.052    21973612.281    21973608.999
       110.000          60.000
  -9882924.323 8  -7700963.653 7  22145175.709    22145180.168    22145176.221
       109.000          77.000
   2009265.890 8   1565664.464 8  21469466.543    21469469.967    21469466.009
       135.000         105.000
  -1252283.828 6   -975793.730 6  23653168.549    23653170.827    23653168.882
        23.000          14.000
   -116141.692 7    -90491.701 6  23114493.546    23114496.911    23114493.426
        32.000          24.000
        -0.00615                  25295162.649                    25295162.406
         8.000  
  -9419087.653 8  -7339547.277 8  21000573.494    21000576.298    21000573.358
       243.000         161.000
  -1987821.196 8  -1548944.352 8  21665221.096    21665223.526    21665220.865
       166.000         138.000
   9460049.467 7   7371468.019 7  22605084.443    22605088.233    22605084.824
        68.000          49.000
   1204993.236 7    938960.092 7  22145821.592    22145824.003    22145821.361
        80.000          66.000
    276905.210 5    215770.443 5  24945255.756    24945260.133    24945256.229
         9.000           5.000
 03  4 13  2 34 30.0000000  0 11G 9G18G23G30G21G17G 6G26G 5G29G10
   1277146.772 6    995196.675 6  24131744.034    24131749.213    24131743.634
        20.000          15.000
  -8808374.549 8  -6863651.208 7  21966924.741    21966927.952    21966924.901
       111.000          61.000
  -9928551.127 8  -7736516.921 7  22136493.317    22136497.667    22136493.782
       109.000          79.000
   2052051.813 8   1599004.188 8  21477608.485    21477611.939    21477607.981
       140.000         109.000
  -1265863.463 6   -986375.232 6  23650584.679    23650586.638    23650584.913
        24.000          15.000
   -118940.548 7    -92672.599 6  23113960.925    23113964.286    23113961.441
        32.000          23.000
  -9470697.983 8  -7379763.094 8  20990752.336    20990755.087    20990752.328
       244.000         163.000
  -1974019.301 8  -1538189.606 8  21667847.362    21667850.156    21667846.998
       160.000         141.000
   9540511.726 7   7434165.938 7  22620396.437    22620399.541    22620396.818
        75.000          47.000
   1248947.971 7    973210.551 7  22154186.042    22154188.229    22154185.843
        80.000          64.000
    368979.240 5    287516.458 5  24962776.601    24962780.094    24962777.345
         9.000           4.000
 03  4 13  2 35  0.0000000  0 12G 9G18G23G30G21G17G15G 6G26G 5G29G10
   1271668.069 6    990927.660 6  24130701.194    24130706.458    24130701.105
        20.000          15.000
  -8843068.477 8  -6890685.357 7  21960322.715    21960325.733    21960322.829
       110.000          61.000
  -9973765.023 8  -7771748.445 7  22127889.046    22127893.618    22127889.417
       109.000          79.000
   2095143.418 8   1632582.067 8  21485808.738    21485811.824    21485808.195
       143.000         106.000
  -1279564.802 6   -997051.569 6  23647977.417    23647979.507    23647977.641
        25.000          16.000
   -121831.923 7    -94925.579 6  23113410.657    23113414.210    23113411.712
        32.000          23.000
        -0.43415                  25288793.280                    25288793.573
         8.000  
  -9521962.850 8  -7419709.720 8  20980997.007    20980999.703    20980997.008
       246.000         163.000
  -1959765.616 8  -1527082.811 8  21670559.686    21670562.487    21670559.364
       158.000         141.000
   9621010.242 7   7496892.094 7  22635713.513    22635718.621    22635713.933
        62.000          53.000
   1293410.431 7   1007856.642 7  22162646.970    22162649.268    22162646.927
        77.000          64.000
    460915.632 5    359155.193 5  24980271.476    24980274.779    24980271.929
         8.000           4.000
 03  4 13  2 35 30.0000000  0 11G 9G18G23G30G21G17G 6G26G 5G29G10
   1266008.492 6    986517.738 6  24129624.463    24129629.340    24129624.485
        19.000          15.000
  -8877308.778 8  -6917366.034 7  21953806.880    21953809.715    21953806.912
       111.000          61.000
 -10018544.200 8  -7806641.220 7  22119367.653    22119372.167    22119368.203
       108.000          78.000
   2138559.828 8   1666413.062 8  21494070.608    21494073.837    21494070.165
       137.000         100.000
  -1293366.803 6  -1007806.340 6  23645351.182    23645353.207    23645350.712
        26.000          16.000
   -124795.060 7    -97234.475 6  23112846.708    23112850.155    23112847.588
        32.000          24.000
  -9572858.390 8  -7459368.560 8  20971311.947    20971314.690    20971311.863
       252.000         167.000
  -1945038.120 8  -1515606.817 8  21673362.205    21673364.777    21673361.989
       158.000         138.000
   9701563.768 7   7559661.073 7  22651042.317    22651047.668    22651042.659
        61.000          56.000
   1338401.254 7   1042914.440 7  22171208.034    22171210.856    22171207.986
        73.000          65.000
    552734.168 5    430702.105 5  24997743.068    24997748.195    24997743.887
         8.000           5.000
 03  4 13  2 36  0.0000000  0 11G 9G18G23G30G21G17G 6G26G 5G29G10
   1260150.723 6    981953.358 6  24128509.863    24128514.672    24128509.711
        22.000          14.000
  -8911113.908 8  -6943707.617 7  21947374.064    21947376.826    21947374.070
       112.000          61.000
 -10062906.797 8  -7841209.402 7  22110925.756    22110930.049    22110926.300
       109.000          79.000
   2182280.066 8   1700480.824 8  21502390.197    21502393.288    21502389.680
       141.000         106.000
  -1307288.644 6  -1018654.505 6  23642701.682    23642704.067    23642701.595
        26.000          16.000
   -127849.578 7    -99614.578 6  23112265.244    23112268.897    23112265.538
        33.000          24.000
  -9623400.599 8  -7498752.079 8  20961694.055    20961696.767    20961693.993
       258.000         171.000
  -1929854.929 8  -1503775.739 8  21676251.393    21676254.009    21676251.108
       154.000         136.000
   9782151.304 7   7622456.575 7  22666378.636    22666382.511    22666379.014
        71.000          50.000
   1383901.424 7   1078369.138 7  22179866.309    22179869.071    22179866.025
        68.000          65.000
    644415.047 5    502141.764 5  25015190.326    25015194.398    25015190.917
         8.000           4.000
 03  4 13  2 36 30.0000000  0 12G 9G18G23G30G21G17G15G 6G26G 5G29G10
   1254082.728 6    977225.244 6  24127355.477    24127359.619    24127355.581
        21.000          13.000
  -8944497.087 8  -6969720.338 7  21941021.582    21941024.126    21941021.803
       108.000          59.000
 -10106865.400 8  -7875462.712 7  22102560.986    22102565.110    22102561.638
       105.000          79.000
   2226288.454 8   1734773.159 8  21510765.004    21510767.691    21510764.739
       134.000         100.000
  -1321344.446 6  -1029606.983 6  23640027.302    23640029.502    23640027.313
        25.000          14.000
   -131009.436 6   -102076.697 6  23111664.177    23111667.703    23111664.453
        31.000          23.000
        -0.14715                  25279125.102                    25279125.876
         8.000  
  -9673599.957 8  -7537868.372 8  20952141.644    20952144.138    20952141.784
       250.000         171.000
  -1914228.470 8  -1491599.186 8  21679225.223    21679227.735    21679225.061
       150.000         134.000
   9862757.230 7   7685266.507 7  22681717.216    22681720.904    22681717.727
        64.000          43.000
   1429897.095 7   1114210.006 7  22188619.530    22188621.664    22188619.964
        69.000          64.000
    735943.399 5    573462.604 5  25032607.799    25032611.242    25032608.363
         8.000           4.000
 03  4 13  2 37  0.0000000  0 11G 9G18G23G30G21G17G 6G26G 5G29G10
   1247815.008 6    972341.415 6  24126162.890    24126166.813    24126163.135
        22.000          12.000
  -8977449.094 8  -6995397.146 7  21934750.863    21934753.315    21934750.992
       107.000          59.000
 -10150410.466 8  -7909393.854 7  22094274.641    22094278.703    22094275.227
       104.000          79.000
   2270591.987 8   1769295.375 8  21519195.539    21519198.636    21519195.246
       132.000         101.000
  -1335525.579 6  -1040657.194 6  23637328.533    23637330.483    23637328.856
        24.000          13.000
   -134266.355 6   -104614.528 6  23111044.434    23111047.861    23111044.915
        30.000          23.000
  -9723444.842 8  -7576708.521 8  20942656.390    20942659.005    20942656.451
       250.000         174.000
  -1898148.937 8  -1479069.663 8  21682285.094    21682287.550    21682284.959
       153.000         135.000
   9943388.440 7   7748096.045 7  22697060.115    22697064.320    22697060.747
        56.000          42.000
   1476397.037 7   1150443.738 7  22197468.225    22197470.355    22197468.372
        67.000          62.000
    827327.128 5    644670.686 5  25049997.674    25050000.963    25049998.564
         7.000           5.000
 03  4 13  2 37 30.0000000  0 12G 9G18G23G30G21G17G15G 6G26G 5G29G10
   1241355.278 6    967308.018 6  24124933.473    24124937.625    24124933.045
        23.000          12.000
  -9009963.506 8  -7020732.943 7  21928563.708    21928566.137    21928564.130
       107.000          60.000
 -10193535.225 8  -7942997.445 7  22086068.087    22086072.247    22086068.597
       103.000          80.000
   2315194.468 8   1804050.581 7  21527683.403    21527685.973    21527683.175
       129.000          94.000
  -1349826.106 6  -1051800.404 6  23634607.502    23634609.212    23634608.206
        25.000          14.000
   -137614.594 6   -107223.469 6  23110407.411    23110410.707    23110408.095
        30.000          22.000
        -0.16115                  25272590.212                    25272591.095
         9.000  
  -9772926.176 8  -7615265.351 8  20933240.427    20933243.058    20933240.508
       247.000         174.000
  -1881609.532 8  -1466181.761 8  21685432.479    21685434.801    21685432.544
       153.000         134.000
  10024048.665 7   7810948.212 7  22712409.839    22712414.347    22712410.390
        62.000          50.000
   1523406.801 7   1187074.775 7  22206413.769    22206416.104    22206413.818
        67.000          62.000
    918571.245 5    715770.023 5  25067360.689    25067363.699    25067361.357
         7.000           4.000
 03  4 13  2 38  0.0000000  0 11G 9G18G23G30G21G17G 6G26G 5G29G10
   1234702.568 6    962124.212 6  24123667.481    24123671.723    24123667.286
        21.000          12.000
  -9042042.747 8  -7045729.671 7  21922459.134    21922461.817    21922459.460
       103.000          61.000
 -10236241.643 8  -7976275.073 7  22077941.509    22077945.564    22077942.325
       100.000          80.000
   2360091.607 8   1839035.403 7  21536226.951    21536229.560    21536226.683
       125.000          96.000
  -1364248.820 6  -1063038.835 6  23631863.184    23631864.590    23631864.076
        25.000          13.000
   -141056.945 6   -109905.761 6  23109752.467    23109755.457    23109753.272
        29.000          22.000
  -9822043.839 8  -7653538.819 8  20923893.805    20923896.206    20923893.971
       241.000         174.000
  -1864611.827 8  -1452936.753 8  21688667.243    21688669.431    21688667.320
       150.000         131.000
  10104733.045 7   7873819.202 7  22727763.916    22727768.033    22727764.664
        60.000          48.000
   1570923.470 7   1224100.787 7  22215456.190    22215458.222    22215456.238
        64.000          62.000
   1009672.131 5    786757.741 5  25084696.749    25084700.119    25084697.140
         7.000           5.000
 03  4 13  2 38 30.0000000  0 12G 9G18G23G30G21G17G15G 6G26G 5G29G10
   1227871.709 6    956801.550 6  24122367.650    24122372.053    24122367.601
        17.000          10.000
  -9073673.080 8  -7070376.638 7  21916440.145    21916442.683    21916440.265
       101.000          61.000
 -10278515.532 7  -8009215.727 7  22069897.136    22069900.966    22069897.762
        99.000          80.000
   2405294.407 8   1874258.336 7  21544829.109    21544831.413    21544828.800
       121.000          91.000
  -1378780.375 6  -1074362.134 6  23629098.087    23629099.087    23629098.181
        25.000          12.000
   -144580.396 6   -112651.303 6  23109082.143    23109085.039    23109083.209
        29.000          22.000
        -1.03216        -0.87214  25265992.288    25265994.172    25265992.840
        11.000           2.000
  -9870781.580 8  -7691516.296 8  20914619.326    20914621.766    20914619.588
       232.000         176.000
  -1847141.629 8  -1439323.625 8  21691991.885    21691993.893    21691991.789
       150.000         131.000
  10185452.919 7   7936717.797 7  22743123.830    22743127.821    22743124.404
        54.000          40.000
   1618960.006 7   1261531.836 7  22224597.533    22224599.194    22224597.534
        65.000          62.000
   1100641.858 5    857643.206 4  25102007.063    25102010.599    25102008.194
         7.000           3.000
 03  4 13  2 39  0.0000000  0 12G 9G18G23G30G21G17G15G 6G26G 5G29G10
   1220861.464 6    951339.135 6  24121033.106    24121037.946    24121033.170
        16.000          11.000
  -9104857.121 8  -7094675.824 7  21910506.152    21910508.216    21910506.660
       101.000          59.000
 -10320359.308 7  -8041821.191 7  22061934.321    22061938.306    22061935.192
        99.000          81.000
   2450797.864 8   1909715.618 7  21553487.818    21553490.341    21553487.338
       120.000          92.000
  -1393424.328 6  -1085772.979 6  23626311.279    23626312.284    23626311.408
        25.000          13.000
   -148188.402 6   -115462.693 6  23108395.642    23108398.288    23108396.365
        30.000          22.000
    -17462.265 5    -13606.995 4  25262668.670    25262672.155    25262669.108
         9.000           1.000
  -9919139.511 8  -7729197.779 8  20905416.958    20905419.627    20905417.163
       228.000         180.000
  -1829201.211 8  -1425344.054 8  21695405.818    21695407.752    21695405.787
       151.000         131.000
  10266203.219 7   7999640.137 7  22758490.293    22758493.836    22758490.843
        56.000          38.000
   1667513.080 7   1299365.420 7  22233836.788    22233838.461    22233836.905
        64.000          61.000
   1191476.533 5    928423.473 5  25119293.819    25119296.822    25119294.263
         9.000           4.000
 03  4 13  2 39 30.0000000  0 11G 9G18G23G30G21G17G 6G26G 5G29G10
   1213638.476 6    945710.968 6  24119659.070    24119663.157    24119659.284
        17.000          12.000
  -9135630.010 8  -7118654.602 7  21904649.959    21904652.256    21904650.087
       103.000          59.000
 -10361807.699 8  -8074118.539 7  22054046.872    22054051.014    22054047.584
       100.000          81.000
   2496564.689 8   1945378.147 7  21562197.042    21562199.713    21562196.849
       124.000          98.000
  -1408216.032 6  -1097298.939 6  23623496.343    23623497.657    23623496.826
        26.000          13.000
   -151916.734 6   -118367.823 6  23107685.879    23107688.978    23107686.404
        31.000          22.000
  -9967150.105 8  -7766608.582 8  20896280.806    20896283.408    20896281.015
       232.000         182.000
  -1810824.868 8  -1411024.780 8  21698902.657    21698904.676    21698902.690
       148.000         132.000
  10346946.505 7   8062557.045 7  22773855.543    22773859.311    22773856.140
        59.000          42.000
   1716547.243 7   1337573.905 7  22243167.373    22243169.301    22243167.487
        61.000          61.000
   1282140.061 5    999070.381 4  25136544.569    25136548.254    25136545.574
         9.000           3.000
 03  4 13  2 40  0.0000000  0 11G 9G18G23G30G21G17G 6G26G 5G29G10
   1206232.444 6    939940.168 6  24118249.452    24118254.048    24118249.811
        18.000          15.000
  -9165963.688 8  -7142291.141 7  21898877.728    21898879.839    21898878.101
       107.000          61.000
 -10402831.926 8  -8106085.379 7  22046240.101    22046244.068    22046240.963
       106.000          81.000
   2542620.689 8   1981265.980 7  21570960.964    21570963.822    21570960.702
       121.000          92.000
  -1423127.602 6  -1108918.304 6  23620658.636    23620660.355    23620659.286
        27.000          13.000
   -155737.701 7   -121345.151 6  23106958.724    23106961.929    23106959.053
        33.000          23.000
 -10014782.393 8  -7803724.616 8  20887216.615    20887219.222    20887216.911
       244.000         184.000
  -1791983.887 8  -1396343.454 8  21702487.813    21702490.112    21702487.871
       153.000         136.000
  10427708.842 7   8125488.775 7  22789223.555    22789228.064    22789224.302
        57.000          44.000
   1766089.686 7   1376178.432 7  22252594.877    22252597.061    22252595.252
        62.000          61.000
   1372659.346 6   1069604.885 4  25153771.361    25153774.042    25153771.859
        12.000           3.000
 03  4 13  2 40 30.0000000  0 12G 9G18G23G30G21G17G15G 6G26G 5G29G10
   1198644.613 6    934027.689 6  24116805.684    24116809.667    24116806.176
        19.000          15.000
  -9195858.069 8  -7165585.400 7  21893188.858    21893190.982    21893189.213
       107.000          60.000
 -10443431.730 8  -8137721.506 7  22038514.326    22038517.816    22038514.973
       106.000          82.000
   2588963.643 8   2017377.412 7  21579779.646    21579782.583    21579779.483
       125.000          99.000
  -1438159.743 6  -1120631.633 6  23617798.391    23617799.728    23617799.018
        28.000          13.000
   -159652.121 7   -124395.309 6  23106213.729    23106217.047    23106214.280
        33.000          23.000
         0.08715         0.23914  25252581.866    25252583.302    25252582.051
         9.000           1.000
 -10062033.917 8  -7840543.960 8  20878224.900    20878227.619    20878225.224
       245.000         184.000
  -1772677.710 8  -1381299.649 8  21706161.690    21706163.859    21706161.732
       151.000         136.000
  10508487.867 7   8188433.483 7  22804595.383    22804599.633    22804596.002
        58.000          41.000
   1816139.941 7   1415178.652 7  22262119.019    22262121.201    22262119.429
        61.000          61.000
   1463032.944 6   1140025.869 4  25170969.327    25170971.717    25170970.228
        13.000           2.000
 03  4 13  2 41  0.0000000  0 11G 9G18G23G30G21G17G 6G26G 5G29G10
   1190862.651 6    927963.924 6  24115324.448    24115328.138    24115325.045
        20.000          14.000
  -9225326.892 8  -7188548.048 7  21887580.743    21887583.319    21887581.029
       105.000          62.000
 -10483620.199 8  -8169037.127 7  22030866.652    22030870.328    22030867.613
       104.000          82.000
   2635577.528 8   2053699.944 7  21588649.958    21588653.014    21588649.704
       118.000          91.000
  -1453326.677 6  -1132449.993 6  23614911.915    23614913.571    23614912.768
        28.000          13.000
   -163673.719 7   -127528.987 6  23105448.610    23105451.693    23105449.408
        33.000          22.000
 -10108915.725 8  -7877075.219 8  20869303.664    20869306.379    20869303.946
       249.000         188.000
  -1752919.533 8  -1365903.645 8  21709921.453    21709923.684    21709921.446
       149.000         135.000
  10589267.387 7   8251378.604 7  22819967.409    22819970.988    22819968.128
        60.000          36.000
   1866683.578 7   1454563.319 7  22271737.183    22271739.284    22271737.264
        59.000          59.000
   1553245.843 6   1210321.652 4  25188135.952    25188138.305    25188136.747
        10.000           1.000
 03  4 13  2 41 30.0000000  0 11G 9G18G23G30G21G17G15G 6G26G 5G29
   1182903.482 6    921762.041 6  24113809.693    24113813.704    24113810.334
        20.000          14.000
  -9254355.068 8  -7211167.377 7  21882056.982    21882059.587    21882057.430
       108.000          63.000
 -10523381.661 8  -8200020.055 7  22023299.840    22023304.117    22023300.524
       104.000          84.000
   2682475.326 8   2090243.680 7  21597574.203    21597576.908    21597573.973
       123.000          95.000
  -1468613.041 6  -1144361.453 6  23612003.103    23612004.441    23612003.607
        29.000          13.000
   -167787.493 7   -130734.522 6  23104665.613    23104668.741    23104666.490
        32.000          22.000
        -0.32015        -0.94414  25245763.426    25245768.628    25245764.018
         8.000           3.000
 -10155409.908 8  -7913304.467 8  20860455.937    20860458.597    20860456.100
       244.000         186.000
  -1732693.417 8  -1350143.053 8  21713770.166    21713772.490    21713770.040
       144.000         135.000
  10670060.512 7   8314334.274 7  22835341.805    22835345.222    22835342.390
        58.000          35.000
   1917735.297 7   1494343.859 7  22281451.921    22281454.167    22281451.994
        59.000          58.000
 03  4 13  2 42  0.0000000  0 12G 9G18G23G30G21G17G15G 6G26G 5G29G10
   1174751.241 6    915409.640 6  24112258.717    24112262.207    24112258.948
        23.000          13.000
  -9282959.598 8  -7233456.655 7  21876613.703    21876616.346    21876613.902
       114.000          65.000
 -10562733.225 8  -8230683.635 7  22015811.354    22015815.620    22015811.801
       104.000          86.000
   2729637.356 8   2126993.243 7  21606548.469    21606551.664    21606548.130
       117.000          88.000
  -1484036.629 6  -1156379.902 6  23609067.916    23609069.252    23609068.156
        29.000          13.000
   -172011.810 7   -134026.262 6  23103861.403    23103864.759    23103862.280
        32.000          23.000
    -18071.313 6    -14082.278 4  25242323.625    25242326.112    25242324.273
        10.000           2.000
 -10201531.208 8  -7949243.223 8  20851679.210    20851681.882    20851679.214
       251.000         186.000
  -1712016.357 8  -1334031.137 8  21717704.762    21717707.125    21717704.699
       143.000         135.000
  10750847.502 7   8377285.094 7  22850714.680    22850719.040    22850715.237
        58.000          41.000
   1969276.901 7   1534506.063 7  22291259.723    22291262.281    22291259.840
        60.000          58.000
        -0.97916        -0.79014  25222381.671    25222384.206    25222382.340
        11.000           1.000
 03  4 13  2 42 30.0000000  0 11G 9G18G23G30G21G17G15G 6G26G 5G29
   1166413.243 6    908912.606 6  24110671.421    24110675.255    24110671.764
        23.000          14.000
  -9311135.191 8  -7255411.590 7  21871251.908    21871254.497    21871252.078
       115.000          66.000
 -10601668.958 8  -8261023.104 7  22008401.982    22008406.272    22008402.521
       107.000          87.000
   2777067.110 8   2163951.539 7  21615573.904    21615577.445    21615573.413
       123.000          99.000
  -1499592.407 6  -1168501.250 6  23606107.483    23606108.942    23606107.842
        30.000          13.000
   -176341.934 7   -137400.340 6  23103037.128    23103040.823    23103037.750
        33.000          24.000
    -36248.327 6    -28246.128 4  25238865.109    25238867.007    25238865.713
        10.000           2.000
 -10247271.368 8  -7984884.880 8  20842975.032    20842977.850    20842975.020
       256.000         185.000
  -1690882.133 8  -1317562.888 8  21721726.261    21721728.883    21721726.010
       145.000         137.000
  10831631.954 7   8440234.043 7  22866087.508    22866091.754    22866087.960
        61.000          41.000
   2021313.547 7   1575054.119 7  22301162.132    22301164.400    22301162.167
        63.000          56.000
 03  4 13  2 43  0.0000000  0 12G 9G18G23G30G21G17G15G 6G26G 5G29G10
   1157881.514 6    902264.590 6  24109048.121    24109052.097    24109048.300
        24.000          16.000
  -9338891.116 8  -7277039.537 7  21865969.913    21865972.638    21865970.002
       115.000          66.000
 -10640197.725 8  -8291045.461 7  22001070.206    22001074.429    22001070.610
       107.000          87.000
   2824752.882 8   2201109.321 7  21624648.292    21624651.412    21624647.903
       123.000          98.000
  -1515289.621 6  -1180732.824 6  23603120.340    23603121.949    23603120.827
        30.000          13.000
   -180787.105 7   -140864.092 6  23102191.089    23102194.994    23102191.423
        33.000          25.000
    -54541.628 6    -42500.633 4  25235383.529    25235385.424    25235384.038
        10.000           1.000
 -10292637.066 8  -8020234.767 8  20834342.294    20834344.925    20834342.377
       260.000         186.000
  -1669299.545 8  -1300745.281 8  21725833.139    21725835.899    21725833.092
       140.000         137.000
  10912402.464 7   8503172.108 7  22881457.604    22881461.633    22881458.107
        58.000          39.000
   2073835.031 7   1615979.960 7  22311156.559    22311158.710    22311156.511
        66.000          56.000
        -0.28015        -0.60714  25256504.471    25256507.261    25256504.758
         9.000           1.000
 03  4 13  2 43 30.0000000  0 10G 9G18G23G30G21G17G 6G26G 5G29
   1149187.568 6    895490.216 6  24107393.743    24107397.714    24107394.365
        22.000          16.000
  -9366197.833 8  -7298317.407 7  21860773.564    21860776.269    21860773.456
       113.000          65.000
 -10678289.435 8  -8320727.218 7  21993821.867    21993825.756    21993822.531
       106.000          88.000
   2872722.005 8   2238487.902 7  21633776.410    21633779.877    21633775.968
       118.000          95.000
  -1531099.111 6  -1193051.850 6  23600111.975    23600113.608    23600112.373
        29.000          13.000
   -185317.697 7   -144394.374 6  23101329.138    23101332.902    23101329.574
        33.000          26.000
 -10337596.033 8  -8055267.688 8  20825786.943    20825789.457    20825786.939
       257.000         187.000
  -1647238.208 8  -1283554.582 8  21730031.452    21730033.924    21730031.303
       139.000         135.000
  10993186.523 7   8566120.764 7  22896830.088    22896833.923    22896830.635
        54.000          35.000
   2126870.349 7   1657306.221 7  22321248.897    22321251.026    22321249.040
        61.000          54.000
 03  4 13  2 44  0.0000000  0 11G 9G18G23G30G21G17G15G 6G26G 5G29
   1140350.577 6    888604.389 6  24105711.802    24105715.597    24105711.752
        21.000          14.000
  -9393037.887 8  -7319231.640 7  21855666.321    21855668.597    21855666.691
       114.000          65.000
 -10715926.152 8  -8350054.433 7  21986659.547    21986663.577    21986660.272
       104.000          87.000
   2920989.998 8   2276099.376 7  21642962.028    21642964.998    21642961.870
       119.000          94.000
  -1547003.622 6  -1205444.912 6  23597085.502    23597086.947    23597085.594
        29.000          14.000
   -189916.871 7   -147978.078 6  23100454.223    23100457.659    23100455.113
        34.000          26.000
        -0.20816        -0.24914  25228374.497    25228377.401    25228375.401
        10.000           1.000
 -10382127.894 8  -8089967.781 8  20817312.837    20817315.460    20817312.990
       252.000         192.000
  -1624680.218 8  -1265976.879 8  21734324.237    21734326.543    21734324.201
       141.000         133.000
  11073999.626 7   8629092.070 7  22912208.407    22912212.279    22912208.883
        54.000          36.000
   2180436.431 7   1699046.067 7  22331442.156    22331444.563    22331442.502
        60.000          57.000
 03  4 13  2 44 30.0000000  0 11G 9G18G23G30G21G17G 6G26G 5G29G10
   1131342.920 6    881585.515 6  24103997.905    24104001.914    24103998.315
        20.000          13.000
  -9419440.489 8  -7339805.052 7  21850641.900    21850644.243    21850642.087
       116.000          66.000
 -10753136.603 8  -8379049.533 7  21979578.466    21979582.554    21979578.963
       103.000          86.000
   2969525.341 8   2313919.118 7  21652197.465    21652200.637    21652196.939
       114.000          90.000
  -1563032.459 6  -1217934.899 6  23594035.383    23594036.868    23594035.330
        30.000          13.000
   -194613.971 7   -151638.143 6  23099560.576    23099563.968    23099561.309
        33.000          26.000
 -10426259.284 8  -8124355.874 8  20808914.911    20808917.567    20808915.002
       255.000         194.000
  -1601654.308 8  -1248034.610 8  21738705.963    21738708.289    21738705.918
       146.000         132.000
  11154810.381 7   8692061.486 7  22927586.251    22927590.478    22927586.645
        52.000          39.000
   2234503.206 7   1741176.016 7  22341730.888    22341733.169    22341730.831
        63.000          58.000
        -0.85616                  25307481.044                    25307481.180
        10.000  
 03  4 13  2 45  0.0000000  0 10G 9G18G23G30G21G17G 6G26G 5G29
   1122150.300 6    874422.507 6  24102248.260    24102252.378    24102248.314
        21.000          11.000
  -9445421.949 8  -7360050.302 7  21845697.709    21845700.272    21845697.860
       118.000          68.000
 -10789936.656 8  -8407724.867 7  21972575.688    21972579.661    21972576.313
       107.000          88.000
   3018309.533 8   2351932.751 7  21661481.062    21661484.095    21661480.791
       112.000          84.000
  -1579201.971 6  -1230534.521 6  23590958.307    23590959.950    23590958.630
        30.000          14.000
   -199425.810 7   -155387.625 6  23098644.371    23098648.246    23098645.102
        33.000          26.000
 -10470003.822 8  -8158442.539 8  20800590.588    20800593.124    20800590.758
       256.000         197.000
  -1578176.052 8  -1229739.878 8  21743173.766    21743176.131    21743173.571
       154.000         134.000
  11235600.464 7   8755014.771 7  22942960.117    22942964.264    22942960.616
        54.000          39.000
   2289053.729 7   1783682.901 7  22352111.271    22352113.616    22352111.135
        63.000          56.000
 03  4 13  2 45 30.0000000  0 12G 9G18G23G30G21G17G15G 6G26G 5G29G10
   1112785.226 6    867125.134 6  24100465.726    24100470.151    24100465.761
        20.000          10.000
  -9470971.295 8  -7379958.824 7  21840835.693    21840838.421    21840836.019
       118.000          69.000
 -10826315.104 8  -8436071.646 7  21965653.130    21965657.120    21965653.640
       110.000          90.000
   3067351.577 8   2390147.368 7  21670812.980    21670816.279    21670812.473
       114.000          89.000
  -1595501.485 6  -1243235.413 6  23587856.379    23587858.046    23587856.819
        31.000          15.000
   -204341.545 7   -159218.050 6  23097708.791    23097712.692    23097709.277
        33.000          25.000
        -0.34516        -0.41414  25217717.412    25217719.761    25217718.002
        12.000           1.000
 -10513347.892 8  -8192217.122 8  20792342.187    20792344.999    20792342.199
       253.000         201.000
  -1554234.130 8  -1211083.820 8  21747729.752    21747732.038    21747729.600
       157.000         130.000
  11316378.825 7   8817958.950 7  22958331.222    22958335.720    22958331.693
        51.000          37.000
   2344098.476 7   1826574.924 7  22362585.761    22362588.214    22362585.830
        63.000          57.000
        -0.58315        -0.73214  25341310.631    25341315.542    25341311.688
         9.000           1.000
 03  4 13  2 46  0.0000000  0 10G 9G18G23G30G21G17G 6G26G 5G29
   1103249.528 6    859694.860 6  24098651.206    24098655.434    24098651.494
        19.000          11.000
  -9496088.582 8  -7399530.632 7  21836055.837    21836058.646    21836055.957
       113.000          69.000
 -10862271.500 8  -8464089.507 7  21958811.060    21958814.872    21958811.691
       108.000          90.000
   3116649.124 8   2428561.116 7  21680194.207    21680197.231    21680193.940
       109.000          83.000
  -1611931.100 6  -1256037.634 6  23584730.059    23584731.724    23584730.619
        29.000          15.000
   -209361.374 7   -163129.540 6  23096753.709    23096757.298    23096754.142
        32.000          23.000
 -10556288.760 8  -8225677.478 8  20784170.912    20784173.694    20784170.938
       249.000         203.000
  -1529827.822 8  -1192065.858 8  21752374.260    21752376.284    21752374.237
       161.000         130.000
  11397143.396 7   8880892.439 7  22973700.428    22973704.438    22973701.021
        50.000          34.000
   2399636.629 7   1869851.459 7  22373154.874    22373156.909    22373155.045
        64.000          57.000
 03  4 13  2 46 30.0000000  0 12G 9G18G23G30G21G17G15G 6G26G 5G29G10
   1093545.166 6    852133.165 6  24096804.641    24096809.273    24096804.668
        20.000          13.000
  -9520773.663 8  -7418765.662 7  21831358.568    21831361.195    21831358.732
       116.000          70.000
 -10897805.065 8  -8491777.893 7  21952049.018    21952053.005    21952049.642
       109.000          89.000
   3166200.404 8   2467172.591 7  21689623.704    21689626.749    21689623.457
       115.000          91.000
  -1628490.506 6  -1268940.998 6  23581578.874    23581580.787    23581579.563
        28.000          14.000
   -214485.289 7   -167122.149 6  23095778.969    23095782.268    23095779.218
        32.000          23.000
        -0.58416                  25210509.163                    25210509.885
        10.000  
 -10598823.356 8  -8258821.266 8  20776077.043    20776079.650    20776077.128
       251.000         205.000
  -1504956.556 8  -1172685.601 8  21757107.188    21757109.093    21757107.113
       160.000         128.000
  11477892.559 7   8943813.924 7  22989067.072    22989070.752    22989067.672
        56.000          35.000
   2455667.639 7   1913512.026 7  22383816.988    22383819.234    22383817.220
        62.000          56.000
        -0.56615                  25375018.982                    25375019.778
         6.000  
 03  4 13  2 47  0.0000000  0 10G 9G18G23G30G21G17G 6G26G 5G29
   1083694.536 6    844457.427 6  24094930.015    24094933.801    24094930.145
        22.000          12.000
  -9545006.192 8  -7437648.129 7  21826747.511    21826749.816    21826747.886
       121.000          70.000
 -10932894.940 8  -8519120.623 7  21945371.618    21945375.408    21945372.426
       110.000          89.000
   3216023.574 8   2505995.830 7  21699104.385    21699107.567    21699103.910
       109.000          89.000
  -1645159.502 6  -1281929.834 6  23578406.980    23578408.605    23578407.326
        29.000          15.000
   -219693.314 7   -171180.364 6  23094788.033    23094791.280    23094788.683
        32.000          24.000
 -10640928.611 8  -8291630.578 8  20768064.499    20768067.230    20768064.523
       248.000         209.000
  -1479599.219 8  -1152926.658 8  21761932.400    21761934.472    21761932.318
       157.000         128.000
  11558644.712 7   9006737.648 7  23004433.708    23004437.609    23004434.209
        55.000          37.000
   2512211.361 7   1957572.046 7  22394576.497    22394579.102    22394576.544
        61.000          56.000
 03  4 13  2 47 30.0000000  0 12G 9G18G23G30G21G17G15G 6G26G 5G29G10
   1073660.776 6    836638.985 6  24093020.337    24093024.490    24093019.875
        24.000          12.000
  -9568824.673 8  -7456207.953 7  21822215.132    21822217.189    21822215.390
       124.000          70.000
 -10967579.611 8  -8546147.609 7  21938771.025    21938774.857    21938771.557
       113.000          90.000
   3266077.805 8   2544999.114 7  21708629.606    21708632.673    21708629.170
       114.000          89.000
  -1661976.805 6  -1295034.234 6  23575206.648    23575208.398    23575206.753
        31.000          16.000
   -225024.299 7   -175334.385 6  23093773.387    23093776.852    23093774.368
        32.000          24.000
        -0.34416        -0.06214  25203221.280    25203223.348    25203221.437
        10.000           1.000
 -10682640.501 8  -8324133.368 8  20760126.904    20760129.775    20760126.902
       251.000         214.000
  -1453794.129 8  -1132818.814 8  21766842.881    21766845.001    21766842.811
       158.000         128.000
  11639359.152 7   9069631.983 7  23019792.335    23019797.220    23019792.854
        48.000          39.000
   2569228.110 7   2002000.660 7  22405426.793    22405429.048    22405426.770
        61.000          55.000
        -0.67115                  25408603.992                    25408604.356
         7.000  
 03  4 13  2 48  0.0000000  0 10G 9G18G23G30G21G17G 6G26G 5G29
   1063484.782 6    828709.748 6  24091083.652    24091087.437    24091083.986
        24.000          11.000
  -9592190.294 8  -7474414.873 7  21817768.488    21817770.820    21817768.688
       120.000          71.000
 -11001819.642 8  -8572828.081 7  21932255.316    21932259.258    21932255.744
       115.000          92.000
   3316400.135 8   2584211.348 7  21718205.473    21718208.748    21718205.074
       114.000          90.000
  -1678902.890 6  -1308223.363 6  23571985.712    23571987.290    23571985.719
        30.000          15.000
   -230438.610 6   -179553.302 6  23092742.794    23092746.601    23092743.624
        31.000          24.000
 -10723917.241 8  -8356297.046 8  20752272.272    20752275.099    20752272.403
       256.000         218.000
  -1427501.628 8  -1112331.140 8  21771846.192    21771848.286    21771846.031
       157.000         127.000
  11720073.072 7   9132525.957 7  23035152.045    23035156.105    23035152.495
        49.000          33.000
   2626756.417 7   2046827.919 7  22416374.071    22416376.255    22416374.320
        62.000          54.000
 03  4 13  2 48 30.0000000  0 11G 9G18G23G30G21G17G15G 6G26G 5G29
   1053136.229 6    820646.049 6  24089114.655    24089118.016    24089114.307
        23.000          10.000
  -9615135.462 8  -7492294.149 7  21813401.780    21813404.434    21813401.687
       119.000          72.000
 -11035647.072 8  -8599187.037 7  21925818.650    21925822.127    21925819.400
       120.000          93.000
   3366955.959 8   2623605.542 7  21727826.099    21727828.711    21727825.783
       118.000          91.000
  -1695970.091 6  -1321522.440 6  23568737.827    23568739.291    23568738.510
        30.000          16.000
   -235969.065 7   -183862.710 6  23091690.127    23091694.330    23091690.165
        32.000          25.000
        -0.88515                  25195849.555                    25195849.898
         8.000  
 -10764788.559 8  -8388144.794 8  20744494.582    20744497.497    20744494.592
       253.000         219.000
  -1400753.588 8  -1091488.484 8  21776935.993    21776938.248    21776935.834
       150.000         129.000
  11800752.176 7   9195392.816 7  23050505.241    23050508.765    23050505.927
        52.000          33.000
   2684763.083 7   2092027.942 7  22427412.141    22427414.443    22427412.243
        60.000          53.000
 03  4 13  2 49  0.0000000  0 11G 9G18G23G30G21G17G 6G26G 5G29G10
   1042597.267 6    812433.983 6  24087109.182    24087112.489    24087109.060
        24.000          11.000
  -9637679.946 8  -7509861.218 7  21809111.935    21809114.244    21809112.209
       120.000          73.000
 -11069081.179 8  -8625239.522 7  21919456.193    21919459.842    21919456.861
       120.000          93.000
   3417723.484 8   2663164.683 7  21737486.684    21737489.654    21737486.303
       111.000          85.000
  -1713198.386 6  -1334947.053 6  23565459.637    23565460.769    23565460.633
        30.000          15.000
   -241635.530 7   -188278.120 6  23090612.160    23090615.937    23090612.067
        33.000          24.000
 -10805271.460 8  -8419689.895 8  20736791.019    20736793.783    20736791.009
       255.000         218.000
  -1373569.387 8  -1070305.970 8  21782108.933    21782111.229    21782108.764
       140.000         126.000
  11881375.087 7   9258215.877 7  23065847.102    23065850.592    23065847.875
        47.000          32.000
   2743227.820 7   2137584.891 7  22438537.691    22438539.893    22438537.841
        61.000          54.000
        -0.60315                  25458739.886                    25458741.039
         5.000  
 03  4 13  2 49 30.0000000  0 11G 9G18G23G30G21G17G15G 6G26G 5G29
   1031925.368 6    804118.321 6  24085078.384    24085081.327    24085078.159
        25.000          12.000
  -9659768.500 8  -7527073.032 7  21804908.575    21804910.726    21804908.948
       124.000          72.000
 -11102066.283 8  -8650942.131 7  21913178.827    21913183.027    21913179.218
       119.000          96.000
   3468756.015 8   2702930.309 7  21747197.724    21747201.223    21747197.333
       109.000          86.000
  -1730532.445 7  -1348454.084 6  23562160.883    23562162.313    23562161.720
        32.000          15.000
   -247382.645 7   -192756.370 6  23089518.564    23089521.915    23089519.322
        33.000          24.000
        -1.03616                  25188384.454                    25188384.826
        11.000  
 -10845307.915 8  -8450887.120 8  20729172.337    20729175.010    20729172.303
       263.000         216.000
  -1345893.071 8  -1048740.000 8  21787375.454    21787377.763    21787375.294
       143.000         128.000
  11961995.162 7   9321036.720 7  23081187.939    23081192.846    23081188.548
        42.000          37.000
   2802204.993 7   2183541.144 7  22449760.750    22449762.974    22449760.707
        65.000          55.000
 03  4 13  2 50  0.0000000  0 10G 9G18G23G30G21G17G 6G26G 5G29
   1021103.666 6    795685.945 6  24083018.986    24083022.064    24083018.700
        25.000          11.000
  -9681420.020 8  -7543944.283 7  21800788.273    21800790.640    21800788.219
       125.000          72.000
 -11134620.895 8  -8676309.301 7  21906983.640    21906987.989    21906984.121
       120.000          98.000
   3520032.743 8   2742886.232 7  21756955.381    21756958.462    21756955.014
       112.000          90.000
  -1747990.585 7  -1362057.809 6  23558838.647    23558840.116    23558838.597
        33.000          16.000
   -253229.329 7   -197312.194 6  23088406.056    23088409.249    23088407.044
        35.000          24.000
 -10884914.040 8  -8481749.021 8  20721635.412    20721638.243    20721635.376
       266.000         216.000
  -1317743.005 8  -1026804.874 8  21792732.113    21792734.568    21792731.876
       140.000         127.000
  12042591.806 7   9383839.294 7  23096524.900    23096529.342    23096525.337
        44.000          34.000
   2861675.215 7   2229881.588 7  22461077.458    22461079.789    22461077.408
        62.000          53.000
 03  4 13  2 50 30.0000000  0 10G 9G18G23G30G21G17G 6G26G 5G29
   1010077.042 6    787093.887 6  24080920.569    24080923.956    24080920.361
        23.000          13.000
  -9702691.564 8  -7560519.452 7  21796740.340    21796742.707    21796740.450
       123.000          72.000
 -11166801.655 8  -8701385.157 7  21900860.097    21900864.175    21900860.706
       124.000          99.000
   3571494.510 8   2782986.325 7  21766747.895    21766751.299    21766747.348
       104.000          81.000
  -1765630.024 7  -1375802.800 6  23555481.891    23555483.375    23555481.677
        33.000          16.000
   -259232.276 7   -201989.781 6  23087263.529    23087266.986    23087264.340
        34.000          24.000
 -10924144.001 8  -8512317.810 8  20714170.187    20714172.988    20714170.146
       268.000         216.000
  -1289175.698 8  -1004544.620 8  21798168.088    21798170.872    21798167.887
       137.000         128.000
  12123106.215 7   9446577.792 7  23111846.496    23111851.318    23111846.883
        44.000          36.000
   2921580.795 7   2276561.273 7  22472476.948    22472479.420    22472477.005
        60.000          52.000
 03  4 13  2 51  0.0000000  0 11G 9G18G23G30G21G17G15G 6G26G 5G29
    998892.120 6    778378.459 6  24078791.991    24078795.243    24078792.318
        23.000          11.000
  -9723538.580 8  -7576763.830 7  21792772.958    21792775.490    21792773.225
       119.000          72.000
 -11198563.451 8  -8726134.547 8  21894816.197    21894820.023    21894816.742
       128.000         100.000
   3623184.040 8   2823263.891 7  21776584.520    21776587.698    21776584.016
       115.000          90.000
  -1783405.680 6  -1389653.942 6  23552099.220    23552100.847    23552099.186
        31.000          16.000
   -265347.197 7   -206754.625 6  23086099.682    23086103.465    23086099.931
        35.000          24.000
        -1.01715        -0.78914  25177012.697    25177014.838    25177013.160
         9.000           1.000
 -10962950.463 8  -8542556.594 8  20706785.557    20706788.221    20706785.427
       262.000         209.000
  -1260146.118 8   -981924.152 8  21803692.298    21803694.955    21803692.009
       136.000         127.000
  12203581.249 7   9509285.623 7  23127160.130    23127164.296    23127160.602
        42.000          32.000
   2981965.416 7   2323614.244 7  22483967.659    22483970.163    22483967.346
        57.000          50.000
 03  4 13  2 51 30.0000000  0 10G 9G18G23G30G21G17G 6G26G 5G29
    987562.781 6    769550.488 6  24076635.705    24076639.343    24076635.844
        21.000          13.000
  -9743949.305 8  -7592668.245 7  21788889.027    21788891.451    21788889.112
       124.000          74.000
 -11229894.126 8  -8750547.996 7  21888854.002    21888857.780    21888854.261
       127.000          99.000
   3675110.919 8   2863726.426 7  21786465.538    21786468.596    21786464.979
       105.000          80.000
  -1801305.789 6  -1403602.054 6  23548692.768    23548694.405    23548692.961
        30.000          16.000
   -271561.688 7   -211597.064 6  23084917.025    23084920.736    23084917.223
        33.000          23.000
 -11001318.941 8  -8572454.092 8  20699484.164    20699486.898    20699484.116
       264.000         210.000
  -1230641.884 8   -958933.824 8  21809306.903    21809309.370    21809306.666
       142.000         127.000
  12284027.073 7   9571970.680 7  23142468.562    23142473.234    23142469.124
        40.000          34.000
   3042840.214 7   2371049.164 7  22495551.906    22495554.157    22495551.891
        56.000          50.000
 03  4 13  2 52  0.0000000  0 10G 9G18G23G30G21G17G 6G26G 5G29
    976071.496 6    760596.331 6  24074448.852    24074453.023    24074448.879
        19.000          15.000
  -9763943.260 8  -7608247.900 7  21785084.410    21785086.878    21785084.404
       126.000          76.000
 -11260813.099 8  -8774640.644 8  21882970.162    21882973.918    21882970.857
       124.000         100.000
   3727253.568 8   2904357.079 7  21796388.004    21796391.182    21796387.372
       110.000          89.000
  -1819349.669 6  -1417662.186 6  23545259.145    23545260.944    23545259.633
        29.000          16.000
   -277895.901 7   -216532.782 6  23083711.797    23083715.294    23083712.325
        32.000          23.000
 -11039266.501 8  -8602023.602 8  20692263.092    20692265.838    20692263.160
       267.000         213.000
  -1200682.361 8   -935588.727 8  21815007.994    21815010.434    21815007.690
       145.000         125.000
  12364422.100 7   9634616.158 7  23157767.106    23157771.765    23157767.694
        40.000          33.000
   3104184.611 7   2418850.005 7  22507225.188    22507227.739    22507225.167
        57.000          51.000
 03  4 13  2 52 30.0000000  0 11G 9G18G23G30G21G17G15G 6G26G 5G29
    964428.093 6    751523.653 6  24072233.120    24072237.134    24072233.055
        19.000          13.000
  -9783513.243 8  -7623497.178 7  21781360.427    21781362.755    21781360.393
       126.000          75.000
 -11291312.183 8  -8798406.114 8  21877166.066    21877170.319    21877166.583
       122.000         102.000
   3779617.582 8   2945160.230 7  21806352.885    21806355.805    21806352.432
       108.000          82.000
  -1837529.091 6  -1431827.932 6  23541799.741    23541801.192    23541800.374
        29.000          16.000
   -284341.885 6   -221555.591 6  23082485.000    23082488.744    23082485.998
        31.000          24.000
        -0.80816        -0.78814  25165426.270    25165428.153    25165427.081
        10.000           1.000
 -11076782.619 8  -8631256.921 8  20685124.032    20685126.776    20685123.992
       273.000         219.000
  -1170259.012 8   -911882.205 8  21820797.509    21820799.836    21820797.195
       154.000         133.000
  12444772.665 7   9697226.997 7  23173057.593    23173062.036    23173057.974
        44.000          34.000
   3166005.661 7   2467022.268 7  22518989.170    22518991.888    22518989.003
        55.000          51.000
 03  4 13  2 53  0.0000000  0 10G 9G18G23G30G21G17G 6G26G 5G29
    952630.498 6    742330.812 6  24069988.026    24069991.988    24069988.021
        20.000          11.000
  -9802663.653 8  -7638419.523 7  21777716.136    21777718.420    21777716.377
       124.000          74.000
 -11321395.475 8  -8821847.584 8  21871441.360    21871445.761    21871441.867
       123.000         103.000
   3832196.754 8   2986131.021 7  21816357.729    21816361.055    21816357.025
       102.000          80.000
  -1855848.026 6  -1446102.391 6  23538313.906    23538315.287    23538314.206
        30.000          15.000
   -290903.692 7   -226668.651 6  23081236.269    23081240.057    23081236.832
        33.000          25.000
 -11113868.915 8  -8660155.320 8  20678066.582    20678069.395    20678066.481
       272.000         218.000
  -1139376.172 8   -887817.634 8  21826674.310    21826676.789    21826674.040
       148.000         128.000
  12525072.597 7   9759798.383 7  23188338.146    23188342.414    23188338.637
        43.000          32.000
   3228298.068 7   2515561.820 7  22530843.158    22530845.626    22530843.158
        56.000          51.000
 03  4 13  2 53 30.0000000  0 11G 9G18G23G30G21G17G15G 6G26G 5G29
    940701.727 6    733035.751 5  24067718.015    24067720.907    24067717.811
        19.000           8.000
  -9821373.335 8  -7652998.452 7  21774155.392    21774158.073    21774155.457
       120.000          74.000
 -11351041.575 8  -8844948.388 8  21865800.345    21865804.169    21865800.902
       128.000         105.000
   3885010.016 8   3027284.229 7  21826408.577    21826411.424    21826408.157
       107.000          80.000
  -1874285.184 7  -1460468.972 6  23534805.506    23534806.743    23534805.319
        32.000          16.000
   -297560.117 7   -231855.447 6  23079969.352    23079973.428    23079969.724
        34.000          25.000
        -0.59015                  25157584.392                    25157585.396
         9.000  
 -11150501.646 8  -8688700.287 8  20671095.727    20671098.449    20671095.726
       275.000         224.000
  -1108012.191 8   -863378.152 8  21832642.481    21832645.067    21832642.227
       145.000         127.000
  12605341.281 7   9822345.427 6  23203612.852    23203616.858    23203613.478
        41.000          31.000
   3291082.106 7   2564484.459 7  22542790.607    22542793.091    22542790.655
        55.000          52.000
 03  4 13  2 54  0.0000000  0 10G 9G18G23G30G21G17G 6G26G 5G29
    928623.157 6    723623.966 5  24065419.825    24065422.870    24065419.900
        21.000           9.000
  -9839663.563 8  -7667250.528 7  21770674.975    21770677.396    21770674.915
       120.000          74.000
 -11380271.167 8  -8867724.633 8  21860238.018    21860241.736    21860238.315
       127.000         104.000
   3938034.521 8   3068602.050 7  21836498.198    21836501.719    21836497.526
       100.000          80.000
  -1892861.456 7  -1474943.958 6  23531270.508    23531271.743    23531270.260
        33.000          16.000
   -304331.733 7   -237132.006 6  23078681.067    23078684.712    23078681.666
        35.000          24.000
 -11186698.931 8  -8716905.948 8  20664207.685    20664210.366    20664207.668
       281.000         227.000
  -1076187.623 8   -838579.772 8  21838698.690    21838700.894    21838698.404
       145.000         124.000
  12685556.245 7   9884850.603 7  23218876.999    23218881.716    23218877.361
        41.000          32.000
   3354336.213 7   2613773.385 7  22554827.620    22554830.134    22554827.485
        56.000          53.000
 03  4 13  2 54 30.0000000  0 11G 9G18G23G30G21G17G15G 6G26G 5G29
    916407.587 6    714105.447 6  24063095.077    24063098.656    24063094.878
        21.000          10.000
  -9857523.709 8  -7681167.479 7  21767276.626    21767278.730    21767276.916
       125.000          75.000
 -11409073.204 8  -8890167.721 8  21854756.806    21854760.698    21854757.277
       121.000         103.000
   3991278.983 8   3110091.244 7  21846630.389    21846633.358    21846629.876
       105.000          83.000
  -1911564.894 7  -1489518.036 6  23527711.101    23527712.646    23527711.339
        33.000          17.000
   -311207.787 7   -242489.939 6  23077372.773    23077376.422    23077373.413
        35.000          25.000
        -0.54216                  25149649.926                    25149650.957
        10.000  
 -11222447.424 8  -8744761.901 8  20657404.891    20657407.584    20657404.849
       281.000         228.000
  -1043891.467 8   -813413.925 8  21844844.410    21844846.663    21844844.166
       141.000         122.000
  12765726.515 7   9947320.949 6  23234132.904    23234137.381    23234133.290
        40.000          31.000
   3418070.000 7   2663436.088 7  22566955.867    22566958.044    22566955.821
        54.000          52.000
 03  4 13  2 55  0.0000000  0 10G 9G18G23G30G21G17G 6G26G 5G29
    904081.030 6    704500.437 5  24060749.088    24060752.482    24060749.193
        21.000           9.000
  -9874930.107 8  -7694730.857 7  21763964.097    21763966.486    21763964.081
       125.000          74.000
 -11437423.550 8  -8912258.849 8  21849361.687    21849365.785    21849361.900
       123.000         105.000
   4044765.123 8   3151768.789 7  21856808.819    21856811.694    21856808.514
       102.000          80.000
  -1930372.510 7  -1504173.284 6  23524132.479    23524133.635    23524132.695
        32.000          17.000
   -318164.357 7   -247910.610 6  23076048.887    23076052.248    23076049.467
        36.000          26.000
 -11257720.555 8  -8772247.443 8  20650692.607    20650695.393    20650692.626
       275.000         226.000
  -1011099.361 8   -787861.625 8  21851084.228    21851086.884    21851083.994
       136.000         124.000
  12845874.272 7  10009773.755 6  23249384.919    23249388.821    23249385.233
        43.000          29.000
   3482306.783 7   2713490.734 7  22579179.731    22579181.598    22579179.681
        53.000          51.000
 03  4 13  2 55 30.0000000  0 10G 9G18G23G30G21G17G 6G26G 5G29
    891608.100 6    694781.353 5  24058375.528    24058379.005    24058375.549
        22.000           8.000
  -9891920.554 8  -7707970.114 7  21760730.568    21760733.275    21760730.482
       123.000          76.000
 -11465359.846 8  -8934027.338 8  21844045.739    21844049.856    21844046.163
       120.000         104.000
   4098453.305 8   3193603.741 7  21867024.590    21867028.207    21867023.828
       100.000          85.000
  -1949321.691 7  -1518938.833 6  23520526.184    23520527.791    23520526.641
        32.000          17.000
   -325238.842 7   -253423.163 6  23074702.517    23074706.048    23074702.753
        37.000          26.000
 -11292553.616 8  -8799390.074 8  20644064.108    20644066.859    20644064.068
       282.000         228.000
   -977848.790 8   -761952.074 8  21857411.640    21857414.340    21857411.374
       132.000         123.000
  12925960.222 7  10072178.417 6  23264624.905    23264628.672    23264625.190
        44.000          29.000
   3547007.747 7   2763907.080 7  22591491.653    22591493.926    22591491.400
        52.000          52.000
 03  4 13  2 56  0.0000000  0 10G 9G18G23G30G21G17G 6G26G 5G29
    878998.801 6    684956.010 5  24055975.861    24055979.234    24055975.737
        23.000           9.000
  -9908487.639 8  -7720879.488 7  21757578.036    21757580.381    21757578.337
       122.000          75.000
 -11492873.907 8  -8955466.818 8  21838810.226    21838814.060    21838810.811
       124.000         106.000
   4152349.358 7   3235600.680 7  21877281.500    21877284.058    21877280.979
        99.000          76.000
  -1968405.144 6  -1533809.007 6  23516894.793    23516896.150    23516895.110
        31.000          18.000
   -332423.199 7   -259021.336 6  23073335.327    23073338.857    23073335.439
        37.000          26.000
 -11326936.090 8  -8826181.598 8  20637521.375    20637523.977    20637521.344
       282.000         229.000
   -944131.523 8   -735678.866 8  21863827.982    21863830.442    21863827.786
       137.000         123.000
  13005990.625 7  10134539.785 6  23279853.474    23279857.886    23279853.948
        39.000          28.000
   3612179.825 7   2814690.530 7  22603893.458    22603896.090    22603893.292
        50.000          52.000
 03  4 13  2 56 30.0000000  0 11G 9G18G23G30G21G17G15G 6G26G 5G29
    866224.575 6    675002.167 5  24053544.819    24053548.626    24053544.962
        25.000           9.000
  -9924662.267 8  -7733483.049 7  21754500.201    21754502.388    21754500.479
       126.000          73.000
 -11519996.257 8  -8976601.065 8  21833648.769    21833652.610    21833648.985
       122.000         102.000
   4206420.512 7   3277734.065 7  21887570.196    21887573.534    21887569.725
        94.000          78.000
  -1987652.065 7  -1548806.565 6  23513232.183    23513233.617    23513232.447
        32.000          18.000
   -339748.003 7   -264728.951 6  23071941.228    23071944.970    23071941.489
        38.000          25.000
         0.21115                  25133508.714                    25133508.201
         9.000  
 -11360896.051 8  -8852643.891 8  20631059.037    20631061.759    20631058.948
       286.000         236.000
   -909977.945 8   -709065.682 8  21870327.147    21870329.439    21870326.868
       137.000         118.000
  13085933.147 7  10196832.667 6  23295066.514    23295070.566    23295066.862
        40.000          28.000
   3677791.334 7   2865816.392 7  22616379.204    22616381.482    22616379.087
        53.000          53.000
 03  4 13  2 57  0.0000000  0 10G 9G18G23G30G21G17G 6G26G 5G29
    853285.002 6    664919.467 5  24051082.666    24051086.125    24051082.352
        27.000           9.000
  -9940447.196 8  -7745782.944 7  21751496.571    21751498.678    21751496.634
       127.000          73.000
 -11546729.270 8  -8997431.928 8  21828561.495    21828565.324    21828562.034
       119.000         102.000
   4260662.230 7   3320000.330 7  21897892.280    21897895.315    21897891.630
        90.000          69.000
  -2007064.397 7  -1563933.015 6  23509538.080    23509539.617    23509537.899
        33.000          18.000
   -347215.429 7   -270547.698 6  23070520.462    23070523.919    23070521.045
        37.000          25.000
 -11394433.427 8  -8878776.900 8  20624676.951    20624679.844    20624676.833
       282.000         238.000
   -875390.601 8   -682114.491 8  21876908.721    21876911.193    21876908.372
       135.000         119.000
  13165783.551 7  10259053.762 6  23310261.572    23310265.634    23310261.971
        42.000          28.000
   3743838.696 7   2917281.880 7  22628947.464    22628949.801    22628947.310
        51.000          51.000
 03  4 13  2 57 30.0000000  0 11G 9G18G23G30G21G17G15G 6G26G 5G29
    840188.904 6    654714.807 5  24048590.394    24048594.282    24048590.029
        28.000           9.000
  -9955836.044 8  -7757774.205 7  21748568.008    21748570.252    21748568.064
       127.000          74.000
 -11573066.316 8  -9017954.258 8  21823549.595    21823553.488    21823550.084
       120.000         101.000
   4315078.932 7   3362402.978 7  21908247.776    21908250.206    21908247.328
        92.000          70.000
  -2026635.100 7  -1579182.876 6  23505813.862    23505815.279    23505813.710
        32.000          19.000
   -354818.922 7   -276472.472 6  23069073.533    23069077.141    23069074.393
        36.000          26.000
        -0.88815        -0.22114  25125266.604    25125270.029    25125265.311
         9.000           1.000
 -11427539.098 8  -8904573.516 8  20618377.057    20618379.891    20618377.017
       279.000         236.000
   -840362.400 8   -654819.774 8  21883574.589    21883577.185    21883574.426
       140.000         123.000
  13245546.928 7  10321207.065 6  23325440.176    23325444.433    23325440.652
        42.000          28.000
   3810327.460 7   2969091.314 7  22641599.693    22641601.914    22641599.468
        48.000          47.000
 03  4 13  2 58  0.0000000  0 10G 9G18G23G30G21G17G 6G26G 5G29
    826961.913 6    644408.155 5  24046073.591    24046076.995    24046073.705
        31.000           9.000
  -9970805.757 8  -7769438.870 7  21745719.094    21745721.552    21745718.953
       129.000          77.000
 -11598983.792 8  -9038149.638 8  21818617.798    21818621.594    21818617.988
       124.000         101.000
   4369692.061 7   3404958.673 7  21918639.720    21918643.061    21918638.962
        91.000          73.000
  -2046340.488 7  -1594537.681 6  23502064.090    23502065.731    23502064.429
        32.000          18.000
   -362534.306 7   -282484.434 6  23067605.104    23067608.721    23067605.469
        36.000          28.000
 -11460187.264 8  -8930013.631 8  20612164.379    20612167.154    20612164.323
       273.000         231.000
   -804869.922 8   -627163.289 8  21890328.660    21890331.234    21890328.496
       144.000         124.000
  13325244.936 7  10383309.410 6  23340605.606    23340609.897    23340605.826
        37.000          28.000
   3877280.289 7   3021262.355 7  22654340.571    22654342.672    22654340.417
        46.000          45.000
 03  4 13  2 58 30.0000000  0 11G 9G18G23G30G21G17G15G 6G26G 5G29
    813625.618 6    634016.317 5  24043535.617    24043539.051    24043535.529
        31.000           9.000
  -9985337.664 8  -7780762.388 7  21742953.758    21742956.173    21742953.923
       128.000          75.000
 -11624462.331 8  -9058002.991 8  21813769.631    21813773.175    21813770.105
       127.000         101.000
   4424518.861 7   3447680.867 7  21929073.568    21929076.419    21929073.240
        94.000          76.000
  -2066161.841 7  -1609982.844 6  23498292.126    23498293.630    23498292.932
        32.000          18.000
   -370342.090 7   -288568.403 6  23066119.034    23066123.086    23066119.096
        35.000          29.000
         0.16215                  25116924.470                    25116923.826
         8.000  
 -11492355.810 8  -8955080.019 8  20606042.805    20606045.626    20606042.679
       274.000         232.000
   -768893.641 8   -599129.813 8  21897174.612    21897177.110    21897174.373
       144.000         122.000
  13404895.480 7  10445374.764 6  23355762.853    23355767.043    23355763.453
        38.000          27.000
   3944715.216 7   3073809.055 7  22667172.855    22667175.227    22667172.759
        44.000          43.000
 03  4 13  2 59  0.0000000  0 10G 9G18G23G30G21G17G 6G26G 5G29
    800170.660 6    623532.033 6  24040974.967    24040979.034    24040974.952
        29.000          10.000
  -9999443.210 8  -7791753.682 7  21740269.782    21740271.905    21740269.986
       135.000          77.000
 -11649513.380 8  -9077523.240 7  21809002.406    21809006.013    21809002.893
       124.000          98.000
   4479545.655 7   3490558.910 7  21939544.372    21939547.242    21939543.905
        88.000          72.000
  -2086109.561 6  -1625526.474 6  23494496.196    23494497.631    23494496.689
        31.000          17.000
   -378254.078 7   -294733.568 6  23064613.561    23064617.324    23064613.817
        35.000          29.000
 -11524053.913 8  -8979779.830 8  20600010.894    20600013.577    20600010.818
       271.000         225.000
   -732444.981 8   -570728.250 8  21904110.590    21904113.047    21904110.267
       145.000         121.000
  13484485.328 7  10507392.835 6  23370908.599    23370912.144    23370909.038
        41.000          25.000
   4012619.665 7   3126721.629 7  22680094.523    22680097.124    22680094.594
        42.000          42.000
 03  4 13  2 59 30.0000000  0 11G 9G18G23G30G21G17G15G 6G26G 5G29
    786572.995 7    612936.538 5  24038387.708    24038390.907    24038387.859
        32.000           9.000
 -10013149.168 8  -7802433.598 7  21737661.599    21737663.619    21737661.640
       138.000          76.000
 -11674163.046 8  -9096730.722 7  21804311.378    21804315.398    21804311.746
       122.000          99.000
   4534744.252 7   3533570.804 7  21950048.168    21950051.411    21950047.582
        88.000          74.000
  -2106209.421 7  -1641188.663 6  23490671.251    23490672.762    23490671.232
        34.000          18.000
   -386296.250 7   -301000.170 6  23063083.404    23063086.970    23063084.171
        35.000          30.000
        -0.40115                  25108483.689                    25108483.449
         8.000  
 -11555305.495 8  -9004131.701 8  20594063.949    20594066.529    20594063.777
       274.000         225.000
   -695550.093 8   -541978.976 8  21911131.508    21911133.827    21911131.135
       147.000         117.000
  13563986.383 7  10569341.723 6  23386037.140    23386041.512    23386037.663
        40.000          27.000
   4080966.338 7   3179978.791 7  22693100.584    22693102.826    22693100.265
        43.000          38.000
 03  4 13  3  0  0.0000000  0 10G 9G18G23G30G21G17G 6G26G 5G29
    772834.204 6    602231.061 6  24035772.964    24035776.914    24035773.152
        30.000          10.000
 -10026456.687 8  -7812803.046 7  21735129.086    21735131.189    21735129.317
       135.000          76.000
 -11698411.994 8  -9115625.961 7  21799696.933    21799700.993    21799697.416
       124.000          99.000
   4590111.772 7   3576714.350 7  21960584.644    21960587.752    21960584.218
        85.000          71.000
  -2126461.851 7  -1656969.748 6  23486817.376    23486819.039    23486817.139
        35.000          19.000
   -394468.881 7   -307368.429 6  23061528.175    23061531.939    23061528.628
        36.000          30.000
 -11586108.589 8  -9028134.105 8  20588202.285    20588204.962    20588202.172
       268.000         225.000
   -658209.430 8   -512882.341 8  21918237.238    21918239.466    21918236.944
       146.000         115.000
  13643396.675 7  10631219.868 6  23401148.000    23401152.268    23401148.609
        36.000          26.000
   4149753.503 7   3233579.184 7  22706190.331    22706192.248    22706190.407
        45.000          37.000
 03  4 13  3  0 30.0000000  0 11G 9G18G23G30G21G17G15G 6G26G 5G29
    758962.607 6    591422.117 6  24033133.194    24033137.244    24033133.301
        30.000          12.000
 -10039360.039 8  -7822857.564 7  21732673.672    21732675.794    21732674.014
       138.000          78.000
 -11722253.995 8  -9134204.092 7  21795160.200    21795163.857    21795160.519
       128.000          97.000
   4645652.734 7   3619993.027 7  21971153.167    21971156.436    21971152.703
        85.000          73.000
  -2146860.068 7  -1672864.430 6  23482935.607    23482937.453    23482936.053
        36.000          20.000
   -402765.029 7   -313832.937 7  23059949.188    23059953.349    23059949.401
        36.000          32.000
        -0.13216         0.49214  25099931.009    25099933.439    25099931.652
        11.000           1.000
 -11616454.486 8  -9051780.247 8  20582427.712    20582430.334    20582427.743
       271.000         228.000
   -620416.581 8   -483433.352 8  21925428.972    21925431.282    21925428.694
       142.000         115.000
  13722721.034 7  10693031.059 6  23416243.212    23416247.323    23416243.521
        35.000          24.000
   4218986.332 7   3287526.855 7  22719364.659    22719366.677    22719364.799
        45.000          37.000
 03  4 13  3  1  0.0000000  0 10G 9G18G23G30G21G17G 6G26G 5G29
    744928.544 6    580486.559 6  24030462.485    24030466.732    24030462.466
        29.000          12.000
 -10051891.480 8  -7832622.279 7  21730289.044    21730291.102    21730289.045
       142.000          76.000
 -11745721.168 8  -9152490.147 7  21790694.640    21790698.206    21790695.132
       130.000          97.000
   4701332.791 7   3663380.093 7  21981749.383    21981751.836    21981748.882
        89.000          70.000
  -2167435.725 7  -1688897.370 6  23479020.409    23479022.152    23479021.167
        36.000          21.000
   -411216.640 7   -320418.586 7  23058341.113    23058345.033    23058341.516
        35.000          33.000
 -11646372.813 8  -9075093.216 8  20576734.303    20576736.942    20576734.177
       272.000         229.000
   -582203.704 8   -453657.077 8  21932700.586    21932702.908    21932700.365
       138.000         113.000
  13801925.648 7  10754748.953 6  23431315.565    23431319.292    23431316.003
        37.000          24.000
   4288631.560 7   3341795.878 7  22732617.765    22732620.250    22732617.637
        44.000          37.000
 03  4 13  3  1 30.0000000  0 10G 9G18G23G30G21G17G 6G26G 5G29
    730813.995 6    569488.287 6  24027776.316    24027780.607    24027776.308
        28.000          11.000
 -10063972.033 8  -7842035.645 7  21727990.269    21727992.193    21727990.267
       143.000          76.000
 -11768733.864 8  -9170422.070 7  21786315.308    21786318.987    21786315.678
       129.000          97.000
   4757229.413 7   3706935.924 7  21992385.817    21992388.922    21992385.327
        85.000          73.000
  -2188109.066 7  -1705006.427 6  23475086.482    23475088.076    23475087.181
        36.000          21.000
   -419743.640 7   -327062.969 7  23056718.451    23056722.400    23056719.168
        36.000          34.000
 -11675781.675 8  -9098009.201 8  20571138.152    20571140.750    20571138.117
       277.000         235.000
   -543491.144 8   -423491.436 8  21940067.253    21940069.468    21940066.878
       137.000         113.000
  13881088.803 7  10816434.531 6  23446379.576    23446383.234    23446379.815
        35.000          22.000
   4358767.679 7   3396447.410 7  22745964.275    22745967.084    22745964.170
        46.000          40.000
 03  4 13  3  2  0.0000000  0 11G 9G18G23G30G21G17G15G 6G26G 5G29
    716574.491 6    558392.653 6  24025066.589    24025070.469    24025066.104
        26.000          10.000
 -10075648.597 8  -7851134.216 7  21725768.222    21725770.188    21725768.378
       137.000          76.000
 -11791338.606 8  -9188036.110 7  21782013.590    21782017.532    21782013.890
       131.000          99.000
   4813294.197 7   3750622.761 7  22003054.480    22003057.748    22003053.977
        87.000          77.000
  -2208925.889 7  -1721227.291 6  23471124.863    23471126.703    23471125.107
        37.000          22.000
   -428392.189 7   -333802.067 7  23055072.407    23055076.407    23055072.926
        37.000          33.000
        -1.21716        -0.25114  25086890.927    25086893.689    25086891.028
        11.000           2.000
 -11704725.109 8  -9120562.513 8  20565630.456    20565633.161    20565630.396
       283.000         240.000
   -504325.318 8   -392972.601 8  21947520.072    21947522.536    21947519.774
       131.000         113.000
  13960162.470 7  10878050.399 6  23461426.491    23461430.680    23461426.910
        32.000          23.000
   4429347.007 7   3451444.300 7  22759395.166    22759397.741    22759395.201
        47.000          40.000
 03  4 13  3  2 30.0000000  0 11G 9G18G23G30G21G17G15G 6G26G 5G29
    702211.383 6    547200.696 5  24022333.189    24022337.160    24022333.154
        27.000           9.000
 -10086922.669 8  -7859919.171 7  21723622.619    21723624.676    21723622.911
       138.000          78.000
 -11813536.277 8  -9205332.952 7  21777789.611    21777793.387    21777790.095
       134.000          99.000
   4869524.084 7   3794438.276 7  22013755.154    22013757.867    22013754.582
        87.000          74.000
  -2229886.630 7  -1737560.309 6  23467136.055    23467138.075    23467135.595
        38.000          21.000
   -437163.038 7   -340636.472 7  23053403.507    23053407.495    23053403.481
        38.000          32.000
    -23121.271 6    -18015.879 4  25082490.947    25082492.842    25082490.725
        11.000           1.000
 -11733201.623 8  -9142751.992 8  20560211.369    20560214.112    20560211.256
       276.000         237.000
   -464707.162 8   -362101.305 8  21955059.309    21955061.773    21955059.033
       131.000         113.000
  14039144.078 6  10939594.501 6  23476456.093    23476460.707    23476456.594
        30.000          24.000
   4500367.352 7   3506784.836 7  22772909.818    22772911.963    22772909.990
        44.000          37.000
 03  4 13  3  3  0.0000000  0 10G 9G18G23G30G21G17G 6G26G 5G29
    687728.780 6    535915.630 5  24019577.347    24019580.831    24019577.315
        26.000           9.000
 -10097793.035 8  -7868389.548 7  21721554.113    21721555.992    21721554.194
       137.000          77.000
 -11835325.494 8  -9222311.516 7  21773643.318    21773646.906    21773643.780
       136.000          95.000
   4925918.768 7   3838382.191 7  22024486.006    22024489.485    22024485.465
        81.000          72.000
  -2250989.077 7  -1754003.748 6  23463120.540    23463122.049    23463120.357
        38.000          20.000
   -446054.243 7   -347564.664 7  23051711.821    23051715.359    23051712.146
        39.000          32.000
 -11761207.290 8  -9164574.580 8  20554882.185    20554884.718    20554882.192
       278.000         239.000
   -424634.797 8   -330876.078 8  21962684.912    21962687.273    21962684.660
       131.000         111.000
  14118034.062 7  11001067.223 6  23491468.750    23491472.712    23491469.139
        32.000          21.000
   4571829.370 7   3562469.532 7  22786508.299    22786510.766    22786508.311
        42.000          38.000
 03  4 13  3  3 30.0000000  0 11G 9G18G23G30G21G17G15G 6G26G 5G29
    673134.275 6    524543.370 5  24016800.336    24016803.539    24016800.225
        27.000           8.000
 -10108254.634 8  -7876541.399 7  21719563.214    21719565.318    21719563.271
       136.000          77.000
 -11856701.062 8  -9238967.753 7  21769575.620    21769579.165    21769575.840
       136.000          95.000
   4982481.454 7   3882457.012 7  22035250.264    22035252.827    22035249.840
        87.000          69.000
  -2272227.654 7  -1770553.254 6  23459079.248    23459080.360    23459079.478
        39.000          19.000
   -455060.208 7   -354582.270 6  23049998.091    23050001.555    23049998.732
        39.000          31.000
        -0.93016        -0.17514  25073608.761    25073611.878    25073609.369
        10.000           3.000
 -11788734.277 8  -9186024.161 8  20549643.945    20549646.599    20549643.955
       273.000         243.000
   -384103.153 8   -299292.971 8  21970397.615    21970399.942    21970397.333
       131.000         109.000
  14196836.208 7  11062471.511 6  23506464.358    23506468.215    23506464.461
        33.000          21.000
   4643736.882 7   3618501.372 7  22800192.182    22800194.584    22800192.055
        42.000          39.000
 03  4 13  3  4  0.0000000  0 11G 9G18G23G30G21G17G15G 6G26G 5G29
    658405.159 6    513066.204 5  24013997.082    24014000.531    24013997.450
        28.000           8.000
 -10118333.373 8  -7884394.921 7  21717645.140    21717647.468    21717645.239
       135.000          80.000
 -11877688.115 8  -9255321.252 7  21765581.789    21765585.436    21765581.980
       134.000          96.000
   5039185.007 7   3926641.619 7  22046040.342    22046042.894    22046039.794
        85.000          68.000
  -2293626.721 7  -1787227.818 6  23455007.243    23455008.298    23455007.656
        40.000          19.000
   -464205.696 7   -361708.595 7  23048257.733    23048261.354    23048258.416
        40.000          32.000
    -23573.959 6    -18368.751 4  25069123.584    25069126.159    25069123.948
        10.000           3.000
 -11815805.368 8  -9207118.508 8  20544492.281    20544495.209    20544492.136
       269.000         245.000
   -343137.271 8   -267371.494 8  21978193.139    21978195.516    21978192.855
       134.000         107.000
  14275523.958 7  11123786.654 6  23521437.923    23521442.051    23521438.335
        32.000          21.000
   4716063.901 7   3674860.090 7  22813955.656    22813958.075    22813955.576
        42.000          40.000
 03  4 13  3  4 30.0000000  0 11G 9G18G23G30G21G17G15G 6G26G 5G29
    643547.702 6    501489.040 5  24011169.999    24011172.904    24011170.203
        28.000           9.000
 -10128025.689 8  -7891947.332 7  21715800.594    21715803.060    21715800.501
       131.000          78.000
 -11898282.533 8  -9271368.812 7  21761662.826    21761666.411    21761663.448
       132.000          98.000
   5096031.599 7   3970937.665 7  22056857.616    22056860.728    22056857.089
        83.000          69.000
  -2315181.617 7  -1804023.810 6  23450905.206    23450906.597    23450905.477
        42.000          20.000
   -473485.985 7   -368939.960 7  23046491.690    23046495.493    23046492.216
        41.000          33.000
    -47309.559 6    -36864.067 5  25064606.723    25064610.130    25064607.396
        11.000           4.000
 -11842414.129 8  -9227852.596 8  20539429.076    20539431.683    20539429.083
       272.000         248.000
   -301733.066 8   -235108.465 8  21986072.256    21986074.513    21986072.058
       134.000         107.000
  14354099.716 6  11185014.540 6  23536389.876    23536394.076    23536390.449
        28.000          19.000
   4788813.175 7   3731547.838 7  22827799.313    22827801.725    22827799.121
        41.000          39.000
 03  4 13  3  5  0.0000000  0 11G 9G18G23G30G21G17G15G 6G26G 5G29
    628568.501 6    489817.007 6  24008319.338    24008322.727    24008319.498
        27.000          10.000
 -10137327.788 8  -7899195.682 7  21714030.604    21714032.868    21714030.722
       132.000          78.000
 -11918480.377 8  -9287107.353 7  21757819.327    21757822.867    21757819.906
       132.000          97.000
   5153023.129 7   4015346.662 7  22067703.247    22067706.087    22067702.875
        86.000          69.000
  -2336887.900 7  -1820937.768 6  23446774.344    23446776.078    23446774.278
        43.000          20.000
   -482896.267 7   -376272.621 7  23044701.112    23044704.726    23044701.113
        42.000          33.000
    -71203.826 5    -55482.985 4  25060059.553    25060063.355    25060059.050
         9.000           3.000
 -11868554.268 8  -9248221.524 8  20534454.592    20534457.360    20534454.548
       268.000         248.000
   -259886.700 8   -202500.893 8  21994035.360    21994037.624    21994035.104
       133.000         106.000
  14432566.097 7  11246157.182 6  23551322.284    23551326.571    23551322.743
        32.000          24.000
   4861987.459 7   3788566.770 7  22841723.737    22841726.068    22841723.728
        39.000          37.000
 03  4 13  3  5 30.0000000  0 11G 9G18G23G30G21G17G15G 6G26G 5G29
    613471.023 6    478052.801 5  24005446.493    24005449.542    24005446.379
        25.000           9.000
 -10146239.545 8  -7906139.870 7  21712334.867    21712336.880    21712334.885
       134.000          78.000
 -11938280.820 8  -9302536.224 7  21754051.380    21754055.001    21754051.639
       133.000          96.000
   5210158.566 7   4059867.786 7  22078575.132    22078578.383    22078574.570
        82.000          69.000
  -2358744.067 7  -1837968.520 6  23442615.268    23442616.973    23442615.232
        41.000          20.000
   -492435.699 7   -383705.923 7  23042885.976    23042889.210    23042886.268
        44.000          32.000
    -95256.128 6    -74225.021 4  25055483.780    25055485.186    25055484.131
        10.000           2.000
 -11894222.501 8  -9268222.736 8  20529570.015    20529572.867    20529569.911
       265.000         249.000
   -217597.300 8   -169548.102 8  22002082.629    22002084.999    22002082.224
       129.000         103.000
  14510922.732 6  11307214.311 6  23566232.665    23566237.404    23566232.825
        30.000          22.000
   4935586.432 7   3845916.620 7  22855729.325    22855731.365    22855729.288
        40.000          37.000
 03  4 13  3  6  0.0000000  0 11G 9G18G23G30G21G17G15G 6G26G 5G29
    598257.168 6    466197.912 6  24002550.954    24002554.771    24002551.082
        25.000          10.000
 -10154761.660 8  -7912780.437 7  21710713.046    21710715.075    21710712.965
       133.000          78.000
 -11957684.219 8  -9317655.708 7  21750358.789    21750362.578    21750359.188
       129.000          94.000
   5267435.658 7   4104499.291 7  22089474.830    22089477.785    22089474.447
        84.000          70.000
  -2380749.698 7  -1855115.730 6  23438427.767    23438429.190    23438428.427
        40.000          19.000
   -502103.444 7   -391239.203 6  23041046.501    23041049.332    23041047.164
        43.000          29.000
   -119466.849 5    -93090.495 4  25050876.300    25050879.110    25050875.667
         9.000           1.000
 -11919416.769 8  -9287854.623 8  20524775.798    20524778.556    20524775.768
       268.000         253.000
   -174865.126 8   -136250.295 8  22010214.159    22010216.566    22010213.908
       121.000         102.000
  14589168.124 7  11368184.758 6  23581122.528    23581126.646    23581122.863
        32.000          22.000
   5009608.591 7   3903596.228 7  22869815.244    22869817.673    22869815.083
        41.000          37.000
 03  4 13  3  6 30.0000000  0 10G 9G18G23G30G21G17G 6G26G 5G29
    582950.968 6    454271.068 6  23999638.620    23999642.282    23999638.706
        26.000          10.000
 -10162872.820 8  -7919100.785 7  21709169.359    21709171.631    21709169.549
       133.000          80.000
 -11976669.013 8  -9332449.016 7  21746745.996    21746749.879    21746746.508
       128.000          96.000
   5324874.101 7   4149256.530 7  22100404.977    22100408.179    22100404.318
        84.000          72.000
  -2402882.383 7  -1872361.943 6  23434216.280    23434217.407    23434216.955
        40.000          19.000
   -511877.808 7   -398855.558 6  23039186.311    23039189.300    23039186.609
        43.000          28.000
 -11944112.980 8  -9307098.414 8  20520076.071    20520078.966    20520076.031
       263.000         250.000
   -131668.464 8   -102590.552 8  22018434.271    22018436.707    22018434.024
       117.000         103.000
  14667322.630 6  11429084.374 6  23595994.446    23595998.725    23595994.885
        28.000          21.000
   5084074.469 7   3961621.595 7  22883985.763    22883987.918    22883985.643
        43.000          35.000
 03  4 13  3  7  0.0000000  0 11G 9G18G23G30G21G17G15G 6G26G 5G29
    567513.481 6    442241.921 6  23996700.912    23996704.244    23996701.274
        25.000          10.000
 -10170615.075 8  -7925133.679 7  21707695.973    21707698.212    21707696.213
       131.000          80.000
 -11995276.763 8  -9346948.523 7  21743205.340    21743208.980    21743206.009
       129.000          94.000
   5382430.620 7   4194105.760 7  22111357.326    22111360.626    22111356.683
        82.000          69.000
  -2425183.002 7  -1889739.010 6  23429972.339    23429973.653    23429972.644
        39.000          18.000
   -521799.603 7   -406586.805 6  23037297.825    23037301.100    23037297.759
        43.000          27.000
        -0.67115         0.01914  25041576.079    25041577.508    25041575.295
         9.000           1.000
 -11968350.367 8  -9325984.685 8  20515463.887    20515466.709    20515463.804
       263.000         247.000
    -88048.794 8    -68601.196 8  22026734.723    22026737.413    22026734.574
       114.000         102.000
  14745343.521 6  11489879.890 6  23610841.753    23610845.688    23610842.288
        30.000          18.000
   5158941.431 7   4019959.496 7  22898232.335    22898234.380    22898232.165
        42.000          34.000
 03  4 13  3  7 30.0000000  0 10G 9G18G23G30G21G17G 6G26G 5G29
    551946.834 6    430112.128 6  23993739.016    23993742.299    23993739.234
        27.000          10.000
 -10177989.733 8  -7930880.131 7  21706292.737    21706294.873    21706292.901
       136.000          81.000
 -12013508.109 8  -9361154.726 7  21739736.037    21739739.405    21739736.603
       131.000          93.000
   5440102.687 7   4239045.033 7  22122332.281    22122335.196    22122331.711
        81.000          64.000
  -2447651.527 7  -1907246.927 6  23425696.624    23425698.069    23425696.128
        40.000          16.000
   -531868.661 7   -414432.805 6  23035381.544    23035384.826    23035382.010
        41.000          25.000
 -11992127.284 8  -9344512.144 8  20510939.353    20510942.074    20510939.295
       263.000         243.000
    -44006.746 8    -34282.709 8  22035115.488    22035118.286    22035115.302
       113.000         103.000
  14823229.013 6  11550569.893 6  23625662.612    23625666.684    23625663.074
        31.000          19.000
   5234207.427 7   4078608.337 7  22912554.788    22912557.044    22912554.623
        40.000          32.000
 03  4 13  3  8  0.0000000  0 11G 9G18G23G30G21G17G15G 6G26G 5G29
    536284.209 6    417907.565 6  23990758.581    23990761.640    23990758.751
        29.000          11.000
 -10184966.215 8  -7936316.311 7  21704965.183    21704967.291    21704965.219
       136.000          81.000
 -12031332.364 8  -9375043.712 7  21736343.810    21736347.419    21736344.250
       123.000          90.000
   5497919.223 7   4284096.887 7  22133334.030    22133337.412    22133333.539
        76.000          64.000
  -2470256.134 7  -1924860.885 6  23421395.092    23421396.392    23421394.734
        39.000          17.000
   -542053.403 7   -422368.947 6  23033443.773    23033446.680    23033444.515
        40.000          23.000
        -0.35015        -0.88915  25032144.171    25032148.864    25032143.347
         9.000           4.000
 -12015410.564 8  -9362654.954 8  20506508.638    20506511.314    20506508.489
       267.000         241.000
       488.269 8       388.738 8  22043582.760    22043585.257    22043582.504
       114.000         101.000
  14901008.499 6  11611177.311 6  23640463.437    23640467.830    23640463.757
        31.000          20.000
   5309902.456 7   4137591.483 7  22926959.151    22926961.542    22926958.847
        40.000          32.000
 03  4 13  3  8 30.0000000  0 11G 9G18G23G30G21G17G15G 6G26G 5G29
    520528.206 7    405630.211 6  23987760.172    23987763.718    23987760.394
        32.000          11.000
 -10191544.967 8  -7941442.580 7  21703713.185    21703715.309    21703713.107
       134.000          81.000
 -12048749.463 8  -9388615.446 7  21733029.275    21733033.013    21733029.791
       122.000          90.000
   5555878.553 7   4329259.993 7  22144363.564    22144366.859    22144363.089
        79.000          66.000
  -2492995.908 7  -1942580.166 6  23417067.833    23417069.071    23417068.395
        40.000          16.000
   -552353.154 7   -430394.705 6  23031483.604    23031486.684    23031484.339
        39.000          23.000
    -25002.608 5    -19483.174 5  25027385.995    25027390.176    25027385.594
         8.000           4.000
 -12038197.558 8  -9380411.046 8  20502172.526    20502175.085    20502172.411
       272.000         240.000
     45436.505 8     35413.342 8  22052136.201    22052138.658    22052135.887
       116.000         100.000
  14978681.230 6  11671701.514 6  23655244.191    23655248.558    23655244.747
        30.000          19.000
   5386025.200 7   4196907.915 6  22941444.881    22941447.225    22941444.972
        39.000          30.000
 03  4 13  3  9  0.0000000  0 11G 9G18G23G30G21G17G15G 6G26G 5G29
    504672.208 7    393274.961 6  23984742.866    23984746.190    23984742.828
        32.000          12.000
 -10197735.949 8  -7946266.684 7  21702535.042    21702537.208    21702535.082
       133.000          82.000
 -12065768.785 8  -9401877.220 7  21729790.881    21729794.471    21729791.398
       125.000          90.000
   5613969.512 7   4374525.682 7  22155418.034    22155420.938    22155417.581
        79.000          63.000
  -2515879.465 7  -1960411.479 6  23412713.168    23412714.379    23412714.018
        39.000          17.000
   -562776.102 7   -438516.464 6  23029500.085    23029503.363    23029500.267
        40.000          23.000
    -50162.546 5    -39088.343 4  25022598.679    25022602.656    25022597.929
         9.000           2.000
 -12060495.289 8  -9397785.898 8  20497929.406    20497932.048    20497929.314
       275.000         245.000
     90828.486 8     70783.728 7  22060773.987    22060776.409    22060773.755
       116.000          98.000
  15056236.447 6  11732134.186 6  23670002.247    23670006.266    23670002.915
        29.000          17.000
   5462565.289 7   4256549.546 6  22956009.997    22956012.121    22956009.895
        38.000          29.000
 03  4 13  3  9 30.0000000  0 11G 9G18G23G30G21G17G15G 6G26G 5G29
    488694.125 7    380824.570 6  23981702.268    23981705.589    23981702.256
        33.000          11.000
 -10203564.317 8  -7950808.235 7  21701426.043    21701428.174    21701426.164
       137.000          83.000
 -12082415.168 8  -9414848.382 7  21726623.235    21726626.830    21726623.644
       125.000          90.000
   5672165.410 7   4419873.126 7  22166492.053    22166494.847    22166491.307
        78.000          61.000
  -2538930.685 7  -1978373.435 6  23408326.643    23408327.950    23408326.981
        38.000          17.000
   -573346.473 7   -446753.100 6  23027488.702    23027491.588    23027489.122
        38.000          22.000
    -75505.019 5    -58835.724 4  25017775.991    25017779.973    25017775.195
         9.000           3.000
 -12082326.125 8  -9414796.931 8  20493775.207    20493777.698    20493775.173
       275.000         246.000
    136639.455 8    106480.595 7  22069491.484    22069493.936    22069491.176
       118.000          99.000
  15133648.263 7  11792455.081 6  23684733.738    23684737.793    23684734.268
        34.000          18.000
   5539496.546 7   4316495.994 6  22970649.462    22970651.710    22970649.534
        38.000          29.000
 03  4 13  3 10  0.0000000  0 11G 9G18G23G30G21G17G15G 6G26G 5G29
    472619.423 6    368298.890 6  23978642.954    23978646.397    23978643.212
        29.000          11.000
 -10209007.755 8  -7955049.838 7  21700390.261    21700392.358    21700390.234
       140.000          83.000
 -12098665.878 8  -9427511.238 7  21723530.580    21723534.410    21723531.067
       121.000          90.000
   5730487.379 7   4465318.823 7  22177591.002    22177593.636    22177590.597
        81.000          64.000
  -2562125.766 7  -1996447.498 6  23403912.771    23403914.192    23403912.979
        39.000          17.000
   -584041.435 7   -455086.820 6  23025453.527    23025456.219    23025453.841
        37.000          21.000
   -101007.103 5    -78707.461 4  25012922.360    25012927.324    25012921.184
         8.000           2.000
 -12103664.954 8  -9431424.577 8  20489714.482    20489717.049    20489714.339
       277.000         250.000
    182892.131 8    142521.649 8  22078293.094    22078295.611    22078292.715
       121.000         100.000
  15210938.250 6  11852681.084 6  23699441.203    23699445.012    23699441.429
        31.000          15.000
   5616840.839 7   4376764.285 6  22985367.770    22985370.028    22985367.799
        38.000          28.000
 03  4 13  3 10 30.0000000  0 11G 9G18G23G30G21G17G15G 6G26G 5G29
    456453.148 6    355701.864 5  23975566.274    23975569.803    23975566.456
        27.000           9.000
 -10214064.251 8  -7958989.928 7  21699427.966    21699430.058    21699427.851
       141.000          83.000
 -12114518.745 8  -9439864.091 7  21720513.924    21720517.571    21720514.447
       120.000          88.000
   5788935.973 7   4510863.183 7  22188713.018    22188716.279    22188712.660
        76.000          63.000
  -2585461.377 7  -2014631.069 6  23399472.284    23399473.497    23399472.367
        40.000          18.000
   -594857.423 7   -463514.842 6  23023395.008    23023397.808    23023395.386
        37.000          22.000
   -126666.356 5    -98701.682 4  25008040.553    25008043.733    25008040.490
         9.000           2.000
 -12124507.296 8  -9447665.355 8  20485748.153    20485751.000    20485748.028
       271.000         254.000
    229588.905 8    178908.755 7  22087179.285    22087181.623    22087179.037
       121.000          98.000
  15288107.882 6  11912813.274 6  23714126.003    23714129.842    23714126.438
        30.000          16.000
   5694599.230 7   4437355.246 6  23000164.633    23000166.695    23000164.672
        35.000          30.000
 03  4 13  3 11  0.0000000  0 11G 9G18G23G30G21G17G15G 6G26G 5G29
    440186.663 6    343026.745 5  23972470.454    23972474.146    23972470.378
        24.000           8.000
 -10218745.922 8  -7962637.949 7  21698536.919    21698539.121    21698537.147
       139.000          82.000
 -12129985.230 8  -9451915.866 7  21717570.944    21717574.264    21717571.377
       125.000          89.000
   5847498.023 7   4556495.934 7  22199856.905    22199859.899    22199856.536
        75.000          61.000
  -2608948.512 7  -2032932.708 6  23395002.629    23395003.946    23395002.842
        40.000          17.000
   -605804.810 7   -472045.262 6  23021311.885    23021314.788    23021312.318
        37.000          21.000
   -152494.102 6   -118827.192 4  25003126.389    25003129.099    25003126.362
        11.000           2.000
 -12144861.993 8  -9463526.145 8  20481874.874    20481877.695    20481874.864
       270.000         259.000
    276718.386 8    215633.034 7  22096147.629    22096150.052    22096147.410
       120.000          97.000
  15365144.767 7  11972842.020 6  23728785.875    23728790.095    23728786.239
        34.000          19.000
   5772759.121 7   4498259.057 6  23015037.994    23015040.052    23015037.813
        34.000          30.000
 03  4 13  3 11 30.0000000  0 11G 9G18G23G30G21G17G15G 6G26G 5G29
    423837.593 6    330287.270 5  23969359.096    23969362.737    23969359.039
        25.000           8.000
 -10223038.081 8  -7965982.455 7  21697720.085    21697722.316    21697720.159
       142.000          83.000
 -12145050.483 8  -9463654.986 7  21714704.077    21714707.321    21714704.490
       126.000          88.000
   5906186.710 7   4602227.393 7  22211025.531    22211027.969    22211025.064
        80.000          63.000
  -2632571.037 7  -2051339.849 6  23390507.258    23390508.573    23390507.437
        39.000          18.000
   -616867.466 7   -480665.496 6  23019206.682    23019209.980    23019206.987
        38.000          23.000
   -178475.230 6   -139072.194 4  24998181.549    24998184.842    24998181.327
        10.000           2.000
 -12164711.779 8  -9478993.498 8  20478097.505    20478100.376    20478097.413
       269.000         260.000
    324295.203 8    252705.890 7  22105201.292    22105203.623    22105201.006
       122.000          97.000
  15442062.763 7  12032778.125 6  23743422.901    23743426.773    23743423.105
        34.000          15.000
   5851334.317 7   4559486.480 6  23029990.058    23029992.497    23029990.047
        32.000          31.000
 03  4 13  3 12  0.0000000  0 11G 9G18G23G30G21G17G15G 6G26G 5G29
    407415.009 6    317490.508 5  23966234.313    23966237.374    23966234.071
        25.000           7.000
 -10226934.910 8  -7969018.909 7  21696978.615    21696980.689    21696978.540
       146.000          82.000
 -12159708.014 8  -9475076.402 7  21711914.531    21711918.260    21711915.058
       120.000          89.000
   5965006.737 7   4648061.180 7  22222217.897    22222221.558    22222217.306
        75.000          64.000
  -2656321.263 7  -2069846.498 6  23385987.622    23385989.168    23385987.518
        38.000          17.000
   -628038.536 7   -489370.215 6  23017081.101    23017084.188    23017081.285
        39.000          24.000
   -204603.231 6   -159431.663 4  24993209.678    24993213.216    24993210.209
        10.000           3.000
 -12184047.853 8  -9494060.564 8  20474418.030    20474420.818    20474417.898
       271.000         258.000
    372325.934 8    290132.444 7  22114341.410    22114343.584    22114341.232
       123.000          96.000
  15518867.521 7  12092626.004 6  23758038.663    23758042.121    23758038.917
        35.000          15.000
   5930329.970 7   4621041.544 7  23045022.252    23045025.048    23045022.177
        32.000          33.000
 03  4 13  3 12 30.0000000  0 12G 9G18G23G30G21G17G15G 6G26G 5G29G14
    390914.467 6    304632.997 5  23963094.842    23963097.219    23963094.446
        30.000           7.000
 -10230444.176 8  -7971753.366 7  21696310.746    21696312.880    21696310.786
       148.000          84.000
 -12173965.327 8  -9486185.969 7  21709201.358    21709205.322    21709201.852
       117.000          90.000
   6023949.226 7   4693990.378 7  22233435.076    22233437.728    22233434.591
        78.000          63.000
  -2680205.644 7  -2088457.690 6  23381442.613    23381444.119    23381442.336
        38.000          19.000
   -639324.567 7   -498164.511 6  23014933.425    23014936.444    23014933.922
        39.000          26.000
   -230885.177 5   -179911.123 4  24988207.714    24988211.639    24988208.214
         9.000           3.000
 -12202875.285 8  -9508731.283 8  20470835.510    20470838.031    20470835.461
       275.000         258.000
    420803.289 8    327907.013 7  22123566.155    22123568.415    22123565.901
       120.000          96.000
  15595550.716 6  12152379.156 6  23772630.304    23772634.421    23772630.531
        29.000          15.000
   6009737.688 6   4682917.687 7  23060133.166    23060135.725    23060133.146
        31.000          33.000
        -0.09715                  25500644.893                    25500644.471
         8.000  
 03  4 13  3 13  0.0000000  0 11G 9G18G23G30G21G17G15G 6G26G 5G29
    374330.234 6    291710.248 5  23959939.037    23959941.435    23959938.697
        31.000           7.000
 -10233574.937 8  -7974192.891 7  21695714.994    21695717.173    21695715.052
       149.000          84.000
 -12187830.932 8  -9496990.307 7  21706563.005    21706566.612    21706563.592
       120.000          88.000
   6083003.965 7   4740007.071 7  22244672.569    22244675.122    22244672.123
        75.000          59.000
  -2704231.835 7  -2107179.376 6  23376870.634    23376872.231    23376871.117
        40.000          18.000
   -650732.641 7   -507053.902 6  23012762.563    23012765.534    23012762.959
        40.000          27.000
   -257329.290 5   -200516.933 4  24983175.548    24983180.140    24983175.953
         8.000           2.000
 -12221200.329 8  -9523010.527 8  20467348.106    20467350.787    20467348.060
       275.000         258.000
    469718.631 8    366022.870 7  22132874.284    22132876.777    22132873.976
       117.000          96.000
  15672102.844 6  12212030.148 6  23787197.854    23787201.575    23787198.370
        30.000          14.000
   6089547.737 7   4745107.333 7  23075320.585    23075323.217    23075320.494
        33.000          34.000
 03  4 13  3 13 30.0000000  0 12G 9G18G23G30G21G17G15G 6G26G 5G29G14
    357649.314 7    278712.180 5  23956765.029    23956766.952    23956764.939
        32.000           8.000
 -10236343.305 8  -7976350.030 7  21695188.333    21695190.265    21695188.452
       156.000          84.000
 -12201320.722 8  -9507501.796 7  21703996.033    21703999.382    21703996.469
       122.000          86.000
   6142153.536 7   4786097.639 7  22255927.686    22255931.218    22255927.221
        70.000          61.000
  -2728414.144 7  -2126022.710 6  23372269.098    23372270.456    23372270.101
        40.000          19.000
   -662277.967 7   -516050.244 6  23010565.522    23010568.721    23010565.843
        41.000          28.000
   -283951.222 6   -221261.292 4  24978110.681    24978113.669    24978111.334
        10.000           2.000
 -12239036.331 8  -9536908.704 8  20463954.156    20463956.760    20463954.152
       273.000         259.000
    519056.166 8    404467.711 7  22142262.931    22142265.500    22142262.602
       116.000          96.000
  15748507.195 7  12271566.028 6  23801737.452    23801741.306    23801737.836
        33.000          17.000
   6169743.309 7   4807597.381 7  23090581.387    23090584.188    23090581.423
        33.000          34.000
        -0.37715                  25461803.843                    25461804.601
         8.000  
