     2.10           OBSERVATION DATA    G (GPS)             RINEX VERSION / TYPE
teqc  2002Dec5      gpsops              20030414 01:46:04UTCPGM / RUN BY / DATE
Linux 2.0.36|Pentium II|gcc -static|Linux|486/DX+           COMMENT
ASC1                                                        MARKER NAME
30602M001                                                   MARKER NUMBER
GGN                 JPL                                     OBSERVER / AGENCY
T337-U              AOA SNR-8000 ACT    3.3.32.2            REC # / TYPE / VERS
203                 AOAD/M_T                                ANT # / TYPE
  6118526.0863 -1572344.6793  -876451.1980                  APPROX POSITION XYZ
        0.0677        0.0000        0.0000                  ANTENNA: DELTA H/E/N
     1     1                                                WAVELENGTH FACT L1/2
     7    L1    L2    P1    P2    C1    S1    S2            # / TYPES OF OBSERV
    30.0000                                                 INTERVAL
                                                            COMMENT
This data is provided as a public service by NASA/JPL.      COMMENT
No warranty is expressed or implied regarding suitability   COMMENT
for use.  For further information, contact:                 COMMENT
Dave Stowers, NASA/JPL m/s 238-600                          COMMENT
4800 Oak Grove Drive, Pasadena CA 91109 USA                 COMMENT
                                                            COMMENT
    P1 =    P1  TurboRogue; =    Y1  Benchmark              COMMENT
    L1 = L1(CA)                                             COMMENT
    P2 =    P2  TurboRogue; =    Y2  Benchmark              COMMENT
    L2 = L2(P2) TurboRogue; = L2(Y2) Benchmark              COMMENT
 SNR is mapped to RINEX snr flag value [1,4-9]              COMMENT
    SNR:  >=316 >=100 >=31.6 >=10 >=3.2    >0 bad=0         COMMENT
L1 & L2:      9     8     7     6     5     4     1         COMMENT
teqc windowed: start @ 2003 Apr 13 00:00:00.000             COMMENT
teqc windowed: delta = 86399.000 sec                        COMMENT
  2003     4    13     0     0    0.0000000     GPS         TIME OF FIRST OBS
                                                            END OF HEADER
 03  4 13  0  0  0.0000000  0  9G 5G10G30G 9G29G24G26G 7G17
 -19537350.746 8 -15223908.000 8  22436369.959    22436373.632    22436370.487
       307.000         211.000
 -21286764.547 8 -16587058.782 8  22219505.011    22219509.313    22219505.561
       246.000         265.000
  -7805368.087 7  -6082107.431 6  24703358.677    24703361.835    24703358.071
        45.000          24.000
   2155970.781 7   1679969.156 7  24347556.605    24347566.334    24347556.561
        48.000          33.000
  -4903699.836 6  -3821035.509 6  25053392.301    25053401.045    25053392.179
        31.000          31.000
  -6853248.133 7  -5340138.700 6  24725289.991    24725293.758    24725289.788
        41.000          23.000
  -2150140.957 6  -1675420.406 6  25223209.242    25223221.437    25223208.965
        25.000          17.000
   4151976.871 6   3235355.195 6  26490755.519    26490764.004    26490755.525
        13.000          10.000
    -96978.108 6                  25639745.031                    25639745.302
        14.000
 03  4 13  0  0 30.0000000  0 10G 5G10G30G 9G29G24G26G21G 7G 6
 -19579052.418 8 -15256402.819 8  22428434.324    22428438.013    22428434.731
       312.000         211.000
 -21264128.171 8 -16569420.015 8  22223812.555    22223816.842    22223813.005
       248.000         265.000
  -7893624.753 7  -6150878.890 6  24686563.966    24686567.112    24686563.392
        45.000          27.000
   2198729.549 7   1713287.251 7  24355693.692    24355703.603    24355693.216
        47.000          34.000
  -4953025.398 6  -3859470.739 6  25044005.790    25044014.324    25044005.640
        31.000          31.000
  -6782057.784 7  -5284665.699 6  24738836.772    24738840.692    24738836.859
        40.000          21.000
  -2190777.825 6  -1707085.126 6  25215476.374    25215487.979    25215476.146
        27.000          17.000
          .06616                  26395468.247                    26395468.775
        13.000
   4198877.960 6   3271901.326 4  26499681.774    26499684.825    26499682.077
        17.000           2.000
         -.86415                  26765485.424                    26765485.333
         8.000
 03  4 13  0  1  0.0000000  0  8G 5G10G30G 9G29G24G26G 7
 -19620256.335 8 -15288509.776 8  22420593.430    22420597.217    22420593.814
       314.000         210.000
 -21240953.514 8 -16551361.813 8  22228222.653    22228226.679    22228223.200
       249.000         261.000
  -7981651.047 7  -6219470.827 6  24669813.064    24669816.452    24669812.608
        46.000          28.000
   2241558.592 7   1746660.124 6  24363844.032    24363854.089    24363844.280
        45.000          30.000
  -5002430.809 7  -3897968.181 7  25034604.071    25034612.644    25034603.979
        32.000          33.000
  -6710964.336 7  -5229268.205 6  24752365.583    24752369.061    24752365.803
        39.000          18.000
  -2231580.474 6  -1738879.028 6  25207711.575    25207723.395    25207711.477
        29.000          19.000
   4245964.935 6   3308592.413 5  26508642.900    26508647.570    26508643.023
        17.000           5.000
 03  4 13  0  1 30.0000000  0 10G 5G10G30G 9G29G24G26G 7G17G 6
 -19660935.528 9 -15320207.860 8  22412852.554    22412856.266    22412852.992
       317.000         210.000
 -21217216.043 8 -16532865.057 8  22232739.687    22232743.755    22232740.240
       251.000         262.000
  -8069419.291 7  -6287861.689 6  24653111.193    24653114.609    24653110.515
        45.000          30.000
   2284481.199 7   1780106.022 6  24372012.173    24372022.232    24372012.110
        45.000          31.000
  -5051888.486 7  -3936506.361 6  25025192.336    25025200.735    25025192.184
        34.000          30.000
  -6639943.910 7  -5173927.601 6  24765880.235    24765883.732    24765880.354
        38.000          17.000
  -2272522.080 6  -1770781.205 6  25199920.231    25199932.304    25199919.934
        29.000          19.000
   4293263.693 5   3345448.426 5  26517640.774    26517648.801    26517641.558
         9.000           4.000
          .10516         -.24714  25612551.485    25612563.930    25612551.868
        15.000           3.000
         -.38516         -.36614  26743637.971    26743642.067    26743637.765
        10.000           3.000
 03  4 13  0  2  0.0000000  0 11G 5G10G30G 9G29G24G26G21G 7G17G 6
 -19701108.622 8 -15351511.579 8  22405207.715    22405211.602    22405208.116
       310.000         208.000
 -21192936.458 8 -16513945.868 8  22237359.768    22237364.154    22237360.265
       249.000         266.000
  -8156946.973 7  -6356065.093 6  24636455.287    24636458.659    24636454.778
        45.000          30.000
   2327474.347 7   1813606.894 7  24380193.420    24380203.585    24380193.505
        45.000          32.000
  -5101416.096 7  -3975099.059 6  25015767.492    25015775.609    25015767.241
        36.000          31.000
  -6569018.043 7  -5118660.682 6  24779377.030    24779380.482    24779376.912
        37.000          16.000
  -2313620.809 6  -1802805.789 6  25192098.923    25192111.136    25192098.862
        28.000          18.000
         -.09516                  26371003.411                    26371003.720
        10.000
   4340755.015 6   3382454.500 5  26526679.455    26526687.632    26526679.997
        11.000           8.000
    -46950.418 6    -36584.058 6  25603616.264    25603633.994    25603616.558
        15.000          10.000
    -57671.612 6    -44938.915 4  26732663.121    26732665.685    26732663.348
        10.000           1.000
 03  4 13  0  2 30.0000000  0  9G 5G10G30G 9G29G24G26G 7G17
 -19740787.427 8 -15382430.139 8  22397656.965    22397660.896    22397657.183
       306.000         204.000
 -21168128.687 8 -16494615.106 8  22242080.772    22242084.956    22242081.292
       256.000         268.000
  -8244244.733 7  -6424089.343 6  24619843.120    24619846.485    24619842.450
        46.000          31.000
   2370522.124 7   1847150.285 6  24388385.159    24388395.900    24388384.848
        43.000          30.000
  -5151024.500 7  -4013754.713 6  25006326.980    25006335.399    25006326.774
        36.000          31.000
  -6498201.352 7  -5063478.838 6  24792852.796    24792856.224    24792852.926
        37.000          15.000
  -2354888.514 6  -1834962.035 6  25184246.236    25184257.454    25184246.074
        30.000          16.000
   4388425.932 6   3419600.475 4  26535752.268    26535756.953    26535752.185
        15.000           2.000
    -93580.979 6    -72918.766 5  25594741.323    25594758.982    25594741.488
        14.000           9.000
 03  4 13  0  3  0.0000000  0 10G 5G10G30G 9G29G24G26G21G 7G17
 -19779955.902 8 -15412951.045 8  22390203.543    22390207.268    22390203.833
       306.000         203.000
 -21142779.216 8 -16474862.245 8  22246904.557    22246908.722    22246905.070
       259.000         266.000
  -8331295.849 7  -6491921.404 7  24603277.897    24603281.255    24603277.205
        48.000          32.000
   2413636.673 7   1880745.779 7  24396589.691    24396601.056    24396589.613
        42.000          32.000
  -5200696.816 7  -4052460.170 6  24996874.452    24996882.997    24996874.177
        37.000          30.000
  -6427481.130 7  -5008372.170 6  24806310.595    24806314.082    24806310.301
        36.000          16.000
  -2396308.849 6  -1867237.218 6  25176363.570    25176375.004    25176363.234
        28.000          15.000
        -1.02616                  26354960.674                    26354961.144
        11.000
   4436291.498 6                  26544859.228                    26544860.006
        11.000
   -139876.756 6   -108992.510 5  25585931.733    25585943.355    25585932.107
        17.000           4.000
 03  4 13  0  3 30.0000000  0  9G 5G10G30G 9G29G24G26G17G 6
 -19818591.725 8 -15443056.893 8  22382851.424    22382855.224    22382851.861
       302.000         208.000
 -21116867.776 8 -16454671.486 8  22251835.243    22251839.291    22251835.800
       260.000         261.000
  -8418076.685 7  -6559542.854 6  24586763.941    24586767.552    24586763.036
        47.000          31.000
   2456836.474 7   1914407.699 6  24404810.461    24404821.703    24404810.646
        43.000          31.000
  -5250409.766 7  -4091197.302 6  24987414.301    24987422.667    24987414.052
        36.000          31.000
  -6356837.799 7  -4953325.412 6  24819753.800    24819757.485    24819753.998
        35.000          16.000
  -2437859.215 6  -1899613.733 6  25168455.939    25168467.774    25168455.903
        25.000          15.000
   -185817.446 6   -144789.751 5  25577188.920    25577205.853    25577188.989
        16.000           9.000
         -.13516          .37114  26699527.239    26699529.065    26699527.321
        10.000           3.000
 03  4 13  0  4  0.0000000  0 10G 5G10G30G 9G29G24G26G 7G17G 6
 -19856723.462 8 -15472769.944 8  22375595.081    22375599.151    22375595.498
       298.000         211.000
 -21090425.357 8 -16434066.977 8  22256867.118    22256870.989    22256867.632
       258.000         257.000
  -8504614.727 7  -6626975.120 6  24570296.200    24570299.860    24570295.360
        45.000          31.000
   2500088.681 7   1948110.464 6  24413041.671    24413052.332    24413041.763
        43.000          29.000
  -5300191.071 7  -4129987.695 6  24977940.908    24977949.337    24977940.884
        35.000          31.000
  -6286302.610 7  -4898362.917 6  24833176.227    24833179.884    24833176.361
        34.000          16.000
  -2479568.080 6  -1932113.770 6  25160519.139    25160530.513    25160518.744
        28.000          15.000
         -.88716         -.63614  26563194.832    26563200.321    26563194.948
        15.000           2.000
   -231433.194 6   -180333.853 5  25568507.629    25568525.576    25568507.895
        17.000           9.000
    -58403.764 6    -45508.892 5  26688412.670    26688415.995    26688412.289
        10.000           6.000
 03  4 13  0  4 30.0000000  0 11G 5G10G30G 9G29G24G26G21G 7G17G 6
 -19894330.987 8 -15502074.522 8  22368438.580    22368442.632    22368438.989
       299.000         214.000
 -21063434.213 8 -16413034.892 8  22262003.205    22262007.395    22262003.711
       255.000         258.000
  -8590889.038 7  -6694201.863 6  24553878.812    24553882.476    24553877.743
        44.000          31.000
   2543409.534 7   1981866.720 6  24421285.353    24421296.700    24421285.210
        42.000          29.000
  -5350019.662 7  -4168814.949 6  24968458.956    24968467.125    24968458.888
        36.000          30.000
  -6215858.468 6  -4843471.365 6  24846580.959    24846584.545    24846580.959
        31.000          17.000
  -2521415.062 6  -1964721.430 6  25152555.608    25152566.735    25152555.529
        30.000          15.000
         -.10016                  26331309.013                    26331309.813
        11.000
     48473.665 6     37771.582 4  26572419.168    26572424.109    26572419.254
        12.000           2.000
   -276705.036 6   -215609.863 5  25559892.976    25559908.471    25559893.478
        17.000           8.000
   -116979.843 5    -91152.564 5  26677265.675    26677269.814    26677265.278
         9.000           5.000
 03  4 13  1 24 30.0000000  0  4G 6G26G29G10
          .07817          .25517  22792967.160    22792970.503    22792967.340
        48.000          32.000
         -.61218         -.24617  22043495.882    22043500.470    22043495.585
       107.000          91.000
         -.29417         -.49617  21916522.211    21916525.883    21916522.104
        93.000          86.000
         -.95717         -.06317  22435506.337    22435509.720    22435506.847
        78.000          53.000
 03  4 13  1 25  0.0000000  0 12G30G24G18G23G21G17G 9G 6G26G 5G29G10
         -.49218          .24418  21087117.407    21087121.322    21087116.911
       163.000         130.000
         -.93416         -.32914  24888843.080    24888844.819    24888843.371
        14.000           1.000
        -1.20716         -.95616  23643115.224    23643122.693    23643115.216
        24.000          14.000
         -.39316         -.62816  24025845.772    24025854.663    24025845.709
        23.000          19.000
        -1.18116         -.14615  23891478.006    23891483.611    23891478.290
        17.000           8.000
         -.60316         -.66316  23136601.558    23136607.378    23136602.344
        31.000          24.000
         -.23116          .12815  23853681.370    23853688.125    23853680.587
        17.000           6.000
    -75599.339 7    -58908.367 7  22778580.864    22778584.311    22778580.753
        47.000          32.000
    -36388.302 8    -28354.204 7  22036571.607    22036575.982    22036571.400
       111.000          91.000
        -1.20018         -.21118  20804896.622    20804901.011    20804896.976
       285.000         202.000
    -22822.485 7    -17783.967 7  21912179.314    21912182.806    21912179.138
        91.000          84.000
     90380.512 7     70427.060 7  22452705.196    22452708.896    22452705.718
        76.000          55.000
 03  4 13  1 25 30.0000000  0 11G30G18G23G21G17G 9G 6G26G 5G29G10
    -17777.386 8    -13851.933 8  21083734.672    21083738.486    21083734.183
       165.000         129.000
    -87731.660 6    -68362.599 6  23626421.711    23626427.994    23626421.761
        23.000          13.000
    -92560.331 6    -72125.072 6  24008232.603    24008241.106    24008233.118
        25.000          21.000
     -8890.731 6     -6926.837 5  23889786.692    23889792.233    23889786.728
        18.000           9.000
     -3713.465 6     -2893.660 6  23135894.242    23135900.628    23135894.953
        27.000          25.000
     26982.534 6     21025.526 5  23858816.811    23858822.099    23858816.627
        20.000           9.000
   -151196.247 7   -117815.036 7  22764195.202    22764198.808    22764194.697
        47.000          32.000
    -72558.586 8    -56538.752 7  22029688.629    22029692.822    22029688.447
       116.000          92.000
     48052.044 8     37443.851 8  20814040.536    20814045.335    20814040.958
       278.000         201.000
    -45271.689 7    -35276.802 7  21907907.262    21907910.992    21907907.259
        93.000          87.000
    180940.009 7    140992.903 7  22469938.079    22469941.772    22469938.376
        73.000          55.000
 03  4 13  1 26  0.0000000  0 11G30G18G23G21G17G 9G 6G26G 5G29G10
    -35033.829 8    -27298.568 8  21080451.013    21080454.650    21080450.441
       168.000         129.000
   -175173.811 6   -136499.550 6  23609781.648    23609789.119    23609781.724
        25.000          15.000
   -184885.894 6   -144067.047 6  23990663.108    23990671.706    23990663.691
        24.000          21.000
    -17698.012 6    -13789.417 5  23888111.191    23888115.064    23888110.977
        17.000           8.000
     -7291.798 6     -5681.835 6  23135212.944    23135219.558    23135213.216
        27.000          26.000
     53752.572 6     41885.042 6  23863910.128    23863917.386    23863910.533
        23.000          14.000
   -226770.716 7   -176704.224 7  22749814.006    22749817.456    22749813.975
        47.000          33.000
   -108491.035 8    -84537.974 7  22022850.881    22022854.915    22022850.520
       119.000          92.000
     96539.039 8     75225.901 8  20823267.562    20823272.079    20823267.969
       279.000         199.000
    -67327.668 7    -52463.230 7  21903710.194    21903713.772    21903710.162
        92.000          86.000
    271692.703 7    211709.286 7  22487207.605    22487211.348    22487208.211
        71.000          53.000
 03  4 13  1 26 30.0000000  0 11G30G18G23G21G17G 9G 6G26G 5G29G10
    -51770.478 8    -40340.171 8  21077266.108    21077269.816    21077265.613
       168.000         129.000
   -262326.021 6   -204410.564 6  23593197.647    23593204.659    23593197.473
        24.000          14.000
   -276975.320 6   -215825.091 6  23973138.770    23973148.112    23973139.396
        23.000          21.000
    -26425.229 6    -20589.649 5  23886449.819    23886453.656    23886450.257
        17.000           6.000
    -10738.169 6     -8367.183 6  23134558.012    23134564.361    23134558.013
        29.000          28.000
     80308.388 6     62577.517 6  23868964.458    23868972.703    23868964.107
        28.000          22.000
   -302321.219 7   -235574.731 7  22735437.289    22735440.570    22735437.431
        47.000          34.000
   -144183.845 8   -112350.469 7  22016058.564    22016062.742    22016058.270
       121.000          93.000
    145456.840 8    113343.650 8  20832576.069    20832580.714    20832576.463
       274.000         197.000
    -88988.630 7    -69341.848 7  21899588.297    21899591.922    21899588.309
        94.000          88.000
    362635.436 7    282573.756 7  22504513.494    22504517.095    22504514.060
        69.000          51.000
 03  4 13  1 27  0.0000000  0 12G30G24G18G23G21G17G 9G 6G26G 5G29G10
    -68015.004 8    -52998.300 8  21074174.918    21074178.691    21074174.535
       168.000         130.000
         -.61116                  24923571.212                    24923571.163
        14.000
   -349213.590 6   -272115.221 6  23576663.574    23576670.327    23576663.983
        25.000          14.000
   -368854.101 6   -287419.113 6  23955655.259    23955664.345    23955655.720
        23.000          21.000
    -35101.887 6    -27350.463 5  23884799.016    23884803.295    23884799.029
        18.000           8.000
    -14081.808 6    -10972.478 6  23133921.134    23133926.925    23133921.592
        27.000          26.000
    106621.604 6     83080.802 4  23873971.047    23873978.711    23873971.296
        11.000           1.000
   -377873.255 7   -294446.426 7  22721060.092    22721063.583    22721060.081
        44.000          36.000
   -179662.173 8   -139995.833 7  22009307.133    22009311.460    22009306.736
       124.000          95.000
    194775.580 8    151773.810 8  20841961.600    20841966.009    20841961.949
       281.000         200.000
   -110279.914 7    -85932.412 7  21895536.721    21895540.262    21895536.533
        94.000          86.000
    453737.843 7    353562.650 7  22521849.596    22521853.374    22521850.246
        67.000          51.000
 03  4 13  1 27 30.0000000  0 10G30G18G23G21G17G 6G26G 5G29G10
    -83769.147 8    -65274.313 8  21071177.038    21071180.893    21071176.442
       168.000         131.000
   -435836.433 6   -339613.572 6  23560179.734    23560186.298    23560180.103
        25.000          14.000
   -460521.834 6   -358848.783 6  23938211.661    23938220.817    23938212.230
        24.000          22.000
    -43731.315 6    -34074.455 6  23883155.728    23883162.299    23883156.302
        17.000          10.000
    -17326.487 6    -13500.672 6  23133302.739    23133308.806    23133303.549
        25.000          23.000
   -453426.603 7   -353319.148 7  22706682.548    22706686.256    22706682.271
        45.000          36.000
   -214925.444 8   -167473.624 7  22002596.835    22002601.030    22002596.524
       128.000          96.000
    244491.010 8    190513.092 8  20851421.955    20851426.567    20851422.399
       275.000         200.000
   -131201.043 7   -102234.548 7  21891555.430    21891558.889    21891555.201
        95.000          85.000
    544995.319 7    424672.376 7  22539215.206    22539219.199    22539215.880
        64.000          51.000
 03  4 13  1 28  0.0000000  0 11G30G18G23G21G17G24G 6G26G 5G29G10
    -99017.925 8    -77156.543 8  21068275.358    21068279.314    21068274.806
       169.000         132.000
   -522177.318 6   -406892.128 6  23543749.190    23543755.999    23543749.505
        26.000          14.000
   -551961.067 6   -430100.374 6  23920811.308    23920820.896    23920811.949
        25.000          23.000
    -52300.363 6    -40751.434 5  23881525.709    23881529.979    23881526.123
        18.000           8.000
    -20459.079 6    -15941.526 6  23132707.198    23132713.368    23132707.677
        26.000          24.000
         -.55116         -.36514  24940743.888    24940747.073    24940744.086
        16.000           2.000
   -528963.997 7   -412179.445 7  22692308.410    22692311.762    22692307.981
        45.000          35.000
   -249956.183 8   -194770.225 7  21995930.771    21995934.743    21995930.523
       133.000          96.000
    294615.583 8    229571.176 8  20860960.282    20860964.838    20860960.717
       273.000         197.000
   -151734.643 7   -118234.716 7  21887647.981    21887651.486    21887648.020
        93.000          84.000
    636420.011 7    495912.396 7  22556612.706    22556616.854    22556613.243
        63.000          51.000
 03  4 13  1 28 30.0000000  0 12G30G 9G18G23G21G17G24G 6G26G 5G29G10
   -113754.577 8    -88639.712 8  21065471.101    21065475.176    21065470.719
       170.000         135.000
         -.39216         -.33616  23888724.673    23888732.682    23888724.944
        22.000          10.000
   -608227.107 6   -473943.746 6  23527374.879    23527381.692    23527374.815
        26.000          14.000
   -643162.547 6   -501166.629 6  23903456.191    23903465.308    23903456.632
        25.000          21.000
    -60803.667 6    -47377.211 5  23879907.433    23879910.517    23879907.998
        17.000           7.000
    -23474.241 6    -18290.871 6  23132132.947    23132140.142    23132133.422
        24.000          27.000
     44888.378 6     34977.997 4  24949285.656    24949289.063    24949285.841
        13.000           2.000
   -604476.230 7   -471020.122 7  22677938.977    22677942.275    22677938.931
        49.000          35.000
   -284744.905 8   -221878.241 7  21989310.653    21989314.519    21989310.467
       136.000          97.000
    345153.899 8    268951.670 8  20870577.590    20870582.028    20870578.051
       272.000         197.000
   -171871.351 7   -133925.610 7  21883816.080    21883819.995    21883816.177
        95.000          90.000
    728016.487 7    567286.268 7  22574042.907    22574047.014    22574043.415
        61.000          47.000
 03  4 13  1 29  0.0000000  0 12G30G 9G18G23G21G17G24G 6G26G 5G29G10
   -127926.652 8    -99682.958 8  21062774.287    21062778.368    21062773.868
       167.000         136.000
     25441.729 6     19824.500 5  23893566.415    23893574.867    23893566.250
        19.000           9.000
   -693930.921 6   -540725.517 6  23511065.610    23511072.551    23511065.955
        26.000          15.000
   -734071.763 6   -572005.043 6  23886157.675    23886166.037    23886157.952
        26.000          22.000
    -69190.382 6    -53912.116 5  23878310.832    23878315.461    23878311.760
        17.000           9.000
    -26321.608 6    -20509.484 6  23131590.537    23131597.750    23131591.176
        22.000          24.000
     89676.866 6                  24957808.737                    24957808.575
        10.000
   -679908.644 7   -529798.617 7  22663584.810    22663588.097    22663584.866
        55.000          35.000
   -319236.723 8   -248754.903 7  21982746.945    21982750.837    21982746.695
       135.000          97.000
    396156.054 8    308693.584 8  20880282.660    20880287.359    20880283.011
       268.000         195.000
   -191556.624 7   -149264.736 7  21880070.067    21880073.965    21880070.001
        95.000          91.000
    819834.584 7    638832.840 7  22591515.525    22591519.111    22591516.141
        61.000          42.000
 03  4 13  1 29 30.0000000  0 11G30G 9G18G23G21G17G 6G26G 5G29G10
   -141621.368 8   -110354.241 8  21060168.338    21060172.355    21060167.866
       168.000         137.000
     50623.956 6     39446.813 6  23898358.232    23898367.765    23898358.151
        20.000          12.000
   -779374.492 6   -607304.625 6  23494805.833    23494812.488    23494805.755
        25.000          14.000
   -824773.744 6   -642681.991 6  23868897.366    23868906.437    23868897.576
        27.000          22.000
    -77548.978 6    -60425.114 6  23876720.855    23876725.258    23876721.654
        17.000          10.000
    -29089.523 6    -22666.173 6  23131064.653    23131070.035    23131065.135
        26.000          20.000
   -755346.090 7   -588581.033 7  22649229.499    22649232.861    22649229.589
        57.000          36.000
   -353516.141 8   -275466.059 8  21976223.587    21976227.782    21976223.396
       134.000         100.000
    447532.614 8    348727.247 8  20890059.647    20890063.977    20890060.055
       271.000         195.000
   -210874.995 7   -164317.966 7  21876393.807    21876397.620    21876393.794
        95.000          90.000
    911784.407 7    710482.064 7  22609013.029    22609016.405    22609013.595
        61.000          40.000
 03  4 13  1 30  0.0000000  0 12G30G 9G18G23G21G17G24G 6G26G 5G29G10
   -154834.629 8   -120650.369 8  21057654.063    21057658.047    21057653.624
       173.000         137.000
     75549.887 6     58869.503 6  23903101.811    23903111.031    23903101.980
        18.000          10.000
   -864550.531 6   -673674.807 6  23478596.662    23478603.507    23478596.722
        26.000          15.000
   -915262.067 6   -713192.391 6  23851678.034    23851686.830    23851678.497
        28.000          22.000
    -85877.168 6    -66914.428 5  23875135.750    23875140.032    23875136.393
        17.000           9.000
    -31776.163 6    -24759.532 6  23130553.182    23130558.960    23130553.529
        25.000          22.000
         -.27316         -.21915  24974748.161    24974754.759    24974748.477
        10.000           5.000
   -830782.191 7   -647362.397 7  22634874.591    22634877.966    22634874.488
        61.000          37.000
   -387576.600 8   -302006.594 8  21969741.972    21969746.335    21969741.732
       133.000         104.000
    499285.332 8    389054.016 8  20899907.413    20899912.427    20899907.803
       262.000         196.000
   -229820.267 7   -179080.472 7  21872788.672    21872792.271    21872788.742
        96.000          87.000
   1003867.323 7    782234.990 7  22626535.731    22626539.305    22626536.539
        61.000          40.000
 03  4 13  1 30 30.0000000  0 12G30G 9G18G23G21G17G24G 6G26G 5G29G10
   -167549.070 8   -130557.814 8  21055234.685    21055238.699    21055234.256
       172.000         135.000
    100236.327 6     78105.728 6  23907799.751    23907807.863    23907799.943
        21.000          10.000
   -949440.444 6   -739822.170 6  23462442.645    23462448.588    23462442.744
        26.000          15.000
  -1005516.397 6   -783520.095 6  23834502.897    23834511.988    23834503.505
        29.000          24.000
    -94158.995 6    -73367.620 5  23873559.632    23873563.544    23873559.883
        19.000           8.000
    -34365.271 6    -26776.893 6  23130059.569    23130066.973    23130060.034
        22.000          23.000
     44256.483 6                  24983171.336                    24983171.713
        12.000
   -906197.286 7   -706127.392 7  22620523.728    22620526.808    22620523.498
        63.000          38.000
   -421398.189 8   -328360.997 8  21963306.081    21963310.188    21963305.845
       135.000         103.000
    551429.434 8    429685.757 8  20909830.499    20909835.010    20909830.951
       264.000         193.000
   -248372.590 7   -193536.780 7  21869258.280    21869261.703    21869258.188
        94.000          86.000
   1096098.222 7    854103.228 7  22644086.839    22644090.249    22644087.615
        63.000          41.000
 03  4 13  1 31  0.0000000  0 11G30G 9G18G23G21G17G 6G26G 5G29G10
   -179740.735 8   -140057.903 8  21052914.670    21052918.703    21052914.176
       173.000         135.000
    124707.178 6     97174.054 6  23912455.069    23912464.907    23912454.948
        19.000          16.000
  -1034017.299 6   -805725.450 6  23446347.383    23446353.278    23446347.496
        27.000          15.000
  -1095511.029 6   -853645.431 6  23817377.615    23817386.326    23817378.244
        29.000          24.000
   -102372.023 6    -79767.186 6  23871996.648    23872000.609    23871996.517
        18.000          10.000
    -36834.645 6    -28700.982 6  23129590.512    23129596.178    23129590.413
        26.000          21.000
   -981565.042 7   -764855.501 7  22606181.716    22606184.780    22606181.375
        67.000          42.000
   -454954.328 8   -354508.558 8  21956920.601    21956924.521    21956920.353
       135.000         102.000
    603986.635 8    470639.399 8  20919831.732    20919836.241    20919832.119
       263.000         189.000
   -266505.418 7   -207666.210 7  21865807.804    21865811.094    21865807.505
        97.000          86.000
   1188498.569 7    926103.501 7  22661670.213    22661673.524    22661670.744
        65.000          42.000
 03  4 13  1 31 30.0000000  0 12G30G 9G18G23G21G17G24G 6G26G 5G29G10
   -191439.535 8   -149173.948 8  21050688.544    21050692.536    21050688.068
       173.000         135.000
    148931.561 6    116050.225 6  23917065.997    23917074.841    23917066.285
        22.000          12.000
  -1118309.170 6   -871406.661 6  23430306.059    23430312.296    23430306.245
        27.000          16.000
  -1185273.502 6   -923589.819 6  23800295.508    23800304.449    23800296.020
        29.000          23.000
   -110547.509 6    -86137.531 6  23870440.789    23870445.687    23870439.561
        19.000          12.000
    -39216.111 6    -30556.538 6  23129137.320    23129142.457    23129137.805
        25.000          20.000
         -.28116         -.86914  24999930.102    24999933.442    24999929.903
        12.000           2.000
  -1056913.051 7   -823568.224 7  22591843.275    22591846.511    22591842.855
        66.000          43.000
   -488272.214 8   -380470.471 8  21950580.261    21950584.268    21950580.040
       134.000         102.000
    656924.627 8    511889.757 8  20929905.528    20929910.089    20929905.894
       260.000         189.000
   -284246.521 8   -221490.400 7  21862431.835    21862435.190    21862431.861
       100.000          89.000
   1281036.149 7    998210.714 7  22679279.595    22679282.896    22679280.114
        67.000          42.000
 03  4 13  1 32  0.0000000  0 12G30G 9G18G23G21G17G24G 6G26G 5G29G10
   -202642.016 8   -157903.262 8  21048556.942    21048560.872    21048556.367
       175.000         134.000
    172912.954 6    134737.150 6  23921628.625    23921637.607    23921628.589
        19.000          12.000
  -1202310.881 6   -936862.031 6  23414320.919    23414326.669    23414321.199
        27.000          15.000
  -1274797.395 6   -993347.958 6  23783259.228    23783268.227    23783259.601
        31.000          25.000
   -118683.327 6    -92476.941 6  23868892.460    23868897.304    23868892.582
        19.000          12.000
    -41507.334 6    -32341.797 6  23128700.503    23128707.048    23128700.907
        23.000          21.000
     43786.973 6     34119.022 4  25008261.845    25008266.249    25008261.565
        11.000           2.000
  -1132235.299 7   -882260.870 7  22577509.998    22577513.007    22577509.817
        66.000          43.000
   -521345.792 8   -406242.015 8  21944286.342    21944290.532    21944286.101
       131.000         102.000
    710244.627 8    553437.786 8  20940051.983    20940056.576    20940052.394
       256.000         188.000
   -301589.840 7   -235004.620 7  21859131.307    21859134.782    21859131.310
        99.000          89.000
   1373711.970 7   1070425.646 7  22696915.085    22696918.389    22696915.598
        66.000          40.000
 03  4 13  1 32 30.0000000  0 12G30G 9G18G23G21G17G24G 6G26G 5G29G10
   -213349.023 8   -166246.497 8  21046519.621    21046523.486    21046519.243
       174.000         134.000
    196650.114 6    153233.744 5  23926145.802    23926154.703    23926146.159
        18.000           7.000
  -1286019.931 6  -1002089.066 6  23398391.272    23398397.338    23398391.491
        28.000          16.000
  -1364082.090 6  -1062919.864 6  23766268.636    23766276.597    23766269.131
        30.000          23.000
   -126781.977 6    -98787.397 6  23867352.034    23867355.120    23867351.988
        20.000          10.000
    -43710.914 6    -34058.777 6  23128281.691    23128287.528    23128281.760
        26.000          22.000
     87410.882 6                  25016563.817                    25016563.675
        11.000
  -1207530.042 7   -940932.080 7  22563181.914    22563184.817    22563182.276
        68.000          42.000
   -554173.325 8   -431821.836 8  21938039.399    21938043.499    21938039.108
       130.000         100.000
    763943.499 8    595281.035 8  20950270.442    20950275.105    20950270.725
       253.000         186.000
   -318533.864 8   -248207.700 7  21855906.961    21855910.237    21855906.904
       100.000          88.000
   1466522.745 7   1142745.731 7  22714576.163    22714579.576    22714576.897
        62.000          40.000
 03  4 13  1 33  0.0000000  0 11G30G 9G18G23G21G17G 6G26G 5G29G10
   -223532.344 8   -174181.665 8  21044581.887    21044585.921    21044581.524
       174.000         136.000
    220171.102 6    171562.009 6  23930621.884    23930629.966    23930621.857
        20.000          11.000
  -1369406.253 6  -1067064.539 6  23382522.135    23382528.057    23382522.344
        29.000          18.000
  -1453096.493 6  -1132281.051 6  23749329.185    23749337.197    23749329.268
        31.000          23.000
   -134816.332 6   -105047.775 6  23865821.909    23865826.991    23865822.153
        18.000          12.000
    -45800.269 6    -35686.738 6  23127884.494    23127889.278    23127885.475
        27.000          20.000
  -1282766.503 7   -999557.882 7  22548864.731    22548867.830    22548864.771
        67.000          41.000
   -586723.894 8   -457185.845 8  21931845.380    21931849.268    21931845.172
       131.000         101.000
    818047.418 8    637439.911 8  20960566.197    20960570.813    20960566.627
       251.000         184.000
   -335047.834 8   -261075.681 7  21852764.557    21852767.797    21852764.300
       103.000          90.000
   1559494.257 7   1215191.067 7  22732268.063    22732271.682    22732268.572
        61.000          40.000
 03  4 13  1 33 30.0000000  0 11G30G 9G18G23G21G17G 6G26G 5G29G10
   -233216.575 8   -181727.956 8  21042739.010    21042743.218    21042738.483
       173.000         136.000
    243451.367 6    189702.700 5  23935051.264    23935059.367    23935051.220
        15.000           7.000
  -1452492.152 6  -1131805.964 6  23366710.961    23366716.957    23366710.976
        28.000          18.000
  -1541862.942 6  -1201449.000 6  23732436.694    23732445.364    23732436.860
        30.000          24.000
   -142812.547 6   -111278.419 6  23864300.184    23864305.095    23864300.884
        20.000          13.000
    -47801.477 6    -37246.020 6  23127503.039    23127508.180    23127503.870
        24.000          18.000
  -1357966.735 7  -1058155.461 7  22534554.545    22534557.687    22534553.993
        67.000          40.000
   -619019.285 8   -482351.014 8  21925699.720    21925703.579    21925699.547
       131.000         101.000
    872529.422 8    679893.398 8  20970933.758    20970938.370    20970934.226
       249.000         182.000
   -351153.989 8   -273625.876 7  21849699.448    21849702.925    21849699.666
       103.000          91.000
   1652599.409 7   1287740.534 7  22749985.452    22749989.116    22749985.735
        60.000          39.000
 03  4 13  1 34  0.0000000  0 12G 9G18G23G30G21G17G24G 6G26G 5G29G10
    266511.974 6    207672.383 6  23939438.901    23939448.570    23939438.569
        18.000          14.000
  -1535254.068 6  -1196295.171 6  23350961.772    23350966.859    23350961.702
        29.000          17.000
  -1630357.674 6  -1270405.298 6  23715596.426    23715604.946    23715597.084
        31.000          25.000
   -242380.095 8   -188868.479 8  21040995.333    21040999.455    21040994.811
       171.000         134.000
   -150750.170 6   -117463.412 6  23862790.448    23862793.818    23862791.174
        20.000          11.000
    -49694.436 6    -38720.946 6  23127142.905    23127147.758    23127143.667
        25.000          17.000
         -.54716                  25041306.259                    25041305.984
        14.000
  -1433106.543 7  -1116705.963 7  22520256.126    22520258.995    22520255.906
        67.000          39.000
   -651035.349 8   -507298.527 7  21919607.052    21919611.061    21919606.742
       125.000          99.000
    927408.968 8    722656.657 8  20981377.104    20981381.618    20981377.512
       246.000         180.000
   -366828.226 8   -285839.511 7  21846716.683    21846720.116    21846716.427
       104.000          90.000
   1745857.547 7   1360409.212 7  22767731.910    22767735.364    22767732.234
        57.000          36.000
 03  4 13  1 34 30.0000000  0 11G 9G18G23G30G21G17G 6G26G 5G29G10
    289328.600 6    225451.787 6  23943781.550    23943789.932    23943780.989
        23.000          15.000
  -1617713.614 6  -1260548.789 6  23335269.707    23335275.204    23335269.943
        31.000          19.000
  -1718601.995 6  -1339166.394 6  23698803.450    23698811.753    23698803.936
        31.000          25.000
   -251046.846 8   -195621.876 8  21039346.197    21039350.283    21039345.741
       171.000         135.000
   -158654.475 6   -123622.464 6  23861285.796    23861289.990    23861286.822
        19.000          12.000
    -51504.635 6    -40131.403 6  23126798.395    23126803.296    23126799.065
        27.000          18.000
  -1508207.564 7  -1175226.237 7  22505964.871    22505967.706    22505965.287
        66.000          40.000
   -682793.265 8   -532044.891 8  21913563.590    21913567.535    21913563.372
       122.000         100.000
    982659.972 8    765709.368 8  20991890.866    20991895.554    20991891.220
       242.000         179.000
   -382092.085 8   -297733.380 7  21843812.150    21843815.351    21843812.096
       107.000          90.000
   1839242.359 7   1433176.603 7  22785502.271    22785505.638    22785502.979
        55.000          34.000
 03  4 13  1 35  0.0000000  0 11G 9G18G23G30G21G17G 6G26G 5G29G10
    311903.901 6    243042.944 6  23948076.874    23948085.726    23948076.582
        21.000          12.000
  -1699865.535 6  -1324562.897 6  23319636.161    23319642.012    23319636.038
        30.000          18.000
  -1806590.380 7  -1407727.962 6  23682059.199    23682067.068    23682060.095
        32.000          26.000
   -259213.936 8   -201985.938 8  21037792.195    21037796.231    21037791.833
       175.000         138.000
   -166523.889 6   -129754.305 6  23859788.243    23859792.065    23859788.712
        20.000          11.000
    -53230.610 6    -41476.217 6  23126469.473    23126474.948    23126469.752
        25.000          17.000
  -1583264.127 7  -1233711.866 7  22491681.971    22491685.004    22491682.053
        65.000          41.000
   -714287.314 8   -556585.645 8  21907570.474    21907574.426    21907570.181
       118.000         101.000
   1038283.236 8    809052.146 8  21002475.622    21002480.254    21002475.983
       240.000         177.000
   -396940.007 8   -309303.136 7  21840986.486    21840989.892    21840986.635
       106.000          91.000
   1932754.579 7   1506043.271 7  22803296.928    22803300.450    22803297.576
        53.000          33.000
 03  4 13  1 35 30.0000000  0 12G 9G18G23G30G21G17G24G 6G26G 5G29G10
    334268.800 6    260470.180 5  23952332.961    23952342.053    23952333.153
        17.000           8.000
  -1781676.012 7  -1388310.938 6  23304068.233    23304073.465    23304068.175
        33.000          20.000
  -1894290.305 6  -1476064.901 6  23665369.680    23665377.343    23665370.495
        30.000          25.000
   -266850.799 8   -207936.827 8  21036339.017    21036343.064    21036338.604
       174.000         137.000
   -174329.034 6   -135836.083 6  23858303.003    23858305.947    23858303.505
        21.000          10.000
    -54842.862 6    -42732.428 6  23126163.204    23126167.855    23126163.597
        26.000          16.000
        -1.05716                  25065794.947                    25065794.812
        10.000
  -1658242.913 7  -1292136.891 7  22477413.908    22477417.058    22477413.751
        66.000          42.000
   -745484.149 8   -580894.797 8  21901633.830    21901637.693    21901633.552
       116.000         101.000
   1094307.113 8    852707.095 8  21013136.806    21013141.306    21013137.258
       245.000         177.000
   -411339.146 8   -320523.192 7  21838246.432    21838249.889    21838246.198
       105.000          92.000
   2026422.509 7   1579031.269 7  22821121.499    22821124.951    22821121.965
        54.000          34.000
 03  4 13  1 36  0.0000000  0 11G 9G18G23G30G21G17G 6G26G 5G29G10
    356393.871 6    277710.702 6  23956543.381    23956552.131    23956543.296
        24.000          18.000
  -1863172.702 7  -1451814.546 6  23288559.608    23288564.484    23288559.574
        33.000          18.000
  -1981728.327 6  -1544197.633 6  23648730.197    23648738.065    23648730.520
        31.000          24.000
   -273986.780 8   -213497.333 8  21034981.041    21034985.295    21034980.541
       171.000         138.000
   -182100.630 6   -141891.743 6  23856823.869    23856826.810    23856823.927
        20.000          10.000
    -56372.453 6    -43924.212 6  23125871.734    23125876.718    23125871.843
        28.000          17.000
  -1733170.708 7  -1350522.196 7  22463155.823    22463158.749    22463155.568
        68.000          42.000
   -776410.784 8   -604993.405 8  21895748.607    21895752.387    21895748.273
       115.000         100.000
   1150699.714 8    896649.360 8  21023868.012    21023872.441    21023868.376
       244.000         175.000
   -425316.664 8   -331414.726 7  21835586.647    21835589.891    21835586.779
       107.000          91.000
   2120214.276 7   1652115.762 7  22838969.714    22838973.029    22838970.164
        56.000          34.000
 03  4 13  1 36 30.0000000  0 12G 9G18G23G30G21G17G24G 6G26G 5G29G10
    378280.897 6    294765.576 6  23960708.281    23960716.150    23960707.876
        20.000          11.000
  -1944350.945 7  -1515069.898 6  23273111.410    23273116.605    23273111.240
        34.000          20.000
  -2068900.175 6  -1612123.092 6  23632141.362    23632148.827    23632141.767
        31.000          26.000
   -280619.665 8   -218665.714 8  21033718.736    21033723.015    21033718.274
       172.000         142.000
   -189837.645 6   -147920.425 6  23855351.224    23855354.606    23855350.867
        21.000          10.000
    -57818.515 6    -45050.919 6  23125596.185    23125601.536    23125596.181
        25.000          17.000
         -.09716                  25081986.593                    25081986.297
        11.000
  -1808042.482 7  -1408863.841 7  22448908.347    22448911.204    22448908.380
        69.000          43.000
   -807061.976 8   -628877.391 8  21889915.744    21889919.648    21889915.403
       114.000         100.000
   1207461.249 8    940879.108 8  21034669.420    21034673.823    21034669.759
       244.000         174.000
   -438867.633 8   -341973.876 7  21833007.999    21833011.149    21833008.018
       110.000          91.000
   2214129.715 7   1725296.625 7  22856841.253    22856844.681    22856841.819
        54.000          36.000
 03  4 13  1 37  0.0000000  0 11G 9G18G23G30G21G17G 6G26G 5G29G10
    399945.361 6    311647.006 6  23964831.036    23964839.516    23964831.256
        19.000          10.000
  -2025193.116 7  -1578063.503 6  23257727.373    23257733.299    23257727.615
        34.000          21.000
  -2155788.005 7  -1679827.448 6  23615607.190    23615614.521    23615607.416
        33.000          26.000
   -286734.434 8   -223430.393 8  21032555.146    21032559.171    21032554.689
       174.000         142.000
   -197525.835 6   -153911.078 6  23853888.220    23853891.401    23853888.055
        23.000          10.000
    -59166.970 6    -46101.581 6  23125339.488    23125344.849    23125339.390
        26.000          17.000
  -1882840.092 7  -1467147.689 7  22434674.648    22434677.658    22434674.737
        67.000          44.000
   -837419.627 8   -652532.639 8  21884138.797    21884142.828    21884138.520
       114.000         102.000
   1264604.942 8    985406.640 8  21045543.458    21045548.089    21045543.819
       241.000         174.000
   -451974.312 8   -352186.837 7  21830513.928    21830517.039    21830513.868
       113.000          91.000
   2308182.344 7   1798584.390 7  22874738.809    22874742.284    22874739.301
        53.000          36.000
 03  4 13  1 37 30.0000000  0 11G 9G18G23G30G21G17G 6G26G 5G29G10
    421357.144 6    328331.630 6  23968905.582    23968913.634    23968905.127
        22.000          13.000
  -2105727.809 7  -1640817.689 6  23242401.765    23242407.593    23242401.910
        33.000          20.000
  -2242420.049 7  -1747332.610 6  23599121.162    23599128.547    23599121.598
        32.000          27.000
   -292361.850 8   -227815.361 8  21031484.237    21031488.273    21031483.840
       175.000         140.000
   -205197.292 6   -159888.712 5  23852427.854    23852430.795    23852427.968
        21.000           9.000
    -60449.936 6    -47101.200 6  23125095.531    23125100.397    23125095.474
        26.000          17.000
  -1957591.714 7  -1525395.704 7  22420449.766    22420452.968    22420449.366
        68.000          46.000
   -867511.674 8   -675980.921 8  21878412.513    21878416.564    21878412.266
       118.000         107.000
   1322097.846 8   1030206.285 8  21056483.941    21056488.598    21056484.366
       236.000         172.000
   -464665.021 8   -362075.669 7  21828098.872    21828101.968    21828098.955
       111.000          90.000
   2402339.472 7   1871953.578 7  22892656.189    22892659.677    22892656.845
        52.000          35.000
 03  4 13  1 38  0.0000000  0 12G 9G18G23G30G21G17G24G 6G26G 5G29G10
    442534.240 6    344833.395 6  23972935.007    23972942.830    23972934.671
        19.000          10.000
  -2185934.103 7  -1703316.110 6  23227139.010    23227144.222    23227138.983
        33.000          19.000
  -2328775.107 6  -1814622.009 6  23582687.879    23582695.342    23582688.361
        31.000          26.000
   -297483.181 8   -231805.912 8  21030509.547    21030513.721    21030508.989
       175.000         142.000
   -212834.328 6   -165839.529 5  23850974.406    23850977.582    23850974.342
        20.000           8.000
    -61650.515 6    -48036.620 6  23124866.663    23124871.925    23124866.374
        23.000          16.000
        -1.19915                  25106069.702                    25106069.962
         9.000
  -2032275.866 7  -1583591.149 7  22406237.809    22406240.999    22406237.583
        69.000          45.000
   -897316.803 8   -699205.629 8  21872740.885    21872744.858    21872740.744
       122.000         110.000
   1379956.390 8   1075290.842 8  21067494.151    21067498.507    21067494.556
       239.000         168.000
   -476918.617 8   -371623.889 7  21825767.027    21825770.159    21825766.851
       109.000          91.000
   2496617.342 7   1945416.852 7  22910596.854    22910600.293    22910597.335
        54.000          36.000
 03  4 13  1 38 30.0000000  0 11G 9G18G23G30G21G17G 6G26G 5G29G10
    463471.831 6    361148.577 6  23976918.712    23976927.791    23976918.640
        19.000          15.000
  -2265814.134 7  -1765560.118 6  23211938.542    23211943.576    23211938.555
        35.000          20.000
  -2414855.545 7  -1881697.287 6  23566306.980    23566314.522    23566307.418
        33.000          28.000
   -302103.738 8   -235406.256 8  21029630.115    21029634.445    21029629.606
       175.000         144.000
   -220443.393 6   -171768.527 5  23849526.674    23849530.054    23849526.790
        20.000           9.000
    -62774.866 6    -48912.649 6  23124652.552    23124658.138    23124652.637
        23.000          17.000
  -2106894.984 7  -1641735.908 7  22392038.499    22392041.392    22392038.731
        72.000          44.000
   -926837.349 8   -722208.583 8  21867123.243    21867127.218    21867122.943
       125.000         110.000
   1438173.229 8   1120654.596 8  21078572.727    21078576.886    21078573.087
       243.000         167.000
   -488737.814 8   -380833.613 7  21823517.841    21823521.076    21823517.650
       108.000          93.000
   2591008.378 7   2018968.309 7  22928559.059    22928562.463    22928559.638
        56.000          36.000
 03  4 13  1 39  0.0000000  0 11G 9G18G23G30G21G17G 6G26G 5G29G10
    484141.835 6    377255.210 6  23980852.824    23980861.063    23980852.889
        22.000          16.000
  -2345393.894 7  -1827570.092 6  23196794.977    23196800.027    23196794.732
        36.000          21.000
  -2500687.330 7  -1948578.851 6  23549974.065    23549980.748    23549974.784
        34.000          28.000
   -306252.036 8   -238638.631 8  21028840.794    21028845.046    21028840.434
       174.000         143.000
   -228053.848 6   -177698.634 5  23848078.540    23848080.876    23848079.343
        19.000           7.000
    -63852.252 6    -49752.084 6  23124447.562    23124453.101    23124448.050
        24.000          18.000
  -2181474.466 7  -1699849.779 7  22377846.472    22377849.364    22377846.492
        75.000          43.000
   -956098.761 8   -745009.615 8  21861554.877    21861558.872    21861554.494
       127.000         110.000
   1496718.007 8   1166273.885 8  21089713.117    21089717.726    21089713.527
       233.000         169.000
   -500148.534 8   -389725.046 7  21821346.297    21821349.775    21821346.263
       108.000          95.000
   2685482.326 7   2092584.376 7  22946536.934    22946540.285    22946537.495
        56.000          35.000
 03  4 13  1 39 30.0000000  0 11G 9G18G23G30G21G17G 6G26G 5G29G10
    504571.127 6    393174.320 6  23984740.126    23984748.060    23984740.119
        20.000          14.000
  -2424644.602 7  -1889323.653 6  23181713.855    23181718.645    23181714.005
        39.000          23.000
  -2586241.582 7  -2015244.245 6  23533693.230    23533700.477    23533693.512
        35.000          29.000
   -309901.427 8   -241482.259 8  21028146.325    21028150.430    21028145.780
       176.000         141.000
   -235640.279 6   -183610.000 5  23846634.209    23846637.042    23846634.692
        20.000           8.000
    -64857.786 6    -50535.518 6  23124255.972    23124261.547    23124256.482
        23.000          17.000
  -2255984.923 7  -1757909.875 7  22363667.528    22363670.405    22363667.104
        76.000          43.000
   -985071.716 8   -767585.878 8  21856041.504    21856045.324    21856041.348
       132.000         109.000
   1555615.161 8   1212167.748 8  21100920.987    21100925.627    21100921.326
       230.000         170.000
   -511121.658 8   -398275.499 7  21819258.299    21819261.676    21819258.171
       109.000          96.000
   2780063.609 7   2166284.080 6  22964535.011    22964538.469    22964535.361
        54.000          31.000
 03  4 13  1 40  0.0000000  0 12G 9G18G23G30G21G17G24G 6G26G 5G29G10
    524736.706 6    408887.841 6  23988576.738    23988585.462    23988576.554
        16.000          13.000
  -2503586.768 7  -1950836.806 6  23166691.526    23166696.532    23166691.560
        38.000          22.000
  -2671538.716 7  -2081709.469 6  23517461.444    23517469.400    23517461.653
        34.000          30.000
   -313074.863 8   -243955.020 8  21027542.374    21027546.324    21027541.781
       179.000         140.000
   -243226.454 6   -189521.162 5  23845191.841    23845193.562    23845192.680
        22.000           8.000
    -65815.571 6    -51281.762 6  23124073.938    23124079.395    23124074.766
        23.000          18.000
        -1.10415         -.38614  25137777.231    25137782.445    25137777.013
         8.000           2.000
  -2330446.352 7  -1815931.767 7  22349498.001    22349500.766    22349498.008
        75.000          45.000
  -1013776.186 8   -789952.931 8  21850579.258    21850582.919    21850579.030
       136.000         108.000
   1614839.753 8   1258316.760 8  21112191.097    21112195.637    21112191.493
       227.000         166.000
   -521677.683 8   -406500.934 7  21817249.386    21817252.911    21817249.422
       106.000          98.000
   2874727.260 7   2240047.969 6  22982548.845    22982552.251    22982549.470
        54.000          28.000
 03  4 13  1 40 30.0000000  0 12G 9G18G23G30G21G17G24G 6G26G 5G29G10
    544617.913 6    424379.688 6  23992359.684    23992369.379    23992359.310
        15.000          13.000
  -2582238.577 7  -2012123.670 6  23151724.118    23151729.356    23151724.328
        37.000          23.000
  -2756596.412 7  -2147988.113 6  23501276.007    23501282.893    23501276.218
        37.000          30.000
   -315793.032 8   -246072.954 8  21027024.920    21027028.941    21027024.438
       176.000         138.000
   -250834.105 6   -195449.091 5  23843743.453    23843746.258    23843744.161
        20.000           8.000
    -66746.725 6    -52007.253 6  23123897.044    23123902.260    23123897.823
        25.000          18.000
     41236.813 5                  25145625.431                    25145625.829
         9.000
  -2404876.502 7  -1873929.271 7  22335334.417    22335337.337    22335334.528
        75.000          50.000
  -1042230.064 8   -812124.720 8  21845164.633    21845168.344    21845164.361
       140.000         110.000
   1674369.072 8   1304703.222 8  21123519.118    21123523.595    21123519.553
       226.000         164.000
   -531834.773 8   -414415.505 7  21815316.500    21815320.049    21815316.221
       105.000          98.000
   2969450.603 7   2313858.378 6  23000574.110    23000577.334    23000574.572
        55.000          27.000
 03  4 13  1 41  0.0000000  0 11G 9G18G23G30G21G17G 6G26G 5G29G10
    564273.465 6    439695.740 6  23996099.781    23996109.447    23996099.898
        15.000          14.000
  -2660539.528 7  -2073137.183 6  23136823.410    23136828.907    23136823.545
        37.000          23.000
  -2841354.007 7  -2214032.862 6  23485146.705    23485153.875    23485147.170
        36.000          27.000
   -317998.248 8   -247791.380 8  21026605.311    21026609.454    21026604.892
       174.000         139.000
   -258406.288 6   -201349.340 5  23842301.764    23842304.429    23842302.214
        20.000           8.000
    -67594.703 6    -52667.925 6  23123735.481    23123740.412    23123736.334
        25.000          17.000
  -2479214.096 7  -1931854.653 7  22321188.244    22321191.519    22321188.071
        76.000          55.000
  -1070372.402 8   -834053.750 8  21839809.322    21839813.105    21839809.076
       141.000         113.000
   1734259.108 8   1351370.769 8  21134916.137    21134920.257    21134916.499
       227.000         162.000
   -541532.330 8   -421972.007 7  21813471.308    21813474.627    21813471.334
       110.000          97.000
   3064289.878 7   2387759.124 6  23018621.300    23018624.546    23018621.806
        55.000          25.000
 03  4 13  1 41 30.0000000  0 11G 9G18G23G30G21G17G 6G26G 5G29G10
    583714.784 6    454844.919 6  23999799.379    23999808.881    23999799.532
        17.000          14.000
  -2738476.408 7  -2133867.095 6  23121992.796    23121997.857    23121992.800
        37.000          22.000
  -2925797.902 7  -2279833.033 6  23469077.341    23469084.234    23469077.903
        37.000          30.000
   -319679.533 8   -249101.531 8  21026285.467    21026289.721    21026285.000
       176.000         142.000
   -265933.044 6   -207214.228 5  23840869.936    23840871.564    23840870.524
        22.000           7.000
    -68350.626 6    -53256.880 6  23123591.634    23123596.458    23123592.626
        23.000          17.000
  -2553445.417 7  -1989697.229 7  22307062.349    22307065.899    22307062.050
        76.000          59.000
  -1098189.497 8   -855729.343 8  21834515.571    21834519.496    21834515.259
       138.000         114.000
   1794518.564 8   1398326.172 8  21146382.694    21146387.313    21146383.029
       214.000         162.000
   -550756.924 8   -429159.963 7  21811715.909    21811719.176    21811715.634
       112.000          99.000
   3159253.783 7   2461756.982 6  23036692.281    23036695.451    23036692.660
        53.000          26.000
 03  4 13  1 42  0.0000000  0 12G 9G18G23G30G21G17G24G 6G26G 5G29G10
    602936.632 6    469823.056 6  24003458.033    24003466.545    24003457.603
        20.000          14.000
  -2816051.947 7  -2194315.468 6  23107230.689    23107235.502    23107230.859
        38.000          23.000
  -3009931.240 7  -2345391.289 6  23453067.499    23453074.177    23453067.948
        38.000          29.000
   -320842.093 8   -250007.467 8  21026064.250    21026068.538    21026063.693
       174.000         137.000
   -273420.794 6   -213048.701 5  23839443.816    23839446.626    23839443.918
        20.000           6.000
    -69020.342 6    -53778.664 6  23123464.244    23123468.994    23123465.142
        24.000          17.000
         -.84215         -.85014  25169033.065    25169036.677    25169033.230
         9.000           3.000
  -2627572.694 7  -2047458.727 7  22292956.579    22292959.847    22292956.489
        81.000          62.000
  -1125683.656 8   -877153.299 8  21829283.536    21829287.319    21829283.238
       140.000         113.000
   1855140.252 8   1445563.830 8  21157918.662    21157923.390    21157918.948
       211.000         162.000
   -559511.514 8   -435981.686 8  21810049.834    21810053.246    21810050.007
       111.000         100.000
   3254335.290 7   2535846.475 6  23054785.511    23054789.186    23054786.266
        49.000          27.000
 03  4 13  1 42 30.0000000  0 12G 9G18G23G30G21G17G24G 6G26G 5G29G10
    621878.267 6    484582.912 6  24007062.577    24007070.516    24007062.670
        18.000          12.000
  -2893325.102 7  -2254528.335 6  23092526.002    23092531.075    23092525.993
        37.000          23.000
  -3093812.308 7  -2410752.898 7  23437105.445    23437111.973    23437105.872
        41.000          32.000
   -321546.992 8   -250556.589 8  21025930.228    21025934.133    21025929.859
       181.000         140.000
   -280931.376 6   -218900.977 5  23838015.639    23838017.802    23838016.163
        20.000           7.000
    -69665.964 6    -54281.667 6  23123341.105    23123346.308    23123341.664
        25.000          17.000
     40713.372 5                  25176780.187                    25176780.064
         7.000
  -2701654.157 7  -2105184.525 7  22278859.380    22278862.525    22278859.581
        84.000          63.000
  -1152913.245 8   -898371.101 8  21824102.071    21824105.692    21824101.899
       144.000         113.000
   1916060.872 8   1493034.421 8  21169511.351    21169516.083    21169511.647
       208.000         159.000
   -567854.882 8   -442482.975 8  21808462.126    21808465.507    21808461.988
       110.000         100.000
   3349471.182 7   2609978.340 6  23072889.264    23072892.945    23072890.090
        46.000          28.000
 03  4 13  1 43  0.0000000  0 11G 9G18G23G30G21G17G 6G26G 5G29G10
    640556.535 6    499137.507 6  24010616.019    24010625.483    24010615.691
        15.000          11.000
  -2970275.984 7  -2314489.979 6  23077882.904    23077887.900    23077882.808
        38.000          23.000
  -3177421.920 7  -2475903.006 6  23421194.773    23421200.909    23421195.162
        41.000          30.000
   -321777.898 8   -250736.400 8  21025886.229    21025890.107    21025885.780
       178.000         136.000
   -288449.171 6   -224758.874 5  23836584.304    23836587.485    23836584.371
        19.000           8.000
    -70272.085 6    -54753.898 6  23123225.921    23123229.987    23123226.855
        26.000          16.000
  -2775669.986 7  -2162859.187 7  22264774.432    22264777.788    22264774.306
        84.000          63.000
  -1179858.537 8   -919367.373 8  21818974.667    21818978.415    21818974.425
       148.000         117.000
   1977295.036 8   1540749.333 8  21181164.100    21181168.434    21181164.493
       212.000         156.000
   -575767.736 8   -448648.790 7  21806956.599    21806959.514    21806956.433
       114.000          97.000
   3444676.260 7   2684164.112 6  23091006.217    23091009.888    23091006.795
        45.000          25.000
 03  4 13  1 43 30.0000000  0 12G 9G18G23G30G21G17G24G 6G26G 5G29G10
    658993.600 6    513504.181 6  24014124.731    24014133.559    24014125.159
        20.000          16.000
  -3046881.344 7  -2374182.428 6  23063305.198    23063310.192    23063305.076
        39.000          24.000
  -3260736.131 7  -2540822.950 7  23405340.641    23405346.915    23405341.041
        42.000          32.000
   -321513.409 8   -250530.142 8  21025936.187    21025940.319    21025935.717
       177.000         139.000
   -295953.634 6   -230606.376 5  23835155.934    23835159.977    23835156.365
        20.000           8.000
    -70818.404 6    -55179.530 6  23123121.678    23123126.271    23123122.327
        25.000          15.000
          .08215                  25192192.259                    25192191.580
         8.000
  -2849595.690 7  -2220463.630 7  22250706.713    22250710.269    22250706.411
        81.000          62.000
  -1206495.473 8   -940123.370 8  21813905.742    21813909.519    21813905.437
       150.000         119.000
   2038862.059 8   1588723.622 8  21192880.072    21192884.654    21192880.400
       211.000         162.000
   -583226.252 8   -454460.593 7  21805537.093    21805540.043    21805537.168
       113.000          94.000
   3539970.002 7   2758418.975 6  23109140.068    23109143.425    23109140.589
        44.000          25.000
 03  4 13  1 44  0.0000000  0 11G 9G18G23G30G21G17G 6G26G 5G29G10
    677200.814 6    527691.710 6  24017589.775    24017598.003    24017589.228
        20.000          14.000
  -3123127.382 7  -2433594.935 6  23048795.943    23048800.749    23048795.939
        39.000          23.000
  -3343741.139 7  -2605502.061 6  23389544.949    23389551.231    23389545.342
        41.000          31.000
   -320742.571 8   -249929.400 8  21026082.785    21026086.851    21026082.362
       175.000         137.000
   -303434.350 6   -236435.391 5  23833732.103    23833735.232    23833731.064
        20.000           7.000
    -71294.408 6    -55550.358 6  23123031.001    23123035.561    23123031.851
        25.000          15.000
  -2923416.798 7  -2277986.568 7  22236659.102    22236662.659    22236659.503
        81.000          62.000
  -1232809.714 8   -960627.918 8  21808898.160    21808901.998    21808897.914
       150.000         121.000
   2100771.340 8   1636964.593 8  21204660.842    21204665.619    21204661.285
       209.000         160.000
   -590216.690 8   -459907.654 7  21804206.676    21804209.729    21804206.385
       110.000          94.000
   3635361.729 7   2832750.197 6  23127292.548    23127295.789    23127293.228
        44.000          24.000
 03  4 13  1 44 30.0000000  0 11G 9G18G23G30G21G17G 6G26G 5G29G10
    695123.584 6    541657.577 6  24021000.040    24021008.860    24020999.528
        18.000          16.000
  -3199066.757 7  -2492768.480 6  23034345.563    23034350.183    23034345.442
        40.000          24.000
  -3426489.494 7  -2669981.201 6  23373798.677    23373804.475    23373799.077
        40.000          30.000
   -319520.695 8   -248977.240 8  21026315.358    21026319.261    21026314.880
       177.000         136.000
   -310947.473 6   -242289.661 5  23832302.252    23832305.158    23832302.526
        20.000           8.000
    -71756.800 6    -55910.594 6  23122942.887    23122947.451    23122943.053
        25.000          15.000
  -2997185.505 7  -2335468.667 7  22222621.397    22222624.805    22222621.838
        80.000          61.000
  -1258853.624 8   -980921.816 8  21803942.168    21803945.869    21803941.903
       148.000         121.000
   2162965.585 8   1685427.622 8  21216496.041    21216500.454    21216496.451
       202.000         152.000
   -596791.806 8   -465031.082 7  21802955.635    21802958.533    21802955.823
       109.000          96.000
   3730794.460 7   2907113.363 6  23145452.840    23145456.210    23145453.295
        43.000          24.000
 03  4 13  1 45  0.0000000  0 11G 9G18G23G30G21G17G 6G26G 5G29G10
    712768.675 6    555407.024 6  24024357.658    24024366.814    24024357.373
        17.000          14.000
  -3274690.881 7  -2551696.405 6  23019954.863    23019959.395    23019955.023
        42.000          25.000
  -3508972.475 7  -2734253.662 7  23358102.647    23358108.512    23358103.029
        42.000          32.000
   -317841.463 8   -247668.595 8  21026634.825    21026638.695    21026634.224
       179.000         137.000
   -318487.530 6   -248164.916 5  23830867.966    23830871.088    23830867.758
        20.000           9.000
    -72200.398 6    -56256.190 6  23122858.491    23122863.012    23122858.894
        26.000          16.000
  -3070892.562 7  -2392902.732 7  22208595.211    22208598.649    22208594.945
        81.000          59.000
  -1284618.086 8  -1000997.961 8  21799039.335    21799042.801    21799039.134
       146.000         120.000
   2225448.922 8   1734115.912 8  21228385.822    21228390.968    21228386.190
       196.000         157.000
   -602943.002 8   -469824.182 7  21801784.932    21801787.910    21801784.483
       110.000          95.000
   3826272.482 7   2981511.826 6  23163621.810    23163625.127    23163622.370
        43.000          25.000
 03  4 13  1 45 30.0000000  0 11G 9G18G23G30G21G17G 6G26G 5G29G10
    730214.387 6    569001.180 6  24027677.634    24027686.318    24027677.976
        17.000          16.000
  -3349919.699 7  -2610316.284 6  23005639.216    23005643.662    23005639.155
        41.000          24.000
  -3591109.633 7  -2798256.604 7  23342472.222    23342478.473    23342472.701
        41.000          32.000
   -315627.801 8   -245943.567 8  21027056.084    21027059.929    21027055.509
       180.000         136.000
   -325978.054 6   -254001.575 5  23829442.463    23829445.405    23829442.202
        20.000           9.000
    -72548.621 6    -56527.463 6  23122792.177    23122796.646    23122792.460
        27.000          14.000
  -3144457.304 7  -2450225.920 7  22194596.271    22194599.689    22194595.829
        84.000          58.000
  -1310022.652 8  -1020793.668 8  21794204.921    21794208.397    21794204.640
       144.000         119.000
   2288296.888 8   1783088.323 8  21240345.807    21240350.668    21240346.306
       199.000         156.000
   -608590.174 8   -474224.540 7  21800710.237    21800713.085    21800710.176
       109.000          94.000
   3921871.497 7   3056004.563 6  23181813.889    23181817.121    23181814.737
        43.000          25.000
 03  4 13  1 46  0.0000000  0 11G 9G18G23G30G21G17G 6G26G 5G29G10
    747420.492 6    582408.603 6  24030951.382    24030959.957    24030951.393
        18.000          14.000
  -3424791.388 7  -2668657.817 6  22991391.439    22991395.882    22991391.508
        41.000          24.000
  -3672939.250 7  -2862019.911 7  23326900.656    23326906.798    23326901.075
        42.000          33.000
   -312920.356 8   -243833.756 8  21027571.116    21027574.944    21027570.774
       180.000         139.000
   -333460.340 6   -259831.821 6  23828018.111    23828022.128    23828018.007
        20.000          10.000
    -72842.924 6    -56756.705 6  23122736.162    23122740.529    23122736.503
        27.000          15.000
  -3217917.299 7  -2507467.484 7  22180617.502    22180620.760    22180617.620
        83.000          57.000
  -1335105.167 8  -1040338.427 8  21789431.708    21789435.334    21789431.334
       141.000         119.000
   2351466.801 8   1832311.610 8  21252366.640    21252371.171    21252366.932
       199.000         151.000
   -613771.778 8   -478262.122 7  21799724.223    21799727.124    21799723.999
       107.000          94.000
   4017549.084 7   3130558.532 6  23200020.864    23200024.056    23200021.555
        42.000          25.000
 03  4 13  1 46 30.0000000  0 11G 9G18G23G30G21G17G 6G26G 5G29G10
    764374.634 6    595619.685 6  24034177.279    24034186.357    24034177.430
        16.000          12.000
  -3499316.693 7  -2726729.504 6  22977209.510    22977214.665    22977209.622
        40.000          24.000
  -3754471.601 7  -2925551.657 7  23311385.829    23311391.460    23311386.388
        43.000          32.000
   -309732.183 8   -241349.373 8  21028177.442    21028181.502    21028176.789
       175.000         138.000
   -340947.978 6   -265666.235 6  23826593.809    23826597.456    23826594.478
        22.000          11.000
    -73096.922 6    -56954.556 6  23122687.551    23122691.869    23122687.571
        26.000          15.000
  -3291282.063 7  -2564634.833 7  22166656.747    22166660.131    22166656.770
        82.000          59.000
  -1359875.635 8  -1059640.032 8  21784718.094    21784721.623    21784717.887
       142.000         119.000
   2414944.000 8   1881774.334 8  21264445.809    21264450.870    21264446.211
       193.000         155.000
   -618498.240 8   -481945.038 7  21798824.570    21798827.770    21798824.387
       104.000          96.000
   4113290.768 7   3205162.443 6  23218239.810    23218242.963    23218240.500
        42.000          25.000
 03  4 13  1 47  0.0000000  0 11G 9G18G23G30G21G17G 6G26G 5G29G10
    781055.285 6    608617.626 6  24037352.173    24037360.339    24037352.310
        19.000          14.000
  -3573514.954 7  -2784546.266 6  22963090.201    22963095.116    22963090.499
        43.000          26.000
  -3835726.079 7  -2988866.857 7  23295923.454    23295929.185    23295923.950
        44.000          34.000
   -306085.462 8   -238507.584 8  21028871.392    21028875.300    21028870.822
       175.000         135.000
   -348464.058 6   -271522.829 6  23825164.041    23825166.720    23825164.724
        23.000          12.000
    -73334.287 6    -57139.450 6  23122642.694    23122646.969    23122642.724
        28.000          16.000
  -3364570.678 7  -2621742.845 7  22152710.253    22152713.614    22152709.873
        81.000          61.000
  -1384353.222 8  -1078713.417 8  21780060.147    21780063.579    21780059.864
       144.000         120.000
   2478704.056 8   1931457.462 8  21276578.883    21276584.161    21276579.325
       190.000         156.000
   -622789.268 8   -485288.662 7  21798008.234    21798011.014    21798008.286
       107.000          94.000
   4209072.413 7   3279797.494 6  23236466.283    23236469.635    23236466.747
        40.000          24.000
 03  4 13  1 47 30.0000000  0 11G 9G18G23G30G21G17G 6G26G 5G29G10
    797521.156 6    621448.239 6  24040485.922    24040493.689    24040485.916
        19.000          13.000
  -3647325.902 7  -2842061.337 6  22949044.840    22949049.016    22949044.871
        44.000          26.000
  -3916642.120 7  -3051918.340 7  23280525.636    23280531.525    23280526.185
        45.000          35.000
   -301922.337 8   -235263.326 8  21029663.690    21029667.228    21029663.326
       180.000         135.000
   -355951.332 6   -277356.974 6  23823739.342    23823742.391    23823739.923
        25.000          13.000
    -73497.873 6    -57266.838 6  23122611.677    23122615.776    23122611.619
        29.000          16.000
  -3437721.642 7  -2678743.603 7  22138790.158    22138793.400    22138789.878
        84.000          63.000
  -1408476.812 8  -1097510.958 8  21775469.492    21775472.986    21775469.219
       142.000         118.000
   2542802.996 8   1981404.658 8  21288776.460    21288781.257    21288776.863
       186.000         147.000
   -626584.248 8   -488245.755 7  21797286.003    21797288.954    21797285.589
       110.000          96.000
   4304950.509 7   3354507.702 6  23254711.357    23254714.788    23254711.837
        38.000          25.000
 03  4 13  1 48  0.0000000  0 11G 9G18G23G30G21G17G 6G26G 5G29G10
    813774.943 6    634113.574 6  24043577.928    24043586.935    24043577.620
        17.000          14.000
  -3720744.975 7  -2899271.052 6  22935073.342    22935077.706    22935073.357
        43.000          25.000
  -3997214.940 7  -3114702.390 7  23265193.494    23265199.002    23265193.929
        44.000          33.000
   -297240.802 8   -231614.983 8  21030554.232    21030557.725    21030553.786
       183.000         136.000
   -363408.475 6   -283167.646 6  23822320.069    23822322.976    23822321.081
        26.000          14.000
    -73586.374 6    -57335.732 6  23122594.475    23122598.785    23122594.555
        28.000          17.000
  -3510729.578 7  -2735632.899 7  22124897.403    22124900.588    22124897.561
        91.000          65.000
  -1432241.511 8  -1116028.847 8  21770947.049    21770950.715    21770946.792
       142.000         119.000
   2607240.883 8   2031615.973 8  21301038.779    21301043.652    21301039.190
       186.000         148.000
   -629878.880 8   -490812.957 7  21796658.856    21796662.163    21796658.883
       110.000          99.000
   4400925.435 7   3429293.360 6  23272974.682    23272978.269    23272975.402
        37.000          24.000
 03  4 13  1 48 30.0000000  0 11G 9G18G23G30G21G17G 6G26G 5G29G10
    829772.401 6    646579.166 6  24046622.064    24046630.587    24046621.827
        17.000          13.000
  -3793814.448 7  -2956208.362 6  22921168.629    22921173.425    22921168.783
        43.000          26.000
  -4077486.565 7  -3177251.700 7  23249918.072    23249923.418    23249918.427
        47.000          34.000
   -292085.891 8   -227597.671 8  21031534.756    21031538.145    21031534.207
       186.000         141.000
   -370880.944 6   -288990.249 6  23820897.741    23820900.661    23820898.136
        25.000          14.000
    -73645.415 6    -57381.668 6  23122583.198    23122587.632    23122582.980
        26.000          18.000
  -3583636.121 7  -2792443.187 7  22111023.860    22111027.012    22111023.809
        97.000          66.000
  -1455689.319 8  -1134299.808 8  21766485.114    21766488.790    21766484.862
       143.000         122.000
   2671970.938 8   2082054.949 8  21313356.358    21313361.698    21313356.747
       182.000         152.000
   -632715.488 8   -493023.266 7  21796119.328    21796122.249    21796119.235
       112.000          98.000
   4496950.686 7   3504118.230 6  23291247.490    23291251.145    23291248.111
        36.000          25.000
 03  4 13  1 49  0.0000000  0 11G 9G18G23G30G21G17G 6G26G 5G29G10
    845510.135 6    658842.426 6  24049617.155    24049625.574    24049617.218
        19.000          16.000
  -3866536.415 7  -3012874.904 6  22907330.467    22907334.949    22907330.570
        43.000          26.000
  -4157459.049 7  -3239567.955 7  23234699.938    23234705.527    23234700.526
        47.000          35.000
   -286463.004 8   -223215.948 8  21032604.542    21032607.831    21032604.020
       188.000         144.000
   -378373.893 6   -294828.809 6  23819472.150    23819475.170    23819472.859
        24.000          15.000
    -73680.577 6    -57409.003 6  23122576.364    23122581.258    23122576.563
        27.000          17.000
  -3656442.491 8  -2849175.426 7  22097169.241    22097172.327    22097169.030
       103.000          67.000
  -1478821.642 8  -1152324.934 8  21762083.235    21762086.714    21762083.037
       143.000         121.000
   2736986.800 8   2132716.628 8  21325728.405    21325733.480    21325728.800
       177.000         146.000
   -635096.255 8   -494878.367 7  21795666.207    21795669.177    21795666.200
       114.000          98.000
   4593019.852 7   3578977.318 6  23309528.936    23309532.441    23309529.538
        35.000          26.000
 03  4 13  1 49 30.0000000  0 11G 9G18G23G30G21G17G 6G26G 5G29G10
    860988.730 6    670903.677 6  24052562.814    24052571.322    24052562.924
        18.000          14.000
  -3938908.322 7  -3069268.687 6  22893558.471    22893563.170    22893558.468
        45.000          28.000
  -4237129.434 7  -3301648.774 7  23219538.999    23219545.129    23219539.518
        47.000          35.000
   -280371.956 8   -218469.586 8  21033763.509    21033766.912    21033763.064
       178.000         135.000
   -385887.867 6   -300683.774 6  23818041.623    23818045.173    23818041.353
        24.000          15.000
    -73692.334 6    -57418.094 6  23122574.307    23122578.925    23122574.004
        28.000          18.000
  -3729145.186 8  -2905826.876 7  22083334.374    22083337.334    22083334.324
       100.000          65.000
  -1501635.375 8  -1170101.811 8  21757741.854    21757745.289    21757741.560
       141.000         121.000
   2802286.700 8   2183599.645 8  21338154.661    21338159.734    21338155.065
       177.000         146.000
   -637018.465 8   -496376.153 7  21795300.336    21795303.363    21795300.366
       118.000          98.000
   4689131.845 7   3653869.776 6  23327818.427    23327821.969    23327819.070
        35.000          27.000
 03  4 13  1 50  0.0000000  0 11G 9G18G23G30G21G17G 6G26G 5G29G10
    876220.162 6    682772.365 6  24055461.103    24055469.566    24055461.756
        18.000          13.000
  -4010916.237 7  -3125378.870 6  22879855.866    22879860.468    22879855.915
        44.000          27.000
  -4316484.064 7  -3363483.600 7  23204438.428    23204444.362    23204438.755
        47.000          37.000
   -273801.660 8   -213349.846 8  21035013.796    21035017.195    21035013.283
       182.000         142.000
   -393412.309 6   -306546.876 6  23816609.804    23816613.121    23816610.286
        23.000          14.000
    -73670.188 6    -57400.766 6  23122578.340    23122583.064    23122578.160
        27.000          18.000
  -3801729.632 7  -2962386.176 7  22069521.827    22069525.070    22069521.642
        97.000          67.000
  -1524116.530 8  -1187619.538 8  21753463.782    21753467.182    21753463.513
       143.000         120.000
   2867879.959 8   2234711.247 8  21350636.818    21350642.055    21350637.320
       179.000         150.000
   -638468.732 8   -497506.193 7  21795024.409    21795027.344    21795024.287
       121.000          99.000
   4785295.876 7   3728802.784 6  23346117.863    23346121.481    23346118.450
        35.000          27.000
 03  4 13  1 50 30.0000000  0 11G 9G18G23G30G21G17G 6G26G 5G29G10
    891194.079 6    694440.411 6  24058310.870    24058319.063    24058311.296
        18.000          12.000
  -4082569.002 7  -3181212.276 6  22866220.997    22866225.499    22866220.891
        45.000          28.000
  -4395531.399 7  -3425078.997 7  23189396.571    23189401.774    23189397.197
        48.000          36.000
   -266763.450 8   -207865.527 8  21036353.130    21036356.587    21036352.648
       179.000         139.000
   -400959.173 6   -312427.468 6  23815173.227    23815176.924    23815173.267
        23.000          14.000
    -73626.564 6    -57366.700 6  23122586.714    23122591.084    23122586.563
        29.000          18.000
  -3874203.809 7  -3018859.551 7  22055730.434    22055733.765    22055730.224
        96.000          67.000
  -1546273.357 8  -1204884.544 8  21749247.429    21749250.770    21749247.210
       144.000         118.000
   2933753.390 8   2286041.168 8  21363172.300    21363177.218    21363172.761
       182.000         146.000
   -639455.941 8   -498275.403 7  21794836.540    21794839.543    21794836.513
       120.000          99.000
   4881499.115 7   3803766.346 6  23364424.665    23364428.465    23364425.343
        36.000          27.000
 03  4 13  1 51  0.0000000  0 11G 9G18G23G30G21G17G 6G26G 5G29G10
    905924.773 6    705918.948 6  24061112.833    24061122.288    24061112.587
        17.000          12.000
  -4153850.804 7  -3236756.601 6  22852656.292    22852660.905    22852656.122
        43.000          26.000
  -4474255.512 7  -3486422.520 7  23174415.444    23174421.307    23174415.979
        48.000          36.000
   -259244.328 8   -202006.569 8  21037784.045    21037787.497    21037783.638
       180.000         143.000
   -408515.691 6   -318315.568 6  23813735.515    23813739.117    23813735.721
        23.000          14.000
    -73548.887 6    -57306.099 6  23122601.268    23122605.999    23122601.319
        28.000          18.000
  -3946550.720 8  -3075233.755 7  22041963.397    22041966.623    22041963.318
       100.000          68.000
  -1568089.515 8  -1221884.099 8  21745095.770    21745099.288    21745095.449
       142.000         117.000
   2999918.529 8   2337598.401 8  21375762.788    21375767.990    21375763.179
       173.000         143.000
   -639964.123 8   -498671.354 7  21794739.618    21794742.745    21794739.338
       116.000          97.000
   4977753.328 7   3878769.630 6  23382741.391    23382745.071    23382741.860
        38.000          27.000
 03  4 13  1 51 30.0000000  0 11G 9G18G23G30G21G17G 6G26G 5G29G10
    920395.664 6    717195.049 6  24063866.546    24063875.450    24063867.091
        16.000          12.000
  -4224776.626 7  -3292023.476 6  22839159.787    22839164.551    22839159.680
        48.000          29.000
  -4552671.257 7  -3547525.780 7  23159493.257    23159499.367    23159493.707
        48.000          39.000
   -251261.883 8   -195786.609 8  21039303.199    21039306.594    21039302.731
       176.000         136.000
   -416100.247 6   -324225.527 6  23812292.222    23812295.362    23812292.524
        23.000          14.000
    -73455.420 6    -57233.200 6  23122618.863    23122623.738    23122618.998
        27.000          19.000
  -4018784.731 8  -3131519.987 7  22028217.812    22028220.842    22028217.798
       106.000          71.000
  -1589579.657 8  -1238629.610 8  21741006.279    21741009.705    21741006.004
       142.000         117.000
   3066355.875 8   2389367.731 8  21388405.321    21388410.748    21388405.766
       172.000         144.000
   -640008.693 8   -498706.047 7  21794731.289    21794734.207    21794731.252
       121.000          94.000
   5074039.418 7   3953797.753 6  23401063.877    23401067.664    23401064.581
        37.000          24.000
 03  4 13  1 52  0.0000000  0 11G 9G18G23G30G21G17G 6G26G 5G29G10
    934615.010 6    728275.132 6  24066572.904    24066581.200    24066572.985
        17.000          13.000
  -4295337.047 7  -3347005.657 6  22825732.461    22825737.577    22825732.476
        47.000          28.000
  -4630768.789 7  -3608381.134 7  23144632.214    23144638.063    23144632.861
        49.000          39.000
   -242809.233 8   -189200.312 8  21040911.708    21040915.351    21040911.180
       171.000         138.000
   -423705.679 6   -330151.765 6  23810845.195    23810847.891    23810845.553
        23.000          13.000
    -73339.218 6    -57142.589 6  23122641.072    23122645.707    23122640.950
        27.000          19.000
  -4090895.214 8  -3187709.963 7  22014495.443    22014498.671    22014495.308
       105.000          73.000
  -1610733.489 8  -1255113.066 8  21736980.792    21736984.190    21736980.416
       143.000         118.000
   3133070.779 8   2441353.343 8  21401101.149    21401105.920    21401101.660
       179.000         136.000
   -639579.991 8   -498371.957 7  21794812.905    21794815.753    21794812.750
       126.000          95.000
   5170363.368 7   4028855.380 6  23419393.812    23419397.611    23419394.448
        38.000          23.000
 03  4 13  1 52 30.0000000  0 11G 9G18G23G30G21G17G 6G26G 5G29G10
    948580.586 6    739157.522 6  24069230.726    24069238.907    24069230.571
        21.000          12.000
  -4365532.223 7  -3401703.163 6  22812374.642    22812379.608    22812374.895
        48.000          28.000
  -4708548.051 7  -3668988.457 7  23129831.373    23129837.500    23129831.785
        49.000          38.000
   -233889.523 8   -182250.150 8  21042609.115    21042612.995    21042608.640
       172.000         144.000
   -431335.564 6   -336097.052 6  23809392.667    23809395.753    23809393.370
        21.000          12.000
    -73204.520 6    -57037.552 6  23122666.536    23122671.601    23122666.791
        27.000          20.000
  -4162881.474 8  -3243803.142 7  22000796.763    22000800.236    22000796.437
       102.000          74.000
  -1631550.899 8  -1271334.378 8  21733019.428    21733022.842    21733019.084
       147.000         123.000
   3200058.471 8   2493551.528 8  21413848.518    21413852.985    21413848.889
       180.000         132.000
   -638678.499 8   -497669.464 7  21794984.296    21794987.319    21794984.054
       123.000          95.000
   5266720.742 7   4103939.054 6  23437730.148    23437733.809    23437730.572
        38.000          22.000
 03  4 13  1 53  0.0000000  0 11G 9G18G23G30G21G17G 6G26G 5G29G10
    962300.836 6    749848.769 6  24071841.012    24071848.859    24071840.908
        18.000          11.000
  -4435352.487 7  -3456108.564 6  22799088.574    22799093.100    22799088.703
        50.000          28.000
  -4785999.055 7  -3729339.996 7  23115092.933    23115099.123    23115093.428
        50.000          40.000
   -224494.871 8   -174929.720 8  21044397.083    21044400.845    21044396.622
       169.000         136.000
   -438983.134 6   -342056.136 6  23807937.561    23807940.190    23807937.895
        21.000          11.000
    -73044.133 6    -56912.504 6  23122697.046    23122702.088    23122696.742
        26.000          20.000
  -4234732.494 8  -3299790.938 7  21987124.031    21987127.452    21987124.063
       103.000          74.000
  -1652021.519 8  -1287285.459 8  21729124.110    21729127.541    21729123.939
       147.000         125.000
   3267324.603 8   2545966.678 8  21426648.919    21426653.749    21426649.291
       180.000         137.000
   -637294.369 8   -496590.885 7  21795247.774    21795250.655    21795247.869
       123.000          94.000
   5363117.252 7   4179053.227 6  23456073.812    23456077.355    23456074.218
        38.000          20.000
 03  4 13  1 53 30.0000000  0 11G 9G18G23G30G21G17G 6G26G 5G29G10
    975760.871 6    760337.241 6  24074401.680    24074410.407    24074401.518
        15.000          10.000
  -4504811.235 7  -3510232.266 6  22785870.860    22785875.825    22785870.863
        50.000          28.000
  -4863135.071 7  -3789446.094 7  23100414.625    23100420.645    23100415.233
        49.000          39.000
   -214641.852 8   -167252.047 8  21046272.147    21046275.877    21046271.622
       176.000         143.000
   -446664.856 6   -348041.826 6  23806475.900    23806478.186    23806476.107
        22.000          11.000
    -72874.701 6    -56780.410 6  23122729.018    23122734.167    23122729.021
        25.000          20.000
  -4306460.902 8  -3355683.192 7  21973474.621    21973477.905    21973474.603
       104.000          73.000
  -1672158.395 8  -1302976.482 8  21725292.066    21725295.629    21725291.780
       152.000         128.000
   3334851.457 8   2598584.983 8  21439498.831    21439503.894    21439499.206
       179.000         137.000
   -635441.173 8   -495146.806 7  21795600.297    21795603.210    21795600.473
       122.000          91.000
   5459535.850 7   4254184.610 6  23474421.556    23474425.020    23474422.288
        37.000          19.000
 03  4 13  1 54  0.0000000  0 11G 9G18G23G30G21G17G 6G26G 5G29G10
    988947.946 6    770613.038 6  24076911.386    24076920.052    24076911.188
        17.000          12.000
  -4573919.729 7  -3564083.012 6  22772719.944    22772724.844    22772720.012
        50.000          27.000
  -4939967.299 7  -3849315.437 7  23085793.756    23085800.119    23085794.136
        50.000          41.000
   -204344.153 8   -159227.637 8  21048231.484    21048235.170    21048230.975
       178.000         145.000
   -454395.020 6   -354065.258 6  23805004.648    23805007.317    23805005.238
        21.000          11.000
    -72711.330 6    -56653.039 6  23122760.417    23122765.150    23122760.112
        26.000          20.000
  -4378076.991 8  -3411487.926 7  21959846.378    21959849.792    21959846.162
       104.000          74.000
  -1691972.311 8  -1318415.850 8  21721521.619    21721525.027    21721521.368
       154.000         126.000
   3402623.090 8   2651394.026 8  21452395.396    21452400.088    21452395.815
       178.000         131.000
   -633130.600 8   -493346.330 7  21796039.953    21796042.867    21796039.926
       124.000          90.000
   5555961.135 7   4329321.201 6  23492770.625    23492774.196    23492771.250
        36.000          19.000
 03  4 13  1 54 30.0000000  0 11G 9G18G23G30G21G17G 6G26G 5G29G10
   1001916.674 6    780718.689 6  24079378.676    24079387.454    24079378.036
        19.000          12.000
  -4642621.948 7  -3617617.156 6  22759646.679    22759651.027    22759646.808
        54.000          30.000
  -5016439.141 7  -3908903.884 7  23071241.950    23071248.288    23071242.733
        52.000          44.000
   -193549.212 8   -150815.852 8  21050285.709    21050289.232    21050285.349
       177.000         140.000
   -462120.430 6   -360084.987 6  23803534.219    23803536.655    23803534.120
        21.000          10.000
    -72500.567 6    -56488.734 6  23122800.276    23122805.302    23122800.176
        27.000          20.000
  -4449523.572 8  -3467160.585 7  21946250.447    21946254.030    21946250.180
       103.000          73.000
  -1711406.733 8  -1333559.507 8  21717823.337    21717826.573    21717823.079
       152.000         124.000
   3470691.300 8   2704434.169 8  21465348.394    21465353.183    21465348.820
       177.000         130.000
   -630306.591 8   -491145.775 7  21796577.524    21796580.224    21796577.514
       124.000          89.000
   5652445.091 7   4404503.504 6  23511130.762    23511134.530    23511131.304
        34.000          19.000
 03  4 13  1 55  0.0000000  0 11G 9G18G23G30G21G17G 6G26G 5G29G10
   1014656.899 6    790646.290 6  24081803.618    24081811.680    24081803.508
        19.000          12.000
  -4710926.765 7  -3670841.763 6  22746648.356    22746653.312    22746648.407
        50.000          27.000
  -5092559.463 7  -3968218.519 7  23056756.713    23056763.349    23056757.119
        51.000          43.000
   -182267.940 8   -142025.020 8  21052432.039    21052435.869    21052431.424
       183.000         150.000
   -469852.601 6   -366109.990 6  23802062.867    23802064.865    23802062.564
        21.000          10.000
    -72254.431 6    -56296.873 6  23122847.081    23122851.810    23122847.030
        27.000          20.000
  -4520808.429 8  -3522707.222 7  21932685.473    21932688.862    21932685.450
       107.000          75.000
  -1730469.770 8  -1348413.776 8  21714195.655    21714198.930    21714195.351
       154.000         126.000
   3539043.225 8   2757695.386 8  21478355.596    21478360.180    21478356.008
       184.000         129.000
   -626978.027 8   -488552.062 7  21797210.636    21797213.553    21797210.563
       122.000          88.000
   5748975.384 7   4479721.913 6  23529499.815    23529503.439    23529500.268
        32.000          18.000
 03  4 13  1 55 30.0000000  0 11G 9G18G23G30G21G17G 6G26G 5G29G10
   1027166.883 6    800394.512 6  24084184.174    24084191.531    24084184.479
        20.000          10.000
  -4778834.396 7  -3723756.740 6  22733726.091    22733730.994    22733726.096
        52.000          30.000
  -5168328.196 7  -4027259.046 7  23042338.136    23042344.852    23042338.578
        52.000          44.000
   -170503.823 8   -132858.021 8  21054670.678    21054674.227    21054670.319
       177.000         141.000
   -477594.963 6   -372142.923 6  23800589.292    23800591.729    23800588.809
        21.000          11.000
    -71976.228 6    -56080.031 6  23122899.913    23122904.658    23122900.342
        27.000          21.000
  -4591930.678 8  -3578127.154 7  21919151.442    21919154.714    21919151.292
       110.000          76.000
  -1749161.514 8  -1362978.722 8  21710638.850    21710642.094    21710638.547
       157.000         128.000
   3607674.080 8   2811173.958 8  21491415.424    21491419.838    21491415.804
       178.000         122.000
   -623145.561 8   -485565.698 7  21797939.903    21797943.004    21797939.829
       122.000          89.000
   5845547.937 6   4554973.256 6  23547876.959    23547880.526    23547877.265
        31.000          17.000
 03  4 13  1 56  0.0000000  0 11G 9G18G23G30G21G17G 6G26G 5G29G10
   1039427.082 6    809948.115 5  24086517.153    24086524.572    24086516.988
        19.000           9.000
  -4846363.040 7  -3776376.466 6  22720875.891    22720880.547    22720876.130
        52.000          30.000
  -5243763.773 7  -4086040.041 7  23027983.687    23027989.951    23027984.157
        53.000          44.000
   -158277.604 8   -123330.851 8  21056997.120    21057000.586    21056996.539
       184.000         150.000
   -485368.649 6   -378200.271 6  23799110.293    23799112.573    23799109.867
        21.000          11.000
    -71687.089 6    -55854.669 6  23122955.074    23122959.864    23122955.197
        27.000          22.000
  -4662907.410 8  -3633433.703 7  21905644.953    21905648.357    21905644.809
       109.000          78.000
  -1767499.625 8  -1377268.111 8  21707149.038    21707152.397    21707148.743
       157.000         131.000
   3676561.472 8   2864852.429 8  21504523.930    21504528.754    21504524.418
       171.000         121.000
   -618827.638 8   -482201.052 7  21798761.714    21798764.660    21798761.735
       122.000          90.000
   5942140.312 6   4630240.045 6  23566257.821    23566261.428    23566258.208
        31.000          16.000
 03  4 13  1 56 30.0000000  0 11G 9G18G23G30G21G17G 6G26G 5G29G10
   1051453.606 6    819319.618 6  24088805.094    24088813.871    24088804.944
        19.000          11.000
  -4913495.452 7  -3828687.406 6  22708100.837    22708105.209    22708100.885
        53.000          31.000
  -5318848.120 7  -4144547.339 7  23013695.403    23013702.057    23013695.685
        53.000          43.000
   -145574.939 8   -113432.530 8  21059414.331    21059417.748    21059413.840
       183.000         145.000
   -493159.022 6   -384270.632 6  23797627.795    23797630.191    23797627.680
        23.000          11.000
    -71372.590 6    -55609.549 6  23123015.064    23123019.270    23123014.927
        27.000          21.000
  -4733720.014 8  -3688612.358 7  21892169.700    21892173.287    21892169.873
       107.000          81.000
  -1785466.120 8  -1391267.933 8  21703730.066    21703733.413    21703729.759
       156.000         129.000
   3745718.663 8   2918741.127 8  21517684.703    21517689.333    21517685.198
       180.000         124.000
   -614006.759 8   -478444.496 7  21799679.171    21799681.831    21799679.108
       122.000          87.000
   6038766.375 6   4705533.083 6  23584645.258    23584648.746    23584645.624
        30.000          15.000
 03  4 13  1 57  0.0000000  0 11G 9G18G23G30G21G17G 6G26G 5G29G10
   1063248.020 6    828510.248 6  24091050.311    24091058.005    24091050.357
        21.000          13.000
  -4980228.666 7  -3880687.260 6  22695402.222    22695406.627    22695402.244
        52.000          28.000
  -5393578.362 7  -4202778.645 7  22999474.546    22999481.204    22999474.733
        54.000          43.000
   -132395.682 8   -103162.862 8  21061922.214    21061925.467    21061921.762
       187.000         151.000
   -500966.117 6   -390354.022 6  23796142.504    23796144.826    23796142.352
        23.000          11.000
    -71032.959 6    -55344.841 6  23123079.186    23123083.864    23123079.410
        26.000          21.000
  -4804364.574 8  -3743660.063 7  21878726.419    21878730.091    21878726.653
       106.000          81.000
  -1803057.666 8  -1404975.588 8  21700382.574    21700385.749    21700382.230
       157.000         129.000
   3815143.904 8   2972838.706 8  21530895.637    21530900.367    21530896.068
       175.000         120.000
   -608680.448 8   -474294.099 7  21800692.582    21800695.320    21800692.256
       118.000          86.000
   6135425.156 6   4780851.618 6  23603038.856    23603042.544    23603039.296
        28.000          14.000
 03  4 13  1 57 30.0000000  0 11G 9G18G23G30G21G17G 6G26G 5G29G10
   1074786.775 6    837501.667 6  24093245.945    24093253.546    24093245.926
        23.000          12.000
  -5046585.109 7  -3932393.523 7  22682774.697    22682779.375    22682774.837
        56.000          33.000
  -5467976.684 7  -4260751.394 7  22985317.471    22985323.481    22985318.024
        56.000          45.000
   -118764.797 8    -92541.299 8  21064515.955    21064519.282    21064515.453
       179.000         143.000
   -508814.966 6   -396469.947 6  23794648.361    23794651.520    23794648.143
        22.000          12.000
    -70693.839 6    -55080.541 6  23123143.774    23123148.280    23123143.766
        26.000          21.000
  -4874862.137 8  -3798593.231 7  21865311.139    21865314.754    21865311.052
       113.000          83.000
  -1820296.085 8  -1418408.078 8  21697102.026    21697105.360    21697101.847
       155.000         128.000
   3884810.746 8   3027124.537 8  21544152.658    21544157.324    21544153.049
       171.000         116.000
   -602871.119 8   -469767.318 7  21801798.059    21801800.914    21801797.999
       118.000          87.000
   6232090.632 6   4856175.368 6  23621433.560    23621437.148    23621433.973
        26.000          13.000
 03  4 13  1 58  0.0000000  0 11G 9G18G23G30G21G17G 6G26G 5G29G10
   1086066.307 6    846291.105 6  24095391.836    24095399.665    24095391.431
        22.000          11.000
  -5112566.931 7  -3983807.867 6  22670218.540    22670223.088    22670218.898
        52.000          30.000
  -5542045.105 7  -4318467.139 7  22971222.491    22971228.936    22971222.891
        55.000          42.000
   -104687.334 8    -81571.745 8  21067194.586    21067198.065    21067194.156
       178.000         147.000
   -516710.728 6   -402622.427 6  23793145.911    23793148.832    23793145.750
        23.000          12.000
    -70360.360 6    -54820.629 6  23123207.160    23123211.716    23123207.295
        26.000          21.000
  -4945213.930 8  -3853412.817 7  21851923.912    21851927.199    21851923.955
       119.000          86.000
  -1837183.137 8  -1431566.775 8  21693888.401    21693891.876    21693888.267
       151.000         131.000
   3954712.725 8   3081593.600 8  21557454.877    21557459.505    21557455.354
       174.000         117.000
   -596581.305 8   -464866.144 7  21802995.203    21802997.796    21802995.363
       121.000          90.000
   6328756.722 6   4931499.600 6  23639828.506    23639832.051    23639829.062
        24.000          13.000
 03  4 13  1 58 30.0000000  0 11G 9G18G23G30G21G17G 6G26G 5G29G10
   1097103.022 6    854891.337 6  24097492.386    24097499.782    24097492.756
        21.000          12.000
  -5178157.075 7  -4034917.063 6  22657737.366    22657741.772    22657737.668
        55.000          31.000
  -5615765.516 7  -4375911.541 7  22957193.764    22957200.315    22957194.324
        58.000          45.000
    -90148.521 8    -70242.634 8  21069960.976    21069964.549    21069960.477
       174.000         145.000
   -524638.875 6   -408800.157 6  23791637.196    23791639.596    23791637.361
        22.000          11.000
    -70018.143 6    -54553.918 6  23123272.372    23123276.933    23123272.797
        26.000          21.000
  -5015401.206 8  -3908104.197 7  21838567.797    21838571.051    21838567.889
       121.000          89.000
  -1853700.788 8  -1444437.626 8  21690745.287    21690748.637    21690745.073
       153.000         131.000
   4024863.122 8   3136256.233 8  21570803.686    21570808.703    21570803.958
       169.000         115.000
   -589793.624 8   -459577.018 7  21804286.572    21804289.498    21804286.530
       113.000          89.000
   6425437.193 6   5006835.029 6  23658226.119    23658229.681    23658226.519
        22.000          12.000
 03  4 13  1 59  0.0000000  0 11G 9G18G23G30G21G17G 6G26G 5G29G10
   1107937.671 6    863334.108 6  24099554.162    24099560.993    24099554.433
        22.000          13.000
  -5243313.211 7  -4085688.054 6  22645338.541    22645342.895    22645338.509
        56.000          31.000
  -5689096.092 7  -4433052.260 7  22943239.730    22943245.718    22943240.192
        55.000          41.000
    -75109.332 8    -58523.694 8  21072822.932    21072826.189    21072822.402
       175.000         146.000
   -532559.885 6   -414972.310 6  23790129.892    23790132.516    23790129.609
        23.000          12.000
    -69627.584 6    -54249.543 6  23123346.599    23123351.101    23123347.008
        26.000          21.000
  -5085380.719 8  -3962633.684 7  21825251.035    21825254.507    21825250.694
       123.000          92.000
  -1869806.712 8  -1456987.659 8  21687680.508    21687683.676    21687680.234
       156.000         129.000
   4095299.689 8   3191141.857 8  21584207.624    21584211.968    21584208.018
       172.000         109.000
   -582466.565 8   -453867.594 7  21805680.727    21805683.735    21805680.364
       111.000          90.000
   6522170.405 6   5082211.560 6  23676633.847    23676637.381    23676634.602
        22.000          12.000
 03  4 13  1 59 30.0000000  0 11G 9G18G23G30G21G17G 6G26G 5G29G10
   1118521.636 6    871581.525 6  24101567.214    24101575.308    24101566.742
        21.000          14.000
  -5308082.917 7  -4136157.885 7  22633013.526    22633017.290    22633013.717
        57.000          33.000
  -5762084.120 7  -4489925.999 7  22929350.317    22929356.722    22929350.917
        58.000          46.000
    -59620.103 8    -46454.155 8  21075770.525    21075773.683    21075769.949
       176.000         145.000
   -540524.278 6   -421178.278 6  23788614.724    23788616.788    23788614.858
        24.000          10.000
    -69240.018 6    -53947.494 6  23123420.638    23123424.770    23123421.052
        26.000          21.000
  -5155198.848 8  -4017037.419 7  21811965.266    21811968.595    21811964.852
       126.000          93.000
  -1885547.855 8  -1469253.447 8  21684685.084    21684688.113    21684684.893
       155.000         128.000
   4165970.597 8   3246210.097 8  21597655.724    21597660.489    21597656.070
       168.000         112.000
   -574647.708 8   -447774.951 7  21807168.766    21807171.534    21807168.514
       110.000          90.000
   6618904.897 6   5157589.083 6  23695041.848    23695045.119    23695042.490
        23.000          12.000
 03  4 13  2  0  0.0000000  0 11G 9G18G23G30G21G17G 6G26G 5G29G10
   1128868.319 6    879644.044 6  24103535.608    24103543.936    24103535.942
        20.000          12.000
  -5372451.791 7  -4186315.405 6  22620763.991    22620768.563    22620764.026
        54.000          31.000
  -5834714.827 7  -4546521.295 7  22915529.272    22915535.549    22915529.986
        56.000          43.000
    -43669.126 8    -34024.853 8  21078805.984    21078809.343    21078805.519
       180.000         151.000
   -548520.048 6   -427408.701 6  23787092.822    23787095.311    23787092.872
        23.000          12.000
    -68843.372 6    -53638.372 6  23123495.989    23123500.332    23123496.400
        27.000          21.000
  -5224839.719 8  -4071303.023 7  21798713.182    21798716.296    21798712.998
       127.000          93.000
  -1900909.087 8  -1481223.197 8  21681761.572    21681764.960    21681761.254
       146.000         127.000
   4236886.404 8   3301469.152 8  21611150.348    21611155.450    21611150.624
       163.000         111.000
   -566322.741 8   -441287.937 7  21808752.647    21808755.735    21808752.888
       104.000          91.000
   6715651.943 6   5232976.392 6  23713451.935    23713455.219    23713452.716
        22.000          13.000
 03  4 13  2  0 30.0000000  0 11G 9G18G23G30G21G17G 6G26G 5G29G10
   1138956.211 6    887504.934 6  24105456.365    24105463.240    24105456.452
        24.000          10.000
  -5436440.133 7  -4236176.367 7  22608587.359    22608592.178    22608587.162
        55.000          34.000
  -5907008.031 7  -4602853.563 7  22901772.186    22901778.128    22901772.638
        57.000          43.000
    -27279.289 8    -21253.587 8  21081924.854    21081928.229    21081924.462
       174.000         145.000
   -556570.249 6   -433681.526 6  23785560.538    23785563.889    23785560.196
        23.000          13.000
    -68460.465 6    -53339.956 6  23123568.621    23123573.072    23123569.230
        26.000          21.000
  -5294322.311 8  -4125445.288 7  21785490.929    21785494.081    21785490.854
       127.000          92.000
  -1915910.245 8  -1492912.370 8  21678906.926    21678910.363    21678906.673
       146.000         127.000
   4308022.634 8   3356899.981 8  21624687.433    21624691.878    21624687.842
       165.000         107.000
   -557512.301 8   -434422.635 7  21810429.147    21810432.195    21810429.528
       101.000          91.000
   6812387.412 6   5308354.678 6  23731860.202    23731863.530    23731861.106
        23.000          13.000
 03  4 13  2  1  0.0000000  0 11G 9G18G23G30G21G17G 6G26G 5G29G10
   1148792.472 6    895169.761 6  24107328.042    24107334.680    24107328.065
        28.000          12.000
  -5500039.981 7  -4285734.654 7  22596485.037    22596489.165    22596485.295
        58.000          35.000
  -5978955.716 7  -4658916.689 7  22888080.974    22888086.912    22888081.633
        56.000          41.000
    -10445.335 8     -8136.290 8  21085128.169    21085131.458    21085127.572
       173.000         145.000
   -564669.291 6   -439992.412 6  23784019.670    23784022.203    23784019.503
        23.000          14.000
    -68086.117 6    -53048.207 6  23123639.977    23123644.595    23123639.957
        26.000          22.000
  -5363637.071 8  -4179456.779 7  21772300.696    21772303.803    21772300.336
       128.000          87.000
  -1930542.706 8  -1504314.247 8  21676122.637    21676125.947    21676122.488
       148.000         127.000
   4379383.314 8   3412505.705 8  21638266.539    21638271.701    21638266.894
       159.000         110.000
   -548208.450 7   -427172.858 7  21812199.558    21812202.765    21812200.001
        99.000          93.000
   6909116.250 6   5383727.802 6  23750267.341    23750270.816    23750268.038
        25.000          15.000
 03  4 13  2  1 30.0000000  0 11G 9G18G23G30G21G17G 6G26G 5G29G10
   1158414.949 6    902667.989 6  24109158.805    24109166.046    24109158.998
        27.000          14.000
  -5563212.087 7  -4334959.591 7  22584463.261    22584467.808    22584463.330
        54.000          33.000
  -6050518.552 7  -4714679.958 7  22874463.402    22874468.991    22874464.036
        59.000          43.000
      6869.040 8      5355.428 8  21088422.862    21088426.297    21088422.451
       169.000         140.000
   -572781.139 6   -446313.269 6  23782475.791    23782478.175    23782475.953
        22.000          13.000
    -67684.297 6    -52735.058 6  23123716.325    23123721.033    23123716.587
        25.000          22.000
  -5432743.907 8  -4233306.255 7  21759150.244    21759153.120    21759150.218
       136.000          87.000
  -1944767.053 8  -1515398.114 8  21673415.682    21673419.042    21673415.265
       148.000         126.000
   4451003.138 8   3468313.353 8  21651895.811    21651900.686    21651896.216
       165.000         111.000
   -538372.466 7   -419508.431 7  21814071.388    21814074.604    21814070.968
        98.000          95.000
   7005873.697 6   5459123.213 6  23768679.701    23768683.331    23768680.181
        26.000          16.000
 03  4 13  2  2  0.0000000  0 11G 9G18G23G30G21G17G 6G26G 5G29G10
   1167775.225 6    909961.914 6  24110939.424    24110947.453    24110939.009
        22.000          14.000
  -5626003.799 7  -4383888.075 7  22572514.128    22572519.058    22572513.983
        54.000          34.000
  -6121743.640 7  -4770179.937 7  22860909.316    22860915.033    22860909.751
        60.000          45.000
     24613.322 8     19182.117 8  21091799.519    21091802.907    21091798.978
       171.000         143.000
   -580955.805 6   -452683.080 6  23780919.977    23780922.536    23780920.145
        22.000          14.000
    -67305.509 6    -52439.853 6  23123788.483    23123792.911    23123788.821
        27.000          23.000
  -5501688.957 8  -4287029.657 7  21746030.519    21746033.481    21746030.569
       134.000          89.000
  -1958630.343 8  -1526200.640 8  21670777.802    21670780.762    21670777.710
       155.000         125.000
   4522830.585 8   3524282.800 8  21665564.117    21665568.358    21665564.492
       161.000         102.000
   -528052.227 7   -411466.659 7  21816034.959    21816038.265    21816034.901
        94.000          93.000
   7102608.553 6   5534501.018 6  23787087.714    23787091.402    23787088.068
        29.000          17.000
 03  4 13  2  2 30.0000000  0 11G 9G18G23G30G21G17G 6G26G 5G29G10
   1176900.857 6    917072.956 6  24112675.317    24112683.411    24112674.853
        19.000          14.000
  -5688386.868 7  -4432498.096 7  22560643.173    22560647.939    22560643.303
        56.000          36.000
  -6192602.557 7  -4825394.656 7  22847425.231    22847430.969    22847425.847
        59.000          44.000
     42813.207 8     33363.799 8  21095262.986    21095266.269    21095262.393
       174.000         140.000
   -589167.283 6   -459081.582 6  23779357.427    23779360.431    23779357.365
        22.000          14.000
    -66923.465 6    -52142.106 6  23123861.159    23123865.509    23123861.522
        28.000          23.000
  -5570442.442 8  -4340603.784 7  21732946.816    21732950.078    21732946.658
       132.000          92.000
  -1972103.348 8  -1536699.041 8  21668213.935    21668216.937    21668213.655
       158.000         127.000
   4594889.998 8   3580432.994 8  21679275.939    21679280.863    21679276.410
       149.000         102.000
   -517219.383 7   -403025.464 7  21818096.465    21818099.535    21818096.574
        91.000          92.000
   7199345.655 7   5609880.576 6  23805496.358    23805499.865    23805496.781
        32.000          18.000
 03  4 13  2  3  0.0000000  0 11G 9G18G23G30G21G17G 6G26G 5G29G10
   1185756.497 6    923973.627 6  24114361.158    24114367.910    24114360.990
        22.000          13.000
  -5750396.000 7  -4480816.765 7  22548843.185    22548847.908    22548843.050
        57.000          37.000
  -6263129.330 7  -4880350.519 7  22834004.459    22834010.518    22834004.993
        61.000          49.000
     61431.552 8     47871.597 8  21098806.174    21098809.356    21098805.711
       173.000         140.000
   -597452.384 6   -465537.446 6  23777780.756    23777783.431    23777780.710
        22.000          14.000
    -66575.856 6    -51871.192 6  23123927.472    23123931.780    23123928.001
        28.000          23.000
  -5639037.339 8  -4394054.342 7  21719893.559    21719896.797    21719893.342
       128.000          92.000
  -1985220.135 8  -1546919.877 8  21665717.720    21665720.898    21665717.442
       158.000         129.000
   4667142.819 8   3636733.893 8  21693025.981    21693030.900    21693026.412
       159.000         111.000
   -505908.840 7   -394212.028 7  21820248.945    21820251.921    21820248.349
        92.000          93.000
   7296047.385 7   5685232.567 6  23823898.040    23823901.818    23823898.590
        33.000          19.000
 03  4 13  2  3 30.0000000  0 11G 9G18G23G30G21G17G 6G26G 5G29G10
   1194373.627 6    930688.464 6  24116001.012    24116007.408    24116000.507
        27.000          12.000
  -5811998.642 7  -4528818.700 7  22537120.387    22537125.434    22537120.492
        56.000          38.000
  -6333291.319 7  -4935022.137 7  22820652.875    22820658.927    22820653.030
        61.000          48.000
     80497.908 8     62728.465 8  21102434.295    21102437.564    21102433.780
       178.000         149.000
   -605781.472 6   -472027.584 6  23776195.582    23776198.382    23776195.520
        21.000          14.000
    -66232.857 6    -51603.873 6  23123992.487    23123996.836    23123993.155
        27.000          23.000
  -5707439.769 8  -4447354.917 7  21706877.087    21706880.352    21706877.201
       129.000          93.000
  -1997947.797 8  -1556837.491 8  21663295.883    21663298.930    21663295.687
       160.000         129.000
   4739617.466 8   3693207.647 8  21706816.969    21706822.092    21706817.317
       148.000         106.000
   -494088.253 7   -385001.152 7  21822498.137    21822501.465    21822498.461
        93.000          95.000
   7392742.937 7   5760579.752 6  23842298.551    23842302.305    23842299.071
        34.000          19.000
 03  4 13  2  4  0.0000000  0 11G 9G18G23G30G21G17G 6G26G 5G29G10
   1202771.525 6    937232.472 6  24117598.677    24117605.222    24117598.022
        27.000          13.000
  -5873174.850 7  -4576488.451 7  22525478.778    22525483.941    22525478.813
        56.000          37.000
  -6403068.067 7  -4989393.571 7  22807374.871    22807380.752    22807375.381
        59.000          45.000
    100029.653 8     77947.934 8  21106151.153    21106154.362    21106150.671
       167.000         135.000
   -614136.997 6   -478538.323 6  23774605.811    23774608.130    23774605.525
        22.000          14.000
    -65877.277 6    -51326.753 6  23124059.936    23124064.305    23124060.482
        27.000          22.000
  -5775628.033 8  -4500488.609 7  21693901.100    21693904.574    21693901.025
       129.000          92.000
  -2010265.388 8  -1566435.575 8  21660951.797    21660954.988    21660951.520
       166.000         130.000
   4812330.008 8   3749866.772 7  21720653.742    21720658.182    21720654.166
       147.000          97.000
   -481737.708 7   -375377.324 7  21824848.526    21824851.704    21824848.483
        92.000          94.000
   7489448.739 7   5835934.914 6  23860701.084    23860704.606    23860701.691
        36.000          19.000
 03  4 13  2  4 30.0000000  0 11G 9G18G23G30G21G17G 6G26G 5G29G10
   1210922.796 6    943584.300 6  24119149.629    24119156.579    24119149.050
        25.000          14.000
  -5933951.016 7  -4623846.388 7  22513913.712    22513918.230    22513914.016
        58.000          38.000
  -6472485.917 7  -5043485.241 7  22794164.822    22794171.056    22794165.427
        62.000          51.000
    119997.278 8     93507.088 8  21109950.644    21109954.037    21109950.028
       171.000         140.000
   -622547.957 6   -485092.261 6  23773005.386    23773007.717    23773004.998
        25.000          13.000
    -65538.147 6    -51062.452 6  23124124.431    23124128.871    23124124.720
        26.000          22.000
  -5843627.567 8  -4553475.249 7  21680961.124    21680964.356    21680960.906
       127.000          90.000
  -2022199.481 8  -1575734.834 8  21658680.843    21658683.880    21658680.594
       169.000         131.000
   4885249.639 8   3806687.284 8  21734530.092    21734534.775    21734530.504
       148.000         103.000
   -468884.513 7   -365361.819 7  21827294.302    21827297.279    21827294.519
        92.000          92.000
   7586134.598 7   5911274.548 6  23879099.897    23879103.103    23879100.471
        34.000          16.000
 03  4 13  2  5  0.0000000  0 11G 9G18G23G30G21G17G 6G26G 5G29G10
   1218850.985 6    949762.285 6  24120658.161    24120665.415    24120657.695
        22.000          13.000
  -5994303.231 7  -4670874.097 7  22502429.142    22502433.890    22502429.081
        58.000          38.000
  -6541520.569 7  -5097278.353 7  22781027.937    22781034.133    22781028.070
        62.000          51.000
    140422.377 8    109422.754 8  21113837.435    21113840.910    21113837.007
       169.000         142.000
   -630992.664 6   -491672.497 6  23771398.297    23771400.504    23771397.964
        24.000          14.000
    -65193.557 6    -50793.894 6  23124189.925    23124194.398    23124190.259
        27.000          23.000
  -5911412.674 8  -4606294.798 7  21668062.103    21668065.204    21668062.076
       128.000          90.000
  -2033724.913 8  -1584715.651 8  21656487.482    21656490.626    21656487.199
       169.000         133.000
   4958396.852 8   3863685.111 8  21748449.025    21748454.554    21748449.413
       137.000         105.000
   -455504.528 7   -354935.827 7  21829840.472    21829843.464    21829839.983
        93.000          95.000
   7682821.595 7   5986615.066 6  23897498.705    23897501.884    23897499.569
        33.000          15.000
 03  4 13  2  5 30.0000000  0 11G 9G18G23G30G21G17G 6G26G 5G29G10
   1226540.615 6    955754.374 6  24122121.467    24122128.334    24122121.472
        19.000          12.000
  -6054245.763 7  -4717582.451 7  22491022.258    22491026.994    22491022.245
        60.000          39.000
  -6610186.132 7  -5150783.835 7  22767961.165    22767967.113    22767961.827
        61.000          50.000
    161287.362 8    125681.169 8  21117807.985    21117811.346    21117807.532
       166.000         139.000
   -639488.042 6   -498292.217 6  23769781.563    23769783.933    23769781.280
        24.000          14.000
    -64861.133 6    -50534.825 6  23124253.182    23124257.634    23124253.452
        27.000          22.000
  -5978996.385 8  -4658957.417 7  21655201.319    21655204.611    21655201.151
       131.000          91.000
  -2044855.911 8  -1593389.121 8  21654369.332    21654372.619    21654369.144
       170.000         137.000
   5031752.919 8   3920845.688 7  21762408.825    21762413.022    21762409.074
       144.000          96.000
   -441612.433 7   -344110.781 7  21832484.038    21832487.202    21832484.120
        97.000          98.000
   7779491.610 6   6061942.354 6  23915894.699    23915897.521    23915895.427
        31.000          14.000
 03  4 13  2  6  0.0000000  0 11G 9G18G23G30G21G17G 6G26G 5G29G10
   1233981.214 6    961552.421 6  24123536.741    24123543.860    24123536.641
        18.000          12.000
  -6113788.964 7  -4763979.718 7  22479691.987    22479695.961    22479692.099
        61.000          39.000
  -6678492.395 7  -5204009.378 7  22754962.833    22754969.284    22754963.336
        61.000          53.000
    182579.763 8    142272.609 8  21121859.859    21121863.080    21121859.274
       166.000         133.000
   -648046.300 6   -504960.935 6  23768152.745    23768155.451    23768152.682
        25.000          14.000
    -64552.913 6    -50294.616 6  23124311.942    23124316.342    23124312.278
        26.000          23.000
  -6046386.890 8  -4711469.489 7  21642377.415    21642380.756    21642377.218
       136.000          92.000
  -2055601.599 8  -1601762.337 8  21652324.681    21652327.907    21652324.446
       172.000         140.000
   5105304.145 8   3978158.358 7  21776404.949    21776409.645    21776405.315
       137.000          97.000
   -427218.441 7   -332894.647 7  21835223.198    21835226.238    21835223.277
        97.000          97.000
   7876131.703 6   6137246.326 6  23934284.745    23934287.688    23934285.429
        28.000          11.000
 03  4 13  2  6 30.0000000  0 11G 9G18G23G30G21G17G 6G26G 5G29G10
   1241156.171 6    967143.470 6  24124901.581    24124909.267    24124901.576
        20.000          14.000
  -6172948.196 7  -4810077.807 7  22468434.102    22468438.242    22468434.166
        63.000          38.000
  -6746454.869 7  -5256967.062 7  22742029.902    22742036.399    22742030.335
        61.000          56.000
    204281.129 8    159182.797 8  21125989.750    21125992.738    21125989.328
       175.000         141.000
   -656685.622 6   -511692.825 6  23766508.765    23766511.289    23766509.011
        25.000          13.000
    -64287.308 6    -50087.611 6  23124362.505    23124366.936    23124362.862
        27.000          23.000
  -6113598.352 8  -4763842.048 7  21629587.683    21629590.607    21629587.773
       144.000          92.000
  -2065977.255 8  -1609847.222 8  21650349.890    21650353.288    21650349.502
       167.000         137.000
   5179030.961 8   4035607.826 8  21790434.290    21790439.845    21790434.623
       131.000         101.000
   -412338.711 7   -321300.022 7  21838054.468    21838057.714    21838054.462
        94.000          96.000
   7972722.938 6   6212512.221 6  23952665.279    23952668.205    23952665.911
        25.000          11.000
 03  4 13  2  7  0.0000000  0 11G 9G18G23G30G21G17G 6G26G 5G29G10
   1248092.773 6    972548.791 6  24126221.883    24126229.403    24126222.075
        22.000          15.000
  -6231695.645 7  -4855855.043 7  22457254.658    22457259.128    22457254.524
        62.000          39.000
  -6814045.562 7  -5309635.096 7  22729167.719    22729173.948    22729168.004
        58.000          51.000
    226416.170 8    176430.839 8  21130201.861    21130204.996    21130201.359
       173.000         136.000
   -665380.710 6   -518468.165 6  23764854.189    23764857.005    23764854.054
        26.000          13.000
    -64039.611 6    -49894.562 6  23124409.905    23124413.894    23124410.427
        27.000          23.000
  -6180601.565 8  -4816052.335 7  21616837.372    21616840.229    21616837.359
       146.000          93.000
  -2075954.688 8  -1617621.807 8  21648451.358    21648454.349    21648451.108
       172.000         135.000
   5252957.030 8   4093212.570 7  21804502.570    21804506.981    21804502.901
       137.000          95.000
   -396945.777 7   -309305.488 7  21840983.687    21840986.715    21840983.299
        93.000          94.000
   8069289.759 6   6287759.096 6  23971041.416    23971044.585    23971041.518
        23.000          10.000
 03  4 13  2  7 30.0000000  0 11G 9G18G23G30G21G17G 6G26G 5G29G10
   1254814.976 6    977787.046 6  24127501.133    24127507.633    24127501.479
        24.000          14.000
  -6290006.972 7  -4901292.431 7  22446158.533    22446162.571    22446158.605
        64.000          39.000
  -6881239.325 7  -5361993.787 7  22716381.301    22716387.491    22716381.890
        61.000          56.000
    249006.673 8    194033.781 8  21134500.714    21134503.902    21134500.157
       172.000         137.000
   -674109.190 6   -525269.526 6  23763193.407    23763195.657    23763193.547
        26.000          14.000
    -63787.548 6    -49698.106 6  23124457.725    23124461.936    23124458.219
        27.000          23.000
  -6247370.312 8  -4868079.925 7  21604131.586    21604134.692    21604131.273
       145.000          95.000
  -2085508.693 8  -1625066.441 8  21646633.347    21646636.052    21646633.016
       175.000         132.000
   5327103.068 8   4150988.727 7  21818611.424    21818616.392    21818611.846
       124.000          93.000
   -381015.412 7   -296892.187 7  21844015.220    21844018.023    21844015.498
        97.000          95.000
   8165853.296 6   6363003.405 6  23989416.323    23989419.650    23989416.739
        21.000          10.000
 03  4 13  2  8  0.0000000  0 11G 9G18G23G30G21G17G 6G26G 5G29G10
   1261312.859 6    982850.502 6  24128737.566    24128744.114    24128737.458
        23.000          15.000
  -6347891.150 7  -4946397.016 7  22435143.573    22435147.698    22435143.523
        65.000          39.000
  -6948045.175 7  -5414050.292 7  22703668.677    22703674.810    22703669.211
        59.000          51.000
    272041.001 8    211982.616 8  21138883.878    21138887.364    21138883.403
       176.000         143.000
   -682882.464 6   -532105.799 6  23761523.388    23761526.455    23761524.031
        26.000          13.000
    -63542.382 6    -49507.027 6  23124504.132    23124508.679    23124504.573
        27.000          22.000
  -6313912.098 8  -4919930.658 7  21591469.174    21591472.237    21591469.085
       146.000          97.000
  -2094647.851 8  -1632187.824 8  21644894.087    21644896.962    21644893.801
       171.000         131.000
   5401455.989 8   4208926.077 7  21832760.504    21832765.687    21832760.856
       126.000          98.000
   -364557.010 7   -284067.426 7  21847146.952    21847150.050    21847146.476
        95.000          96.000
   8262401.659 6   6438235.898 5  24007788.653    24007792.291    24007788.995
        19.000           8.000
 03  4 13  2  8 30.0000000  0 11G 9G18G23G30G21G17G 6G26G 5G29G10
   1267580.814 6    987734.793 6  24129929.971    24129936.872    24129930.065
        22.000          14.000
  -6405352.926 7  -4991172.392 7  22424208.693    22424213.258    22424208.761
        65.000          40.000
  -7014467.316 7  -5465807.685 7  22691028.924    22691034.744    22691029.246
        63.000          57.000
    295511.177 8    230271.000 8  21143350.060    21143353.422    21143349.519
       161.000         125.000
   -691707.599 6   -538982.478 6  23759844.309    23759846.805    23759844.611
        27.000          14.000
    -63311.435 6    -49327.029 6  23124548.082    23124552.431    23124548.402
        26.000          22.000
  -6380230.425 8  -4971607.263 7  21578849.439    21578852.244    21578849.354
       157.000          98.000
  -2103376.525 8  -1638989.340 8  21643233.013    21643236.054    21643232.793
       166.000         134.000
   5476006.950 8   4267017.755 7  21846947.458    21846952.206    21846947.917
       132.000          95.000
   -347575.727 7   -270835.223 7  21850378.429    21850381.526    21850378.138
        96.000          97.000
   8358926.510 6   6513450.070 5  24026156.643    24026160.352    24026157.030
        18.000           7.000
 03  4 13  2  9  0.0000000  0 11G 9G18G23G30G21G17G 6G26G 5G29G10
   1273583.076 6    992412.051 6  24131072.540    24131078.774    24131072.663
        20.000          15.000
  -6462427.897 7  -5035646.384 7  22413347.529    22413352.043    22413347.718
        65.000          41.000
  -7080541.367 7  -5517293.932 7  22678455.597    22678461.386    22678456.130
        62.000          54.000
    319379.144 8    248869.443 8  21147891.876    21147895.314    21147891.326
       172.000         141.000
   -700622.567 6   -545929.161 6  23758148.329    23758150.198    23758148.340
        28.000          14.000
    -63133.062 6    -49188.001 6  23124581.829    23124586.463    23124582.055
        27.000          23.000
  -6446358.994 8  -5023136.017 7  21566265.584    21566268.439    21566265.410
       168.000          99.000
  -2111729.649 8  -1645498.226 8  21641643.417    21641646.455    21641643.235
       168.000         136.000
   5550716.678 8   4325233.146 7  21861163.576    21861168.553    21861163.938
       122.000          91.000
   -330107.606 7   -257223.670 7  21853702.634    21853705.489    21853702.349
        93.000          94.000
   8455389.272 6   6588615.860 5  24044513.329    24044516.603    24044513.584
        18.000           7.000
 03  4 13  2  9 30.0000000  0 11G 9G18G23G30G21G17G 6G26G 5G29G10
   1279350.560 6    996906.339 6  24132169.638    24132176.163    24132170.016
        19.000          15.000
  -6519085.003 7  -5079794.792 7  22402566.384    22402570.689    22402566.602
        65.000          41.000
  -7146235.667 7  -5568484.279 7  22665954.219    22665960.220    22665954.624
        62.000          56.000
    343673.000 8    267799.684 8  21152515.088    21152518.510    21152514.790
       169.000         136.000
   -709598.463 6   -552923.339 6  23756439.996    23756442.056    23756440.125
        27.000          15.000
    -62978.151 6    -49067.271 6  23124611.427    23124615.613    23124611.685
        27.000          24.000
  -6512264.990 8  -5074491.354 8  21553724.191    21553726.939    21553724.119
       168.000         100.000
  -2119675.471 8  -1651689.742 8  21640131.625    21640134.255    21640131.494
       165.000         135.000
   5625612.552 8   4383593.576 7  21875416.332    21875421.165    21875416.786
       126.000          94.000
   -312121.837 7   -243208.767 7  21857124.971    21857128.064    21857124.789
        90.000          93.000
   8551818.198 6   6663755.276 5  24062863.176    24062866.708    24062864.149
        17.000           6.000
 03  4 13  2 10  0.0000000  0 11G 9G18G23G30G21G17G 6G26G 5G29G10
   1284896.552 6   1001228.055 6  24133224.852    24133231.542    24133224.810
        21.000          14.000
  -6575310.381 7  -5123606.778 7  22391866.913    22391871.525    22391867.066
        65.000          42.000
  -7211536.038 7  -5619367.629 7  22653528.042    22653533.390    22653528.540
        63.000          55.000
    368404.250 8    287070.761 8  21157221.363    21157224.553    21157220.971
       169.000         137.000
   -718623.235 6   -559955.579 6  23754722.536    23754724.433    23754722.716
        26.000          14.000
    -62835.011 6    -48955.696 6  23124638.416    23124642.889    23124638.905
        26.000          23.000
  -6577932.599 8  -5125660.913 8  21541228.106    21541230.809    21541228.258
       168.000         101.000
  -2127199.364 8  -1657552.468 8  21638699.459    21638702.430    21638699.224
       160.000         135.000
   5700704.748 8   4442106.997 7  21889705.853    21889710.889    21889706.379
       125.000          95.000
   -293604.430 7   -228779.588 7  21860648.923    21860651.842    21860648.611
        92.000          95.000
   8648223.802 6   6738876.536 5  24081209.033    24081211.883    24081209.384
        17.000           7.000
 03  4 13  2 10 30.0000000  0 11G 9G18G23G30G21G17G 6G26G 5G29G10
   1290174.373 6   1005340.809 6  24134228.968    24134235.219    24134229.200
        21.000          12.000
  -6631149.844 7  -5167117.997 7  22381241.254    22381245.539    22381241.489
        66.000          42.000
  -7276488.045 7  -5669979.553 7  22641168.201    22641173.465    22641168.891
        65.000          53.000
    393523.783 8    306644.332 8  21162001.676    21162004.835    21162001.308
       170.000         137.000
   -727745.104 6   -567063.481 6  23752986.908    23752988.377    23752986.851
        26.000          14.000
    -62752.078 6    -48891.041 6  23124654.298    23124658.714    23124654.669
        26.000          24.000
  -6643406.279 8  -5176679.355 8  21528768.761    21528771.551    21528768.829
       167.000         101.000
  -2134346.778 8  -1663121.839 8  21637339.422    21637342.381    21637339.363
       161.000         138.000
   5775943.712 8   4500734.778 7  21904023.283    21904027.853    21904023.820
       124.000          88.000
   -274602.025 7   -213972.492 7  21864264.915    21864267.775    21864265.017
        90.000          94.000
   8744557.503 6   6813941.752 5  24099540.369    24099544.013    24099541.146
        17.000           7.000
 03  4 13  2 11  0.0000000  0 11G 9G18G23G30G21G17G 6G26G 5G29G10
   1295239.792 6   1009288.065 6  24135192.915    24135199.220    24135192.851
        22.000          11.000
  -6686547.548 7  -5210285.002 7  22370699.304    22370703.466    22370699.421
        70.000          42.000
  -7341035.689 7  -5720276.419 7  22628884.797    22628890.833    22628885.308
        65.000          55.000
    419084.986 8    326562.081 8  21166865.955    21166868.952    21166865.566
       168.000         130.000
   -736910.360 6   -574205.189 6  23751242.745    23751244.350    23751243.008
        26.000          15.000
    -62675.950 6    -48831.690 6  23124668.931    23124673.334    23124669.321
        26.000          25.000
  -6708628.453 8  -5227501.823 8  21516357.353    21516360.158    21516357.244
       172.000         103.000
  -2141061.358 8  -1668353.930 8  21636061.802    21636064.720    21636061.680
       161.000         140.000
   5851381.299 8   4559517.348 7  21918379.011    21918383.266    21918379.501
       129.000          88.000
   -255059.117 7   -198744.220 7  21867983.370    21867986.582    21867983.205
        83.000          91.000
   8840871.803 6   6888991.848 5  24117868.339    24117872.240    24117869.091
        17.000           8.000
 03  4 13  2 11 30.0000000  0 11G 9G18G23G30G21G17G 6G26G 5G29G10
   1300075.917 6   1013056.652 6  24136112.610    24136119.344    24136112.483
        21.000          13.000
  -6741519.776 7  -5253120.465 7  22360238.443    22360242.653    22360238.619
        71.000          43.000
  -7405194.732 7  -5770270.408 7  22616675.669    22616681.485    22616676.352
        66.000          56.000
    445068.717 8    346809.101 8  21171810.432    21171813.379    21171810.114
       172.000         135.000
   -746137.338 6   -581395.002 6  23749486.301    23749488.276    23749486.587
        26.000          14.000
    -62625.089 6    -48792.034 6  23124678.556    23124682.900    23124679.038
        27.000          24.000
  -6773613.535 8  -5278139.546 8  21503991.134    21503993.947    21503991.153
       171.000         106.000
  -2147358.730 8  -1673260.930 8  21634863.275    21634866.507    21634863.094
       160.000         143.000
   5926997.616 8   4618439.176 7  21932767.694    21932772.895    21932768.136
       119.000          90.000
   -234992.106 7   -183107.555 7  21871802.175    21871805.222    21871801.696
        84.000          90.000
   8937147.561 6   6964011.912 5  24136189.044    24136192.799    24136189.769
        18.000           8.000
 03  4 13  2 12  0.0000000  0 11G 9G18G23G30G21G17G 6G26G 5G29G10
   1304662.421 6   1016630.719 6  24136985.444    24136992.232    24136985.676
        20.000          15.000
  -6796086.821 7  -5295640.193 7  22349854.889    22349858.681    22349855.214
        73.000          43.000
  -7468985.196 7  -5819977.238 7  22604536.977    22604542.422    22604537.667
        66.000          55.000
    471452.173 8    367367.611 8  21176830.962    21176834.356    21176830.613
       169.000         142.000
   -755448.404 6   -588650.330 6  23747714.732    23747716.673    23747715.227
        26.000          15.000
    -62621.808 6    -48789.446 6  23124679.392    23124683.627    23124679.914
        27.000          25.000
  -6838380.010 8  -5328606.918 8  21491666.339    21491669.386    21491666.434
       168.000         110.000
  -2153258.577 8  -1677858.170 8  21633740.510    21633743.683    21633740.297
       157.000         143.000
   6002768.733 8   4677481.618 7  21947186.800    21947191.157    21947187.324
       125.000          88.000
   -214421.689 7   -167078.639 7  21875716.910    21875719.600    21875717.087
        87.000          90.000
   9033361.720 6   7038983.981 5  24154497.968    24154501.625    24154498.570
        18.000           8.000
 03  4 13  2 12 30.0000000  0 11G 9G18G23G30G21G17G 6G26G 5G29G10
   1308991.748 6   1020004.359 6  24137809.310    24137816.296    24137809.857
        20.000          17.000
  -6850255.643 7  -5337849.613 7  22339546.604    22339550.721    22339546.880
        74.000          43.000
  -7532413.800 7  -5869402.085 7  22592466.599    22592472.503    22592467.309
        67.000          57.000
    498225.097 8    388229.504 8  21181925.480    21181929.029    21181925.025
       158.000         129.000
   -764852.724 6   -595978.329 6  23745925.184    23745927.056    23745925.588
        25.000          15.000
    -62675.201 6    -48831.006 6  23124669.186    23124673.445    23124669.910
        27.000          24.000
  -6902933.272 8  -5378908.152 8  21479382.220    21479385.444    21479382.089
       169.000         115.000
  -2158767.360 8  -1682150.687 8  21632692.285    21632695.238    21632692.139
       158.000         144.000
   6078683.723 8   4736636.198 7  21961633.322    21961637.096    21961633.719
       127.000          84.000
   -193355.314 7   -150663.254 7  21879725.551    21879728.256    21879725.517
        84.000          87.000
   9129504.245 6   7113900.229 5  24172793.266    24172796.756    24172794.114
        20.000           9.000
 03  4 13  2 13  0.0000000  0 11G 9G18G23G30G21G17G 6G26G 5G29G10
   1313095.717 6   1023202.411 6  24138589.943    24138596.896    24138589.933
        20.000          16.000
  -6903994.268 7  -5379723.798 7  22329320.516    22329324.699    22329320.692
        75.000          43.000
  -7595448.232 7  -5918519.780 7  22580471.392    22580477.298    22580471.981
        67.000          57.000
    525417.217 8    409418.162 8  21187100.012    21187103.333    21187099.691
       161.000         135.000
   -774320.159 6   -603355.507 6  23744123.502    23744125.137    23744123.944
        26.000          14.000
    -62755.909 6    -48893.856 6  23124653.628    23124658.021    23124654.436
        28.000          25.000
  -6967239.390 8  -5429016.801 8  21467145.131    21467148.371    21467145.184
       167.000         119.000
  -2163852.555 8  -1686113.132 8  21631724.745    21631727.651    21631724.703
       160.000         147.000
   6154770.987 8   4795925.003 7  21976111.193    21976116.579    21976111.675
       110.000          88.000
   -171761.442 7   -133836.823 7  21883834.495    21883837.488    21883834.384
        83.000          88.000
   9225604.338 6   7188783.425 5  24191080.324    24191083.913    24191080.890
        21.000           9.000
 03  4 13  2 13 30.0000000  0 11G 9G18G23G30G21G17G 6G26G 5G29G10
   1316980.485 6   1026229.659 6  24139328.934    24139335.800    24139328.952
        20.000          14.000
  -6957296.211 7  -5421257.692 7  22319177.327    22319181.378    22319177.465
        76.000          43.000
  -7658081.695 7  -5967325.013 7  22568552.983    22568558.708    22568553.627
        70.000          59.000
    553031.914 8    430936.059 8  21192354.887    21192358.483    21192354.356
       159.000         132.000
   -783846.343 6   -610778.467 6  23742310.975    23742312.561    23742311.000
        25.000          15.000
    -62859.743 6    -48974.726 6  23124633.752    23124638.004    23124634.334
        29.000          24.000
  -7031290.198 8  -5478926.507 8  21454956.535    21454959.828    21454956.608
       165.000         117.000
  -2168507.071 8  -1689739.984 8  21630838.666    21630841.854    21630838.472
       158.000         148.000
   6231033.279 8   4855350.179 7  21990624.050    21990628.761    21990624.625
       119.000          88.000
   -149634.052 7   -116594.665 7  21888045.336    21888048.229    21888045.608
        86.000          86.000
   9321665.214 6   7263636.061 5  24209360.275    24209363.539    24209360.802
        22.000           8.000
 03  4 13  2 14  0.0000000  0 11G 9G18G23G30G21G17G 6G26G 5G29G10
   1320607.009 6   1029055.694 6  24140019.039    24140025.756    24140018.851
        20.000          13.000
  -7010200.383 7  -5462481.642 7  22309109.694    22309113.897    22309109.800
        74.000          42.000
  -7720352.823 7  -6015847.893 7  22556703.000    22556708.844    22556703.549
        71.000          61.000
    581027.723 8    452751.030 8  21197682.357    21197685.792    21197681.986
       158.000         138.000
   -793472.126 6   -618279.031 6  23740479.099    23740480.555    23740479.662
        25.000          14.000
    -63027.111 6    -49105.100 6  23124601.707    23124606.234    23124602.542
        28.000          24.000
  -7095122.505 8  -5528665.956 8  21442809.621    21442812.931    21442809.672
       163.000         117.000
  -2172769.450 8  -1693061.274 8  21630027.654    21630030.558    21630027.512
       157.000         145.000
   6307428.108 8   4914878.659 7  22005161.672    22005165.445    22005162.205
       118.000          80.000
   -127012.428 7    -98967.393 7  21892350.173    21892352.808    21892350.353
        89.000          85.000
   9417645.318 6   7338425.757 5  24227624.635    24227628.058    24227625.232
        23.000           9.000
 03  4 13  2 14 30.0000000  0 11G 9G18G23G30G21G17G 6G26G 5G29G10
   1323993.890 6   1031694.992 6  24140662.984    24140669.879    24140662.889
        19.000          12.000
  -7062688.046 7  -5503381.002 7  22299121.556    22299126.065    22299121.720
        75.000          45.000
  -7782242.477 7  -6064073.508 7  22544925.715    22544931.343    22544926.263
        73.000          60.000
    609420.284 8    474875.056 8  21203085.269    21203088.866    21203084.734
       155.000         132.000
   -803180.777 6   -625844.167 6  23738631.089    23738633.169    23738631.682
        25.000          15.000
    -63241.328 6    -49271.968 6  23124561.009    23124565.184    23124561.959
        27.000          24.000
  -7158715.936 8  -5578219.260 8  21430708.068    21430711.477    21430708.129
       158.000         118.000
  -2176620.060 8  -1696061.698 8  21629294.855    21629297.814    21629294.646
       158.000         145.000
   6383970.722 8   4974522.288 7  22019726.427    22019731.238    22019726.919
       106.000          80.000
   -103878.081 7    -80940.589 7  21896752.345    21896755.043    21896752.453
        86.000          84.000
   9513560.501 6   7413164.873 6  24245876.566    24245880.299    24245877.193
        27.000          10.000
 03  4 13  2 15  0.0000000  0 11G 9G18G23G30G21G17G 6G26G 5G29G10
   1327144.799 6   1034150.421 6  24141262.810    24141269.406    24141262.680
        19.000          12.000
  -7114755.294 7  -5543952.769 7  22289213.319    22289217.674    22289213.428
        76.000          45.000
  -7843746.452 7  -6111998.596 7  22533222.008    22533227.412    22533222.598
        75.000          60.000
    638211.085 8    497309.446 8  21208564.161    21208567.677    21208563.659
       155.000         131.000
   -812970.297 6   -633472.330 6  23736768.637    23736770.644    23736769.113
        25.000          16.000
    -63501.347 6    -49474.534 6  23124511.550    23124515.715    23124512.595
        28.000          24.000
  -7222064.699 8  -5627581.914 8  21418653.026    21418656.644    21418652.984
       153.000         120.000
  -2180054.590 8  -1698737.908 8  21628641.195    21628644.243    21628640.973
       157.000         145.000
   6460661.226 8   5034281.148 7  22034320.727    22034325.635    22034321.288
       115.000          88.000
    -80227.720 7    -62511.701 7  21901252.842    21901255.630    21901253.012
        88.000          86.000
   9609411.907 6   7487854.289 5  24264116.496    24264120.274    24264116.850
        25.000           9.000
 03  4 13  2 15 30.0000000  0 11G 9G18G23G30G21G17G 6G26G 5G29G10
   1330076.493 6   1036435.028 6  24141820.721    24141826.939    24141820.319
        19.000          13.000
  -7166385.400 7  -5584183.909 7  22279388.618    22279392.495    22279388.887
        78.000          44.000
  -7904847.563 7  -6159609.780 7  22521594.748    22521600.271    22521595.331
        74.000          60.000
    667414.028 8    520064.982 8  21214121.544    21214124.594    21214121.179
       164.000         137.000
   -822825.790 6   -641151.902 6  23734892.843    23734894.944    23734893.213
        26.000          17.000
    -63792.518 6    -49701.378 6  23124456.241    23124460.137    23124457.214
        27.000          23.000
  -7285150.082 8  -5676739.346 8  21406648.405    21406651.820    21406648.378
       159.000         122.000
  -2183055.696 8  -1701076.396 8  21628070.155    21628072.924    21628069.957
       156.000         141.000
   6537512.957 8   5094165.644 7  22048945.117    22048949.672    22048945.502
       113.000          83.000
    -56044.754 7    -43667.810 7  21905854.930    21905857.569    21905855.328
        92.000          86.000
   9705214.041 6   7562505.293 5  24282347.359    24282351.035    24282347.691
        26.000           9.000
 03  4 13  2 16  0.0000000  0 11G 9G18G23G30G21G17G 6G26G 5G29G10
   1332799.660 6   1038557.133 6  24142338.641    24142345.212    24142338.872
        19.000          14.000
  -7217567.434 7  -5624065.897 7  22269649.086    22269652.829    22269649.231
        81.000          44.000
  -7965534.363 7  -6206898.106 7  22510046.471    22510051.764    22510047.143
        76.000          61.000
    697037.386 8    543148.094 8  21219758.796    21219761.733    21219758.441
       158.000         128.000
   -832738.131 6   -648875.789 6  23733006.812    23733008.892    23733007.572
        27.000          16.000
    -64105.407 6    -49945.151 6  23124396.541    23124400.656    23124397.181
        28.000          24.000
  -7347959.167 8  -5725681.483 8  21394696.482    21394699.726    21394696.437
       168.000         123.000
  -2185611.679 8  -1703068.039 8  21627583.647    21627586.342    21627583.494
       154.000         140.000
   6614533.391 8   5154181.585 7  22063601.046    22063605.606    22063601.461
       101.000          76.000
    -31318.557 7    -24400.617 7  21910560.090    21910562.745    21910560.167
        90.000          84.000
   9800974.868 6   7637124.113 5  24300570.313    24300573.773    24300571.047
        26.000           9.000
 03  4 13  2 16 30.0000000  0 11G 9G18G23G30G21G17G 6G26G 5G29G10
   1335322.974 6   1040523.515 6  24142818.592    24142825.406    24142818.834
        18.000          16.000
  -7268292.852 7  -5663592.054 7  22259996.456    22259999.994    22259996.675
        80.000          44.000
  -8025798.009 7  -6253856.679 7  22498578.336    22498583.952    22498578.951
        76.000          61.000
    727086.936 8    566563.283 8  21225476.981    21225479.986    21225476.662
       159.000         131.000
   -842700.338 6   -656638.514 6  23731111.032    23731113.009    23731111.487
        27.000          17.000
    -64433.709 6    -50200.926 6  23124333.950    23124338.357    23124334.522
        27.000          23.000
  -7410481.389 8  -5774400.083 8  21382798.989    21382802.074    21382798.907
       171.000         120.000
  -2187713.519 8  -1704705.796 8  21627183.812    21627186.480    21627183.780
       155.000         142.000
   6691727.574 8   5214332.936 7  22078291.323    22078295.561    22078291.794
       110.000          81.000
     -6041.031 7     -4703.814 7  21915370.079    21915372.951    21915369.360
        87.000          83.000
   9896700.211 6   7711715.305 5  24318786.340    24318789.516    24318787.354
        24.000           9.000
 03  4 13  2 17  0.0000000  0 11G 9G18G23G30G21G17G 6G26G 5G29G10
   1337618.696 6   1042312.545 6  24143255.630    24143262.252    24143255.493
        20.000          17.000
  -7318589.171 7  -5702783.843 7  22250425.006    22250428.713    22250425.190
        78.000          44.000
  -8085665.886 7  -6300506.859 7  22487185.916    22487191.468    22487186.493
        76.000          62.000
    757532.389 8    590287.031 8  21231270.252    21231273.644    21231269.870
       158.000         139.000
   -852742.314 6   -664463.404 6  23729200.141    23729201.819    23729200.318
        28.000          16.000
    -64807.300 6    -50491.997 6  23124262.845    23124267.415    23124263.213
        28.000          24.000
  -7472742.558 8  -5822915.261 8  21370951.033    21370953.955    21370950.975
       178.000         120.000
  -2189388.253 8  -1706010.748 8  21626865.208    21626867.845    21626865.096
       158.000         141.000
   6769064.209 8   5274595.289 7  22093007.520    22093012.801    22093007.976
       103.000          86.000
     19759.374 7     15400.432 7  21920279.816    21920282.551    21920279.358
        86.000          82.000
   9992359.630 6   7786255.115 5  24336989.543    24336992.635    24336990.142
        22.000           8.000
 03  4 13  2 17 30.0000000  0 11G 9G18G23G30G21G17G 6G26G 5G29G10
   1339657.442 6   1043901.372 6  24143643.584    24143649.976    24143643.833
        21.000          16.000
  -7368485.880 7  -5741664.205 7  22240929.856    22240933.705    22240930.111
        79.000          45.000
  -8145167.033 7  -6346871.230 7  22475862.926    22475868.534    22475863.573
        75.000          62.000
    788341.340 8    614293.991 8  21237133.024    21237136.556    21237132.739
       145.000         124.000
   -862895.198 6   -672374.687 6  23727267.966    23727269.696    23727268.518
        27.000          16.000
    -65256.866 6    -50842.243 6  23124177.238    23124181.526    23124177.939
        27.000          23.000
  -7534770.148 8  -5871248.408 8  21359147.733    21359150.629    21359147.599
       180.000         124.000
  -2190664.713 8  -1707005.319 8  21626622.280    21626624.874    21626622.121
       157.000         139.000
   6846510.386 7   5334943.003 7  22107744.674    22107749.683    22107745.237
        96.000          77.000
     46053.052 7     35889.066 7  21925283.429    21925286.038    21925283.247
        86.000          82.000
  10087921.282 6   7860718.777 5  24355173.811    24355177.504    24355174.217
        20.000           8.000
 03  4 13  2 18  0.0000000  0 11G 9G18G23G30G21G17G 6G26G 5G29G10
   1341455.098 6   1045302.322 6  24143985.320    24143991.768    24143985.407
        22.000          15.000
  -7417967.140 7  -5780220.884 7  22231513.832    22231517.556    22231514.080
        77.000          45.000
  -8204285.177 7  -6392937.173 7  22464613.057    22464618.525    22464613.688
        74.000          62.000
    819527.276 8    638594.768 8  21243067.349    21243070.776    21243067.015
       151.000         133.000
   -873144.708 6   -680361.280 6  23725317.494    23725319.443    23725318.120
        27.000          16.000
    -65768.437 6    -51240.822 6  23124080.436    23124084.232    23124080.584
        27.000          24.000
  -7596546.174 8  -5919385.535 8  21347392.239    21347395.288    21347392.345
       179.000         128.000
  -2191526.327 8  -1707676.657 8  21626458.067    21626460.852    21626457.907
       153.000         137.000
   6924078.707 8   5395385.911 7  22122506.670    22122509.780    22122507.244
       106.000          71.000
     72855.644 7     56774.247 7  21930383.701    21930386.358    21930384.182
        80.000          82.000
  10183398.392 6   7935116.533 5  24373342.412    24373346.253    24373342.783
        17.000           8.000
 03  4 13  2 18 30.0000000  0 11G 9G18G23G30G21G17G 6G26G 5G29G10
   1343023.610 6   1046524.709 6  24144283.750    24144289.825    24144283.840
        21.000          14.000
  -7467021.170 7  -5818444.625 7  22222178.824    22222182.690    22222178.805
        78.000          45.000
  -8263008.152 7  -6438695.186 7  22453438.524    22453444.029    22453439.237
        76.000          62.000
    851099.125 8    663196.224 8  21249075.412    21249078.884    21249075.098
       152.000         131.000
   -883480.640 6   -688415.221 6  23723350.579    23723352.409    23723351.254
        26.000          16.000
    -66332.101 6    -51679.991 6  23123972.871    23123976.794    23123973.250
        27.000          25.000
  -7658056.871 8  -5967315.917 8  21335687.022    21335690.048    21335687.023
       181.000         127.000
  -2191960.772 8  -1708015.138 8  21626375.538    21626378.113    21626375.440
       158.000         137.000
   7001777.319 7   5455930.353 7  22137291.370    22137296.156    22137291.871
        94.000          79.000
    100178.332 7     78064.689 7  21935583.005    21935585.598    21935583.157
        79.000          81.000
  10278800.242 6   8009455.644 5  24391497.154    24391500.351    24391497.625
        15.000           8.000
 03  4 13  2 19  0.0000000  0 11G 9G18G23G30G21G17G 6G26G 5G29G10
   1344355.877 6   1047563.002 6  24144537.230    24144543.348    24144537.186
        19.000          14.000
  -7515655.183 7  -5856341.106 7  22212924.220    22212927.893    22212924.552
        80.000          45.000
  -8321343.130 7  -6484150.881 7  22442337.812    22442342.838    22442338.274
        80.000          63.000
    883046.866 8    688090.516 8  21255154.979    21255158.477    21255154.585
       148.000         124.000
   -893911.763 6   -696543.348 6  23721365.643    23721367.503    23721365.848
        25.000          15.000
    -66957.239 6    -52167.084 6  23123853.960    23123857.678    23123854.270
        27.000          25.000
  -7719307.445 8  -6015043.627 8  21324031.338    21324034.175    21324031.397
       183.000         125.000
  -2191974.846 8  -1708026.064 8  21626372.937    21626375.506    21626372.841
       161.000         139.000
   7079595.730 7   5516568.079 7  22152099.103    22152104.960    22152099.626
        88.000          83.000
    128013.389 7     99754.363 7  21940879.772    21940882.359    21940879.196
        79.000          79.000
  10374117.033 6   8083728.472 5  24409635.413    24409638.801    24409635.683
        13.000           9.000
 03  4 13  2 19 30.0000000  0 11G 9G18G23G30G21G17G 6G26G 5G29G10
   1345476.558 6   1048436.383 6  24144750.253    24144756.552    24144750.085
        18.000          14.000
  -7563844.479 7  -5893891.097 7  22203753.671    22203757.429    22203753.801
        82.000          45.000
  -8379264.895 7  -6529284.626 7  22431315.676    22431320.304    22431316.285
        81.000          62.000
    915392.595 8    713294.944 8  21261310.235    21261313.359    21261309.854
       152.000         124.000
   -904415.477 6   -704728.073 6  23719366.762    23719368.703    23719366.853
        24.000          15.000
    -67620.781 6    -52684.137 6  23123727.365    23123731.494    23123727.939
        26.000          26.000
  -7780271.392 8  -6062548.019 8  21312430.304    21312433.114    21312430.369
       183.000         126.000
  -2191543.126 8  -1707689.663 8  21626454.895    21626457.720    21626454.716
       162.000         141.000
   7157555.073 8   5577315.618 7  22166935.628    22166939.265    22166936.266
       103.000          74.000
    156384.938 7    121862.055 7  21946278.648    21946281.298    21946279.440
        78.000          79.000
  10469370.906 6   8157952.237 5  24427761.686    24427764.978    24427762.087
        12.000           8.000
 03  4 13  2 20  0.0000000  0 12G 9G18G23G30G21G17G15G 6G26G 5G29G10
   1346382.855 6   1049142.721 6  24144922.805    24144928.665    24144922.759
        19.000          14.000
  -7611592.189 7  -5931096.959 7  22194667.636    22194671.325    22194667.942
        84.000          46.000
  -8436776.251 7  -6574098.530 7  22420371.241    22420376.390    22420371.815
        83.000          64.000
    948130.447 8    738804.941 8  21267540.052    21267543.322    21267539.709
       159.000         132.000
   -914996.331 6   -712972.887 6  23717353.254    23717355.250    23717353.674
        24.000          15.000
    -68327.983 6    -53235.194 6  23123592.832    23123596.995    23123593.548
        28.000          28.000
         -.48815          .26214  25379118.163    25379122.887    25379120.066
         6.000           1.000
  -7840949.597 8  -6109829.737 8  21300883.556    21300886.541    21300883.462
       190.000         128.000
  -2190668.308 8  -1707007.958 8  21626621.238    21626624.018    21626621.019
       162.000         139.000
   7235649.206 7   5638168.233 7  22181795.697    22181799.639    22181796.072
        92.000          71.000
    185289.565 7    144385.145 7  21951778.698    21951781.537    21951778.642
        78.000          77.000
  10564556.344 6   8232122.690 5  24445873.869    24445878.032    24445874.676
        11.000           8.000
 03  4 13  2 20 30.0000000  0 11G 9G18G23G30G21G17G 6G26G 5G29G10
   1347065.395 6   1049674.733 6  24145052.388    24145058.556    24145052.902
        20.000          16.000
  -7658907.657 7  -5967966.008 7  22185663.524    22185667.483    22185663.704
        84.000          47.000
  -8493886.226 7  -6618599.663 7  22409503.476    22409508.703    22409504.096
        80.000          64.000
    981248.061 8    764610.830 8  21273842.149    21273845.430    21273841.635
       157.000         124.000
   -925665.366 6   -721286.397 6  23715322.604    23715324.989    23715322.892
        23.000          16.000
    -69089.823 6    -53828.801 6  23123447.913    23123452.022    23123448.562
        27.000          27.000
  -7901349.488 8  -6156894.570 8  21289389.848    21289392.779    21289389.780
       196.000         130.000
  -2189359.198 8  -1705987.823 8  21626870.282    21626872.979    21626870.070
       164.000         139.000
   7313865.189 7   5699115.780 7  22196678.646    22196684.319    22196679.199
        83.000          78.000
    214717.358 7    167315.924 7  21957378.624    21957381.375    21957378.602
        78.000          78.000
  10659661.108 6   8306230.296 5  24463971.638    24463976.401    24463972.310
        12.000           9.000
 03  4 13  2 21  0.0000000  0 11G 9G18G23G30G21G17G 6G26G 5G29G10
   1347532.724 6   1050039.049 6  24145141.695    24145147.333    24145141.908
        22.000          17.000
  -7705782.872 7  -6004491.983 7  22176743.255    22176747.215    22176743.383
        84.000          47.000
  -8550586.255 7  -6662781.352 7  22398713.449    22398718.852    22398713.899
        81.000          65.000
   1014751.202 8    790717.131 8  21280217.712    21280220.741    21280217.271
       153.000         118.000
   -936416.119 6   -729663.587 6  23713276.713    23713278.916    23713276.926
        24.000          16.000
    -69900.206 6    -54460.246 6  23123293.475    23123297.754    23123294.036
        28.000          27.000
  -7961460.969 8  -6203734.668 8  21277950.870    21277953.870    21277950.875
       195.000         132.000
  -2187606.977 8  -1704622.413 8  21627203.639    21627206.461    21627203.496
       164.000         140.000
   7392207.867 7   5760162.046 7  22211587.984    22211592.925    22211588.466
        95.000          82.000
    244675.839 7    190660.221 7  21963079.883    21963082.377    21963079.971
        84.000          79.000
  10754691.117 6   8380279.648 5  24482055.936    24482059.102    24482056.794
        12.000           7.000
 03  4 13  2 21 30.0000000  0 11G 9G18G23G30G21G17G 6G26G 5G29G10
   1347766.154 6   1050221.089 6  24145185.694    24145191.504    24145185.661
        21.000          16.000
  -7752236.958 7  -6040689.835 7  22167903.614    22167906.898    22167903.706
        86.000          47.000
  -8606895.067 7  -6706658.196 7  22387998.280    22388003.504    22387999.000
        80.000          66.000
   1048618.098 8    817106.890 8  21286662.452    21286665.544    21286662.058
       155.000         121.000
   -947269.156 6   -738120.478 6  23711211.776    23711213.780    23711211.658
        22.000          16.000
    -70779.699 6    -55145.538 6  23123125.935    23123130.163    23123126.666
        27.000          26.000
  -8021300.934 8  -6250363.200 8  21266563.583    21266566.692    21266563.624
       195.000         132.000
  -2185430.089 8  -1702926.099 8  21627617.998    21627620.821    21627617.854
       167.000         141.000
   7470654.836 7   5821289.600 7  22226515.770    22226519.904    22226516.201
        90.000          71.000
    275145.605 7    214402.921 7  21968877.911    21968880.473    21968876.747
        81.000          76.000
  10849625.006 6   8454254.109 5  24500121.632    24500124.906    24500122.740
        11.000           7.000
 03  4 13  2 22  0.0000000  0 12G 9G18G23G30G21G17G15G 6G26G 5G29G10
   1347767.846 6   1050222.562 6  24145185.774    24145191.904    24145185.618
        22.000          17.000
  -7798267.751 7  -6076557.836 7  22159143.941    22159147.466    22159144.078
        87.000          46.000
  -8662810.319 7  -6750228.371 7  22377357.765    22377362.909    22377358.391
        84.000          65.000
   1082848.168 8    843779.684 8  21293175.998    21293179.444    21293175.604
       153.000         121.000
   -958223.787 6   -746656.529 6  23709127.299    23709129.374    23709126.947
        23.000          16.000
    -71727.979 6    -55884.423 6  23122945.414    23122949.641    23122945.928
        28.000          25.000
         -.23215         -.20714  25367651.685    25367658.095    25367652.699
         8.000           2.000
  -8080864.862 8  -6296776.629 8  21255228.913    21255232.063    21255228.837
       197.000         133.000
  -2182825.853 8  -1700896.777 8  21628113.537    21628116.378    21628113.347
       170.000         143.000
   7549204.870 7   5882497.452 7  22241462.357    22241467.126    22241462.784
        80.000          69.000
    306128.256 7    238545.274 7  21974773.692    21974776.212    21974772.746
        85.000          77.000
  10944462.443 6   8528153.424 5  24518168.169    24518171.653    24518169.550
        11.000           6.000
 03  4 13  2 22 30.0000000  0 12G 9G18G23G30G21G17G15G 6G26G 5G29G10
   1347538.016 6   1050043.638 6  24145141.532    24145148.088    24145141.334
        22.000          18.000
  -7843875.059 7  -6112095.854 7  22150464.940    22150468.681    22150465.066
        88.000          47.000
  -8718331.556 7  -6793491.512 7  22366792.102    22366797.535    22366792.575
        84.000          65.000
   1117438.878 8    870733.551 8  21299758.186    21299761.570    21299757.661
       154.000         121.000
   -969281.531 6   -755272.937 6  23707022.933    23707025.179    23707023.057
        24.000          15.000
    -72746.684 6    -56678.187 6  23122751.537    23122755.805    23122751.708
        28.000          26.000
    -15190.078 5                  25364762.162                    25364762.027
         7.000
  -8140150.805 8  -6342973.451 8  21243947.115    21243950.264    21243947.017
       200.000         133.000
  -2179793.602 8  -1698533.944 8  21628690.304    21628693.205    21628690.040
       164.000         139.000
   7627854.749 7   5943783.109 7  22256429.873    22256434.634    22256430.368
        90.000          77.000
    337623.342 7    263086.928 7  21980767.201    21980769.557    21980767.688
        90.000          77.000
  11039201.246 6   8601975.865 5  24536195.947    24536199.771    24536197.153
        12.000           5.000
 03  4 13  2 23  0.0000000  0 11G 9G18G23G30G21G17G 6G26G 5G29G10
   1347090.229 6   1049694.869 6  24145056.707    24145062.551    24145056.937
        23.000          16.000
  -7889046.250 7  -6147294.041 7  22141868.940    22141872.705    22141869.067
        88.000          48.000
  -8773445.503 7  -6836437.300 7  22356304.233    22356309.446    22356304.851
        85.000          65.000
   1152400.125 8    897976.121 8  21306411.010    21306414.425    21306410.459
       153.000         125.000
   -980431.010 6   -763960.828 6  23704901.097    23704903.315    23704901.295
        25.000          16.000
    -73824.333 6    -57517.888 6  23122546.303    23122550.805    23122546.505
        29.000          25.000
  -8199143.786 8  -6388941.995 8  21232721.177    21232724.233    21232721.115
       206.000         131.000
  -2176320.055 8  -1695827.245 8  21629351.426    21629354.051    21629351.239
       164.000         139.000
   7706613.995 7   6005153.984 7  22271417.258    22271422.176    22271417.447
        89.000          79.000
    369643.132 7    288037.439 7  21986860.072    21986862.816    21986860.382
        87.000          77.000
  11133851.853 6   8675729.582 5  24554207.079    24554210.728    24554207.701
        11.000           4.000
 03  4 13  2 23 30.0000000  0 11G 9G18G23G30G21G17G 6G26G 5G29G10
   1346420.595 6   1049173.224 6  24144929.506    24144935.181    24144929.587
        22.000          16.000
  -7933785.513 7  -6182155.662 7  22133355.243    22133358.815    22133355.413
        88.000          47.000
  -8828155.966 7  -6879068.682 7  22345893.071    22345898.253    22345893.323
        86.000          65.000
   1187725.190 8    925502.122 8  21313132.980    21313136.817    21313132.514
       143.000         114.000
   -991677.821 6   -772724.564 6  23702760.833    23702763.102    23702761.219
        26.000          16.000
    -74966.445 6    -58407.812 6  23122329.275    23122333.426    23122329.254
        30.000          25.000
  -8257845.836 8  -6434683.840 8  21221550.637    21221553.630    21221550.622
       219.000         132.000
  -2172408.616 8  -1692779.331 8  21630095.667    21630098.524    21630095.302
       164.000         142.000
   7785475.391 7   6066604.446 7  22286423.412    22286428.069    22286423.855
        83.000          67.000
    402182.965 7    313393.179 7  21993052.271    21993054.920    21993051.282
        88.000          76.000
  11228407.931 6   8749409.656 4  24572201.030    24572203.863    24572201.670
        11.000           3.000
 03  4 13  2 24  0.0000000  0 12G 9G18G23G30G21G17G15G 6G26G 5G29G10
   1345524.973 6   1048475.485 6  24144758.733    24144764.442    24144758.630
        20.000          14.000
  -7978096.914 7  -6216683.894 7  22124922.806    22124926.345    22124922.621
        89.000          46.000
  -8882467.048 7  -6921388.864 7  22335558.104    22335563.144    22335558.729
        85.000          66.000
   1223407.128 8    953306.279 8  21319923.122    21319926.563    21319922.720
       148.000         119.000
  -1003027.896 6   -781568.761 6  23700601.162    23700603.328    23700601.325
        26.000          16.000
    -76179.558 6    -59353.065 6  23122098.503    23122102.372    23122098.849
        30.000          24.000
         -.17415         -.07815  25356036.094    25356040.118    25356036.269
         9.000           4.000
  -8316259.162 8  -6480200.709 8  21210434.938    21210437.853    21210434.866
       219.000         130.000
  -2168063.367 8  -1689393.388 8  21630922.637    21630925.484    21630922.385
       166.000         145.000
   7864431.323 7   6128128.595 7  22301448.920    22301452.737    22301449.405
        88.000          64.000
    435238.030 7    339150.395 7  21999342.396    21999344.932    21999341.441
        88.000          73.000
  11322862.837 6   8823010.881 4  24590174.967    24590177.685    24590175.800
        12.000           3.000
 03  4 13  2 24 30.0000000  0 12G 9G18G23G30G21G17G15G 6G26G 5G29G10
   1344411.869 6   1047608.284 6  24144546.702    24144552.077    24144546.678
        21.000          13.000
  -8021972.958 7  -6250872.882 7  22116573.690    22116576.972    22116573.750
        92.000          47.000
  -8936370.387 7  -6963391.328 7  22325300.305    22325305.839    22325300.797
        85.000          66.000
   1259450.948 8    981392.356 8  21326781.839    21326785.382    21326781.224
       142.000         111.000
  -1014474.452 6   -790488.141 6  23698422.905    23698424.938    23698423.440
        26.000          16.000
    -77457.039 6    -60348.470 6  23121855.290    23121859.257    23121855.786
        30.000          24.000
    -15388.737 5    -11991.019 4  25353107.003    25353111.032    25353107.492
         8.000           2.000
  -8374373.561 8  -6525484.644 8  21199376.108    21199378.847    21199376.055
       222.000         130.000
  -2163275.582 8  -1685662.613 8  21631833.610    21631836.426    21631833.362
       164.000         143.000
   7943486.618 7   6189730.167 7  22316492.161    22316497.094    22316492.479
        84.000          71.000
    468815.656 7    365314.805 7  22005732.141    22005734.479    22005732.051
        89.000          71.000
  11417222.114 6   8896537.585 5  24608131.200    24608134.327    24608131.891
        15.000           4.000
 03  4 13  2 25  0.0000000  0 12G 9G18G23G30G21G17G15G 6G26G 5G29G10
   1343073.638 6   1046565.659 6  24144291.695    24144297.680    24144291.566
        20.000          14.000
  -8065421.657 7  -6284728.885 7  22108305.850    22108309.149    22108306.109
        95.000          48.000
  -8989873.728 7  -7005082.098 7  22315118.988    22315124.117    22315119.548
        86.000          66.000
   1295846.142 8   1009752.303 8  21333707.881    21333711.302    21333707.487
       147.000         117.000
  -1026027.145 6   -799490.228 6  23696224.418    23696226.608    23696224.879
        25.000          16.000
    -78808.483 6    -61401.508 6  23121598.082    23121602.064    23121598.812
        30.000          24.000
    -30837.190 5    -24028.645 4  25350167.272    25350171.590    25350168.193
         9.000           2.000
  -8432195.142 8  -6570540.410 8  21188373.116    21188375.883    21188373.132
       227.000         131.000
  -2158052.963 8  -1681593.008 8  21632827.178    21632830.096    21632826.959
       156.000         141.000
   8022629.905 7   6251400.266 7  22331551.984    22331557.821    22331552.448
        77.000          73.000
    502907.141 7    391879.621 7  22012219.416    22012221.722    22012218.857
        86.000          68.000
  11511475.456 6   8969981.740 4  24626067.045    24626069.763    24626067.192
        16.000           3.000
 03  4 13  2 25 30.0000000  0 12G 9G18G23G30G21G17G15G 6G26G 5G29G10
   1341508.828 6   1045346.465 6  24143993.766    24143999.808    24143993.833
        20.000          15.000
  -8108444.943 7  -6318253.393 7  22100118.385    22100122.060    22100118.225
        96.000          50.000
  -9042978.749 7  -7046462.503 7  22305013.554    22305018.277    22305014.013
        87.000          66.000
   1332588.139 8   1038382.508 8  21340699.510    21340702.999    21340698.902
       142.000         117.000
  -1037689.052 6   -808577.416 6  23694005.180    23694007.398    23694005.499
        25.000          17.000
    -80237.136 6    -62514.708 6  23121326.260    23121330.200    23121326.813
        30.000          24.000
    -46348.959 5    -36115.604 4  25347215.506    25347219.290    25347215.861
         9.000           2.000
  -8489723.505 8  -6615367.693 8  21177425.845    21177428.723    21177425.915
       230.000         134.000
  -2152396.728 8  -1677185.517 8  21633903.676    21633906.369    21633903.471
       154.000         139.000
   8101856.169 7   6313135.050 7  22346629.397    22346633.328    22346629.843
        88.000          63.000
    537510.178 7    418843.053 7  22018804.028    22018806.603    22018803.657
        83.000          70.000
  11605618.657 6   9043340.070 4  24643982.210    24643984.783    24643983.018
        16.000           3.000
 03  4 13  2 26  0.0000000  0 12G 9G18G23G30G21G17G15G 6G26G 5G29G10
   1339720.876 6   1043953.406 6  24143653.357    24143659.219    24143653.725
        21.000          15.000
  -8151040.129 7  -6351444.323 7  22092012.801    22092016.198    22092013.094
        98.000          51.000
  -9095682.097 7  -7087529.913 7  22294984.173    22294989.132    22294984.697
        88.000          67.000
   1369677.092 8   1067283.077 8  21347757.410    21347760.705    21347757.016
       144.000         119.000
  -1049458.874 6   -817748.694 6  23691765.531    23691767.752    23691765.954
        25.000          17.000
    -81741.889 6    -63687.203 6  23121039.946    23121043.967    23121040.186
        30.000          25.000
    -61922.983 5    -48251.138 5  25344252.515    25344257.465    25344252.567
         8.000           4.000
  -8546953.621 8  -6659962.576 8  21166535.289    21166538.113    21166535.195
       230.000         136.000
  -2146303.436 8  -1672437.466 8  21635063.109    21635065.873    21635062.977
       154.000         141.000
   8181165.448 7   6374934.550 7  22361721.472    22361724.892    22361721.865
        84.000          57.000
    572626.888 7    446206.752 7  22025486.543    22025489.306    22025486.245
        84.000          73.000
  11699652.484 6   9116613.201 4  24661876.818    24661878.922    24661877.627
        18.000           3.000
 03  4 13  2 26 30.0000000  0 12G 9G18G23G30G21G17G15G 6G26G 5G29G10
   1337704.211 6   1042382.125 6  24143269.970    24143275.218    24143270.068
        23.000          15.000
  -8193213.156 8  -6384306.300 7  22083987.276    22083990.799    22083987.149
       101.000          52.000
  -9147989.635 7  -7128288.908 7  22285030.096    22285035.285    22285030.533
        87.000          67.000
   1407104.302 8   1096447.192 8  21354879.350    21354882.844    21354878.815
       140.000         117.000
  -1061343.892 6   -827009.737 6  23689503.943    23689506.275    23689504.442
        24.000          17.000
    -83330.270 6    -64924.860 6  23120737.618    23120741.745    23120738.205
        30.000          26.000
    -77567.513 5    -60441.508 4  25341272.792    25341280.255    25341273.657
         6.000           1.000
  -8603889.219 8  -6704327.964 8  21155700.867    21155703.528    21155700.809
       234.000         138.000
  -2139778.656 8  -1667353.192 8  21636304.803    21636307.551    21636304.520
       159.000         143.000
   8260548.357 7   6436791.391 7  22376825.901    22376831.726    22376826.377
        71.000          65.000
    608250.818 7    473965.689 7  22032265.449    22032267.960    22032265.301
        79.000          70.000
  11793568.984 6   9189794.896 4  24679747.948    24679750.506    24679748.492
        18.000           2.000
 03  4 13  2 27  0.0000000  0 11G 9G18G23G30G21G17G 6G26G 5G29G10
   1335491.999 6   1040658.473 6  24142848.732    24142854.177    24142848.599
        23.000          14.000
  -8234931.507 8  -6416813.982 7  22076048.654    22076051.853    22076048.603
       102.000          51.000
  -9199868.319 7  -7168713.726 7  22275157.778    22275162.885    22275158.106
        87.000          67.000
   1444899.730 8   1125898.224 8  21362071.718    21362074.994    21362071.304
       140.000         114.000
  -1073312.749 6   -836336.099 6  23687226.324    23687228.343    23687226.530
        24.000          17.000
    -84971.324 6    -66203.564 6  23120425.120    23120429.269    23120425.907
        29.000          26.000
  -8660495.487 8  -6748436.728 8  21144929.069    21144931.780    21144929.107
       238.000         143.000
  -2132789.332 8  -1661906.931 8  21637634.750    21637637.631    21637634.558
       156.000         143.000
   8340034.349 7   6498728.532 7  22391953.029    22391957.862    22391953.503
        82.000          69.000
    644413.796 7    502144.654 7  22039147.033    22039149.287    22039146.649
        79.000          68.000
  11887398.740 6   9262908.991 4  24697602.762    24697606.222    24697603.119
        18.000           2.000
 03  4 13  2 27 30.0000000  0 12G 9G18G23G30G21G17G15G 6G26G 5G29G10
   1333059.733 6   1038763.346 6  24142385.979    24142391.243    24142385.814
        21.000          14.000
  -8276220.378 8  -6448987.018 7  22068191.611    22068194.569    22068191.859
       102.000          50.000
  -9251343.197 7  -7208823.898 7  22265362.307    22265367.252    22265362.843
        89.000          67.000
   1483035.416 8   1155614.440 8  21369328.777    21369332.112    21369328.267
       142.000         119.000
  -1085391.849 6   -845748.364 6  23684927.753    23684929.853    23684928.142
        24.000          16.000
    -86691.146 6    -67543.648 6  23120098.044    23120101.947    23120098.385
        29.000          27.000
         -.92915         -.59315  25335292.552    25335296.250    25335293.147
         9.000           4.000
  -8716795.414 8  -6792306.787 8  21134215.469    21134218.354    21134215.409
       234.000         146.000
  -2125360.093 8  -1656117.883 8  21639048.409    21639051.246    21639048.146
       153.000         140.000
   8419595.195 7   6560724.044 7  22407093.680    22407096.961    22407094.070
        89.000          60.000
    681090.048 7    530723.575 7  22046126.190    22046128.741    22046126.314
        76.000          69.000
  11981114.442 6   9335934.225 4  24715436.550    24715439.362    24715437.176
        17.000           2.000
 03  4 13  2 28  0.0000000  0 12G 9G18G23G30G21G17G15G 6G26G 5G29G10
   1330396.967 6   1036688.598 6  24141878.847    24141884.524    24141879.084
        22.000          15.000
  -8317090.927 8  -6480834.084 7  22060413.885    22060417.002    22060413.729
       105.000          51.000
  -9302424.888 7  -7248627.690 7  22255641.598    22255646.496    22255641.959
        91.000          67.000
   1521497.809 8   1185585.173 8  21376647.706    21376651.012    21376647.181
       142.000         117.000
  -1097593.321 6   -855255.975 6  23682605.647    23682608.042    23682606.247
        23.000          15.000
    -88502.214 6    -68954.833 6  23119753.328    23119757.241    23119753.902
        29.000          26.000
    -15830.352 5    -12335.062 5  25332279.093    25332284.649    25332280.637
         7.000           5.000
  -8772797.615 8  -6835944.851 8  21123558.560    21123561.471    21123558.470
       228.000         147.000
  -2117501.304 8  -1649994.125 8  21640543.846    21640546.430    21640543.659
       156.000         134.000
   8499217.185 7   6622767.205 7  22422243.031    22422247.911    22422243.205
        67.000          53.000
    718268.090 7    559693.506 7  22053200.825    22053203.681    22053200.821
        76.000          72.000
  12074702.867 6   9408860.285 4  24733245.867    24733248.209    24733246.527
        19.000           1.000
 03  4 13  2 28 30.0000000  0 11G 9G18G23G30G21G17G15G 6G26G 5G29
   1327542.494 6   1034464.472 6  24141335.310    24141341.477    24141335.496
        20.000          16.000
  -8357505.350 8  -6512325.731 7  22052723.309    22052726.198    22052723.472
       105.000          51.000
  -9353074.974 7  -7288095.173 7  22246003.624    22246008.259    22246004.281
        95.000          69.000
   1560322.223 8   1215837.994 8  21384035.874    21384039.051    21384035.489
       143.000         116.000
  -1109880.202 6   -864830.145 6  23680267.530    23680269.784    23680268.013
        24.000          15.000
    -90368.323 6    -70408.910 6  23119398.117    23119402.060    23119398.941
        29.000          26.000
    -31702.811 5    -24703.138 4  25329260.192    25329262.934    25329260.234
         8.000           2.000
  -8828461.939 8  -6879319.633 8  21112965.920    21112968.781    21112965.726
       222.000         151.000
  -2109174.562 8  -1643505.728 8  21642128.372    21642130.912    21642128.021
       157.000         135.000
   8578935.136 7   6684885.094 7  22437413.383    22437418.332    22437413.713
        70.000          58.000
    755985.097 7    589083.405 7  22060377.986    22060381.103    22060378.296
        76.000          74.000
 03  4 13  2 29  0.0000000  0 12G 9G18G23G30G21G17G15G 6G26G 5G29G10
   1324483.722 6   1032081.151 6  24140753.023    24140759.077    24140753.146
        18.000          14.000
  -8397476.718 8  -6543472.142 7  22045116.885    22045119.785    22045116.825
       106.000          52.000
  -9403306.242 7  -7327236.311 7  22236444.786    22236449.667    22236445.264
        97.000          72.000
   1599492.923 8   1246360.635 8  21391489.431    21391493.226    21391488.833
       138.000         116.000
  -1122267.159 6   -874482.300 6  23677910.440    23677912.670    23677910.854
        25.000          16.000
    -92303.661 6    -71916.930 6  23119029.764    23119033.661    23119030.081
        29.000          26.000
    -47633.065 5    -37116.242 4  25326227.269    25326233.621    25326228.466
         8.000           3.000
  -8883799.233 8  -6922439.584 8  21102435.485    21102438.427    21102435.389
       215.000         152.000
  -2100392.528 8  -1636662.555 8  21643799.638    21643802.409    21643799.449
       162.000         139.000
   8658732.732 7   6747065.081 7  22452600.234    22452603.803    22452600.650
        91.000          62.000
    794227.375 7    618882.603 7  22067655.608    22067658.299    22067655.514
        78.000          74.000
        -1.19816         -.73814  24768810.014    24768811.241    24768810.180
        18.000           1.000
 03  4 13  2 29 30.0000000  0 11G 9G18G23G30G21G17G15G 6G26G 5G29
   1321212.015 6   1029531.907 6  24140130.604    24140135.897    24140130.798
        19.000          13.000
  -8437014.060 8  -6574280.348 7  22037593.312    22037596.214    22037593.421
       108.000          53.000
  -9453127.483 7  -7366057.941 7  22226963.972    22226968.773    22226964.391
        97.000          73.000
   1638998.166 8   1277143.929 8  21399007.142    21399010.465    21399006.681
       137.000         112.000
  -1134764.500 6   -884220.461 6  23675532.193    23675534.451    23675532.828
        25.000          15.000
    -94318.545 6    -73486.934 6  23118646.307    23118650.192    23118646.703
        30.000          26.000
    -63631.818 5    -49582.734 4  25323183.210    25323186.916    25323183.852
         7.000           1.000
  -8938816.225 8  -6965309.953 8  21091965.946    21091969.186    21091965.886
       209.000         155.000
  -2091163.651 8  -1629471.194 8  21645555.885    21645558.663    21645555.566
       166.000         140.000
   8738598.031 7   6809297.827 7  22467796.827    22467801.167    22467797.205
        74.000          55.000
    832985.384 7    649083.670 7  22075031.197    22075033.513    22075030.777
        84.000          75.000
 03  4 13  2 30  0.0000000  0 11G 9G18G23G30G21G17G 6G26G 5G29G10
   1317715.502 6   1026807.477 6  24139465.010    24139470.226    24139465.321
        19.000          13.000
  -8476130.340 8  -6604760.466 7  22030149.662    22030152.757    22030149.831
       110.000          55.000
  -9502551.333 7  -7404569.929 7  22217558.729    22217563.618    22217559.090
        99.000          74.000
   1678822.493 8   1308175.884 8  21406585.243    21406588.790    21406584.782
       138.000         113.000
  -1147386.205 6   -894055.531 6  23673130.671    23673132.632    23673131.005
        25.000          15.000
    -96427.189 6    -75130.004 6  23118245.126    23118249.019    23118245.384
        30.000          26.000
  -8993523.536 8  -7007939.010 8  21081555.451    21081558.695    21081555.310
       207.000         157.000
  -2081500.250 8  -1621941.241 8  21647394.541    21647397.173    21647394.251
       166.000         136.000
   8818515.210 7   6871570.963 7  22483002.904    22483008.060    22483003.256
        59.000          50.000
    872245.487 7    679675.977 7  22082501.929    22082504.464    22082501.474
        84.000          76.000
         -.72016          .31314  24804282.959    24804285.537    24804283.323
        14.000           1.000
 03  4 13  2 30 30.0000000  0 10G 9G18G23G30G21G17G 6G26G 5G29
   1313984.484 6   1023900.335 6  24138754.774    24138759.916    24138754.817
        19.000          13.000
  -8514836.304 8  -6634920.850 7  22022783.941    22022787.129    22022784.045
       112.000          56.000
  -9551587.836 8  -7442780.077 7  22208227.342    22208232.152    22208227.644
       100.000          73.000
   1718953.088 8   1339446.492 8  21414221.870    21414225.553    21414221.269
       136.000         112.000
  -1160143.710 6   -903996.428 6  23670702.783    23670704.950    23670703.398
        26.000          15.000
    -98641.222 6    -76855.193 6  23117823.928    23117827.618    23117824.386
        31.000          26.000
  -9047929.299 8  -7050333.093 8  21071202.353    21071205.498    21071202.229
       207.000         157.000
  -2071412.249 8  -1614080.436 8  21649314.342    21649316.765    21649314.096
       170.000         136.000
   8898471.074 7   6933874.269 7  22498220.095    22498223.697    22498220.485
        79.000          54.000
    911996.648 7    710650.930 7  22090066.308    22090068.955    22090066.260
        84.000          76.000
 03  4 13  2 31  0.0000000  0 12G 9G18G23G30G21G17G15G 6G26G 5G29G10
   1310073.766 6   1020853.155 6  24138010.066    24138015.100    24138009.930
        20.000          12.000
  -8553078.309 8  -6664719.715 7  22015506.644    22015509.627    22015506.697
       110.000          55.000
  -9600182.754 8  -7480646.143 7  22198980.281    22198984.661    22198981.061
       102.000          73.000
   1759440.904 8   1370995.468 8  21421926.410    21421929.799    21421925.919
       135.000         110.000
  -1172984.051 6   -914001.864 6  23668259.363    23668261.488    23668259.830
        25.000          15.000
   -100908.090 6    -78621.552 6  23117392.500    23117396.224    23117393.012
        31.000          26.000
         -.60915         -.07115  25313958.421    25313963.595    25313959.595
         7.000           6.000
  -9101977.581 8  -7092448.623 8  21060917.339    21060920.484    21060917.106
       211.000         159.000
  -2060845.508 8  -1605846.583 8  21651325.176    21651327.787    21651324.930
       173.000         137.000
   8978516.450 7   6996247.344 7  22513452.717    22513456.623    22513452.906
        81.000          61.000
    952292.007 7    742049.929 7  22097734.465    22097736.829    22097734.454
        88.000          74.000
        -1.20216         -.15414  24839658.932    24839661.344    24839658.927
        11.000           1.000
 03  4 13  2 31 30.0000000  0 11G 9G18G23G30G21G17G15G 6G26G 5G29
   1305963.120 6   1017650.196 6  24137228.136    24137233.356    24137228.209
        20.000          13.000
  -8590877.354 8  -6694173.417 7  22008313.454    22008316.532    22008313.412
       111.000          56.000
  -9648357.033 8  -7518184.443 7  22189812.665    22189817.113    22189813.097
       103.000          72.000
   1800262.254 8   1402804.368 8  21429694.337    21429697.999    21429693.753
       137.000         113.000
  -1185929.233 6   -924088.993 6  23665795.967    23665798.128    23665796.563
        25.000          15.000
   -103249.997 6    -80446.383 6  23116946.598    23116950.627    23116947.353
        30.000          25.000
    -16286.289 6    -12690.133 5  25310859.157    25310864.342    25310860.137
        10.000           5.000
  -9155687.272 8  -7134300.315 8  21050696.792    21050699.895    21050696.726
       214.000         159.000
  -2049820.544 8  -1597255.672 8  21653423.199    21653425.731    21653422.857
       177.000         139.000
   9058627.356 7   7058671.444 7  22528694.884    22528700.763    22528695.293
        59.000          57.000
    993109.613 7    773855.874 7  22105501.671    22105504.118    22105501.359
        88.000          73.000
 03  4 13  2 32  0.0000000  0 11G 9G18G23G30G21G17G15G 6G26G 5G29
   1301658.399 6   1014295.997 6  24136409.057    24136413.977    24136408.630
        21.000          13.000
  -8628228.342 8  -6723277.985 7  22001205.715    22001208.667    22001205.730
       110.000          55.000
  -9696105.116 8  -7555390.633 7  22180726.361    22180730.801    22180726.822
       103.000          72.000
   1841419.777 8   1434875.220 8  21437526.482    21437530.113    21437525.968
       140.000         116.000
  -1198975.366 6   -934254.787 6  23663313.236    23663315.347    23663313.775
        25.000          15.000
   -105662.995 6    -82326.606 6  23116487.546    23116491.398    23116488.246
        31.000          26.000
    -32633.805 5    -25428.358 4  25307749.795    25307751.624    25307749.617
         8.000           2.000
  -9209050.588 8  -7175882.102 8  21040541.993    21040545.170    21040541.914
       214.000         161.000
  -2038331.650 8  -1588303.257 8  21655609.466    21655611.868    21655609.186
       177.000         138.000
   9138806.201 7   7121148.467 7  22543953.189    22543957.322    22543953.388
        64.000          48.000
   1034454.132 7    806072.406 7  22113369.143    22113371.636    22113368.828
        85.000          70.000
 03  4 13  2 32 30.0000000  0 12G 9G18G23G30G21G17G15G 6G26G 5G29G10
   1297143.741 6   1010778.216 6  24135549.937    24135554.848    24135549.572
        21.000          13.000
  -8665147.969 8  -6752046.438 7  21994180.143    21994183.037    21994180.314
       111.000          57.000
  -9743443.432 8  -7592277.537 7  22171718.157    22171722.411    22171718.552
       103.000          72.000
   1882894.227 8   1467192.987 8  21445418.735    21445422.305    21445418.124
       139.000         113.000
  -1212140.109 6   -944513.004 6  23660808.123    23660810.242    23660808.080
        24.000          15.000
   -108164.457 6    -84275.760 6  23116011.349    23116015.260    23116012.155
        31.000          25.000
    -49061.535 5    -38229.161 4  25304622.944    25304627.328    25304623.260
         6.000           2.000
  -9262081.877 8  -7217205.166 8  21030450.394    21030453.547    21030450.369
       216.000         160.000
  -2026394.887 8  -1579001.853 8  21657880.928    21657883.412    21657880.661
       175.000         139.000
   9219033.383 7   7183663.207 7  22559221.444    22559224.529    22559221.723
        80.000          50.000
   1076308.218 7    838685.999 7  22121333.815    22121336.029    22121333.667
        86.000          68.000
         -.64716         -.33215  24892562.114    24892565.757    24892562.825
        11.000           4.000
 03  4 13  2 33  0.0000000  0 12G 9G18G23G30G21G17G15G 6G26G 5G29G10
   1292431.664 6   1007106.598 6  24134652.991    24134657.936    24134652.690
        20.000          14.000
  -8701624.922 8  -6780469.945 7  21987238.810    21987241.735    21987238.948
       111.000          58.000
  -9790360.185 8  -7628835.944 7  22162790.238    22162794.565    22162790.697
       107.000          74.000
   1924694.549 8   1499764.664 8  21453373.168    21453376.804    21453372.718
       135.000         108.000
  -1225413.010 6   -954855.491 6  23658282.309    23658284.211    23658282.215
        24.000          15.000
   -110744.511 6    -86286.158 6  23115520.378    23115524.154    23115520.959
        31.000          24.000
    -65559.580 5                  25301481.557                    25301482.578
         9.000
  -9314767.297 8  -7258258.719 8  21020424.856    21020427.808    21020424.925
       223.000         160.000
  -2013998.434 8  -1569342.250 8  21660239.976    21660242.394    21660239.754
       176.000         141.000
   9299317.561 7   7246222.357 7  22574498.074    22574502.730    22574498.406
        68.000          58.000
   1118682.779 7    871705.154 7  22129397.545    22129399.740    22129397.390
        85.000          66.000
     92423.528 6     72018.502 4  24910150.203    24910152.996    24910151.020
        10.000           2.000
 03  4 13  2 33 30.0000000  0 11G 9G18G23G30G21G17G 6G26G 5G29G10
   1287526.505 6   1003284.516 6  24133719.682    24133724.602    24133719.631
        22.000          14.000
  -8737655.864 8  -6808545.916 7  21980382.249    21980385.256    21980382.421
       110.000          59.000
  -9836851.492 8  -7665062.845 7  22153943.320    22153947.680    22153943.804
       109.000          76.000
   1966821.687 8   1532591.046 8  21461389.630    21461393.189    21461389.025
       139.000         114.000
  -1238791.637 6   -965280.360 6  23655736.259    23655738.346    23655736.580
        23.000          15.000
   -113400.805 7    -88355.964 6  23115014.855    23115018.559    23115015.080
        32.000          24.000
  -9367100.919 8  -7299038.144 8  21010466.162    21010469.105    21010466.091
       235.000         160.000
  -2001138.367 8  -1559321.390 8  21662686.983    21662689.350    21662686.792
       171.000         138.000
   9379659.550 7   7308826.499 7  22589785.209    22589791.325    22589785.697
        57.000          57.000
   1161580.414 7    905131.903 7  22137560.464    22137562.962    22137560.051
        82.000          67.000
    184728.486 6    143944.427 4  24927715.475    24927718.708    24927715.957
        10.000           3.000
 03  4 13  2 34  0.0000000  0 12G 9G18G23G30G21G17G15G 6G26G 5G29G10
   1282422.110 6    999307.203 6  24132748.105    24132753.389    24132747.791
        21.000          15.000
  -8773248.244 8  -6836280.152 7  21973609.055    21973612.288    21973609.002
       110.000          60.000
  -9882924.334 8  -7700963.671 7  22145175.713    22145180.177    22145176.225
       109.000          77.000
   2009265.880 8   1565664.447 8  21469466.547    21469469.976    21469466.013
       135.000         105.000
  -1252283.822 6   -975793.720 6  23653168.547    23653170.822    23653168.880
        23.000          14.000
   -116141.683 7    -90491.687 6  23114493.543    23114496.904    23114493.423
        32.000          24.000
         -.00615                  25295162.649                    25295162.406
         8.000
  -9419087.647 8  -7339547.267 8  21000573.492    21000576.293    21000573.356
       243.000         161.000
  -1987821.192 8  -1548944.346 8  21665221.095    21665223.523    21665220.864
       166.000         138.000
   9460049.451 7   7371467.993 7  22605084.449    22605088.246    22605084.830
        68.000          49.000
   1204993.243 7    938960.103 7  22145821.589    22145823.998    22145821.358
        80.000          66.000
    276905.210 5    215770.443 5  24945255.756    24945260.133    24945256.229
         9.000           5.000
 03  4 13  2 34 30.0000000  0 11G 9G18G23G30G21G17G 6G26G 5G29G10
   1277146.772 6    995196.675 6  24131744.034    24131749.213    24131743.634
        20.000          15.000
  -8808374.557 8  -6863651.221 7  21966924.744    21966927.959    21966924.904
       111.000          61.000
  -9928551.138 8  -7736516.939 7  22136493.321    22136497.676    22136493.786
       109.000          79.000
   2052051.803 8   1599004.171 8  21477608.489    21477611.948    21477607.985
       140.000         109.000
  -1265863.457 6   -986375.222 6  23650584.677    23650586.633    23650584.911
        24.000          15.000
   -118940.539 7    -92672.584 6  23113960.922    23113964.279    23113961.438
        32.000          23.000
  -9470697.977 8  -7379763.084 8  20990752.334    20990755.082    20990752.326
       244.000         163.000
  -1974019.297 8  -1538189.600 8  21667847.361    21667850.153    21667846.997
       160.000         141.000
   9540511.711 7   7434165.912 7  22620396.443    22620399.554    22620396.824
        75.000          47.000
   1248947.978 7    973210.562 7  22154186.039    22154188.224    22154185.840
        80.000          64.000
    368979.240 5    287516.458 5  24962776.601    24962780.094    24962777.345
         9.000           4.000
 03  4 13  2 35  0.0000000  0 12G 9G18G23G30G21G17G15G 6G26G 5G29G10
   1271668.069 6    990927.660 6  24130701.194    24130706.458    24130701.105
        20.000          15.000
  -8843068.485 8  -6890685.370 7  21960322.718    21960325.740    21960322.832
       110.000          61.000
  -9973765.034 8  -7771748.463 7  22127889.050    22127893.627    22127889.421
       109.000          79.000
   2095143.408 8   1632582.050 8  21485808.742    21485811.833    21485808.199
       143.000         106.000
  -1279564.796 6   -997051.559 6  23647977.415    23647979.502    23647977.639
        25.000          16.000
   -121831.914 7    -94925.564 6  23113410.654    23113414.203    23113411.709
        32.000          23.000
         -.43415                  25288793.280                    25288793.573
         8.000
  -9521962.844 8  -7419709.710 8  20980997.005    20980999.698    20980997.006
       246.000         163.000
  -1959765.612 8  -1527082.805 8  21670559.685    21670562.484    21670559.363
       158.000         141.000
   9621010.227 7   7496892.068 7  22635713.519    22635718.634    22635713.939
        62.000          53.000
   1293410.438 7   1007856.653 7  22162646.967    22162649.263    22162646.924
        77.000          64.000
    460915.632 5    359155.193 5  24980271.476    24980274.779    24980271.929
         8.000           4.000
 03  4 13  2 35 30.0000000  0 11G 9G18G23G30G21G17G 6G26G 5G29G10
   1266008.492 6    986517.738 6  24129624.463    24129629.340    24129624.485
        19.000          15.000
  -8877308.786 8  -6917366.047 7  21953806.883    21953809.722    21953806.915
       111.000          61.000
 -10018544.210 8  -7806641.238 7  22119367.657    22119372.176    22119368.207
       108.000          78.000
   2138559.818 8   1666413.045 8  21494070.612    21494073.846    21494070.169
       137.000         100.000
  -1293366.797 6  -1007806.330 6  23645351.180    23645353.202    23645350.710
        26.000          16.000
   -124795.051 7    -97234.460 6  23112846.705    23112850.148    23112847.585
        32.000          24.000
  -9572858.384 8  -7459368.550 8  20971311.945    20971314.686    20971311.861
       252.000         167.000
  -1945038.116 8  -1515606.811 8  21673362.204    21673364.774    21673361.988
       158.000         138.000
   9701563.752 7   7559661.047 7  22651042.323    22651047.681    22651042.665
        61.000          56.000
   1338401.261 7   1042914.451 7  22171208.031    22171210.851    22171207.983
        73.000          65.000
    552734.168 5    430702.105 5  24997743.068    24997748.195    24997743.887
         8.000           5.000
 03  4 13  2 36  0.0000000  0 11G 9G18G23G30G21G17G 6G26G 5G29G10
   1260150.723 6    981953.358 6  24128509.863    24128514.672    24128509.711
        22.000          14.000
  -8911113.916 8  -6943707.630 7  21947374.067    21947376.833    21947374.073
       112.000          61.000
 -10062906.807 8  -7841209.419 7  22110925.760    22110930.058    22110926.304
       109.000          79.000
   2182280.056 8   1700480.807 8  21502390.201    21502393.297    21502389.684
       141.000         106.000
  -1307288.638 6  -1018654.495 6  23642701.680    23642704.062    23642701.593
        26.000          16.000
   -127849.569 7    -99614.563 6  23112265.241    23112268.890    23112265.535
        33.000          24.000
  -9623400.593 8  -7498752.069 8  20961694.053    20961696.763    20961693.991
       258.000         171.000
  -1929854.925 8  -1503775.733 8  21676251.392    21676254.006    21676251.107
       154.000         136.000
   9782151.288 7   7622456.549 7  22666378.642    22666382.524    22666379.020
        71.000          50.000
   1383901.431 7   1078369.149 7  22179866.306    22179869.066    22179866.022
        68.000          65.000
    644415.047 5    502141.764 5  25015190.326    25015194.398    25015190.917
         8.000           4.000
 03  4 13  2 36 30.0000000  0 12G 9G18G23G30G21G17G15G 6G26G 5G29G10
   1254082.728 6    977225.244 6  24127355.477    24127359.619    24127355.581
        21.000          13.000
  -8944497.095 8  -6969720.351 7  21941021.585    21941024.133    21941021.806
       108.000          59.000
 -10106865.410 8  -7875462.729 7  22102560.990    22102565.119    22102561.642
       105.000          79.000
   2226288.444 8   1734773.142 8  21510765.008    21510767.700    21510764.743
       134.000         100.000
  -1321344.440 6  -1029606.973 6  23640027.300    23640029.497    23640027.311
        25.000          14.000
   -131009.427 6   -102076.682 6  23111664.174    23111667.696    23111664.450
        31.000          23.000
         -.14715                  25279125.102                    25279125.876
         8.000
  -9673599.951 8  -7537868.362 8  20952141.642    20952144.134    20952141.782
       250.000         171.000
  -1914228.466 8  -1491599.180 8  21679225.222    21679227.732    21679225.060
       150.000         134.000
   9862757.215 7   7685266.481 7  22681717.222    22681720.917    22681717.733
        64.000          43.000
   1429897.102 7   1114210.017 7  22188619.527    22188621.659    22188619.961
        69.000          64.000
    735943.399 5    573462.604 5  25032607.799    25032611.242    25032608.363
         8.000           4.000
 03  4 13  2 37  0.0000000  0 11G 9G18G23G30G21G17G 6G26G 5G29G10
   1247815.008 6    972341.415 6  24126162.890    24126166.813    24126163.135
        22.000          12.000
  -8977449.101 8  -6995397.159 7  21934750.866    21934753.321    21934750.995
       107.000          59.000
 -10150410.476 8  -7909393.871 7  22094274.645    22094278.712    22094275.231
       104.000          79.000
   2270591.977 8   1769295.358 8  21519195.543    21519198.645    21519195.250
       132.000         101.000
  -1335525.573 6  -1040657.184 6  23637328.531    23637330.478    23637328.854
        24.000          13.000
   -134266.346 6   -104614.513 6  23111044.431    23111047.854    23111044.912
        30.000          23.000
  -9723444.836 8  -7576708.512 8  20942656.388    20942659.001    20942656.449
       250.000         174.000
  -1898148.933 8  -1479069.657 8  21682285.093    21682287.547    21682284.958
       153.000         135.000
   9943388.425 7   7748096.019 7  22697060.121    22697064.333    22697060.753
        56.000          42.000
   1476397.044 7   1150443.749 7  22197468.222    22197470.350    22197468.369
        67.000          62.000
    827327.128 5    644670.686 5  25049997.674    25050000.963    25049998.564
         7.000           5.000
 03  4 13  2 37 30.0000000  0 12G 9G18G23G30G21G17G15G 6G26G 5G29G10
   1241355.278 6    967308.018 6  24124933.473    24124937.625    24124933.045
        23.000          12.000
  -9009963.513 8  -7020732.955 7  21928563.711    21928566.143    21928564.133
       107.000          60.000
 -10193535.235 8  -7942997.462 7  22086068.091    22086072.256    22086068.601
       103.000          80.000
   2315194.458 8   1804050.564 7  21527683.407    21527685.982    21527683.179
       129.000          94.000
  -1349826.100 6  -1051800.394 6  23634607.500    23634609.207    23634608.204
        25.000          14.000
   -137614.585 6   -107223.454 6  23110407.408    23110410.700    23110408.092
        30.000          22.000
         -.16115                  25272590.212                    25272591.095
         9.000
  -9772926.170 8  -7615265.342 8  20933240.425    20933243.054    20933240.506
       247.000         174.000
  -1881609.528 8  -1466181.754 8  21685432.478    21685434.798    21685432.543
       153.000         134.000
  10024048.650 7   7810948.186 7  22712409.845    22712414.360    22712410.396
        62.000          50.000
   1523406.808 7   1187074.786 7  22206413.766    22206416.099    22206413.815
        67.000          62.000
    918571.245 5    715770.023 5  25067360.689    25067363.699    25067361.357
         7.000           4.000
 03  4 13  2 38  0.0000000  0 11G 9G18G23G30G21G17G 6G26G 5G29G10
   1234702.568 6    962124.212 6  24123667.481    24123671.723    24123667.286
        21.000          12.000
  -9042042.754 8  -7045729.683 7  21922459.137    21922461.823    21922459.463
       103.000          61.000
 -10236241.653 8  -7976275.090 7  22077941.513    22077945.573    22077942.329
       100.000          80.000
   2360091.597 8   1839035.386 7  21536226.955    21536229.569    21536226.687
       125.000          96.000
  -1364248.814 6  -1063038.825 6  23631863.182    23631864.585    23631864.074
        25.000          13.000
   -141056.936 6   -109905.746 6  23109752.464    23109755.450    23109753.269
        29.000          22.000
  -9822043.833 8  -7653538.810 8  20923893.803    20923896.202    20923893.969
       241.000         174.000
  -1864611.823 8  -1452936.746 8  21688667.242    21688669.428    21688667.319
       150.000         131.000
  10104733.030 7   7873819.176 7  22727763.922    22727768.046    22727764.670
        60.000          48.000
   1570923.477 7   1224100.798 7  22215456.187    22215458.217    22215456.235
        64.000          62.000
   1009672.131 5    786757.741 5  25084696.749    25084700.119    25084697.140
         7.000           5.000
 03  4 13  2 38 30.0000000  0 12G 9G18G23G30G21G17G15G 6G26G 5G29G10
   1227871.709 6    956801.550 6  24122367.650    24122372.053    24122367.601
        17.000          10.000
  -9073673.087 8  -7070376.650 7  21916440.148    21916442.689    21916440.268
       101.000          61.000
 -10278515.542 7  -8009215.743 7  22069897.140    22069900.974    22069897.766
        99.000          80.000
   2405294.407 8   1874258.336 7  21544829.109    21544831.413    21544828.800
       121.000          91.000
  -1378780.369 6  -1074362.124 6  23629098.085    23629099.082    23629098.179
        25.000          12.000
   -144580.387 6   -112651.288 6  23109082.140    23109085.032    23109083.206
        29.000          22.000
        -1.03216         -.87214  25265992.288    25265994.172    25265992.840
        11.000           2.000
  -9870781.574 8  -7691516.287 8  20914619.324    20914621.762    20914619.586
       232.000         176.000
  -1847141.625 8  -1439323.618 8  21691991.883    21691993.890    21691991.787
       150.000         131.000
  10185452.904 7   7936717.771 7  22743123.836    22743127.834    22743124.410
        54.000          40.000
   1618960.006 7   1261531.836 7  22224597.533    22224599.194    22224597.534
        65.000          62.000
   1100641.858 5    857643.206 4  25102007.063    25102010.599    25102008.194
         7.000           3.000
 03  4 13  2 39  0.0000000  0 12G 9G18G23G30G21G17G15G 6G26G 5G29G10
   1220861.464 6    951339.135 6  24121033.106    24121037.946    24121033.170
        16.000          11.000
  -9104857.128 8  -7094675.836 7  21910506.155    21910508.222    21910506.663
       101.000          59.000
 -10320359.318 7  -8041821.207 7  22061934.325    22061938.314    22061935.196
        99.000          81.000
   2450797.864 8   1909715.618 7  21553487.818    21553490.341    21553487.338
       120.000          92.000
  -1393424.322 6  -1085772.969 6  23626311.277    23626312.279    23626311.406
        25.000          13.000
   -148188.393 6   -115462.678 6  23108395.639    23108398.281    23108396.362
        30.000          22.000
    -17462.265 5    -13606.995 4  25262668.670    25262672.155    25262669.108
         9.000           1.000
  -9919139.505 8  -7729197.770 8  20905416.956    20905419.623    20905417.161
       228.000         180.000
  -1829201.207 8  -1425344.047 8  21695405.816    21695407.749    21695405.785
       151.000         131.000
  10266203.204 7   7999640.111 7  22758490.299    22758493.849    22758490.849
        56.000          38.000
   1667513.080 7   1299365.420 7  22233836.788    22233838.461    22233836.905
        64.000          61.000
   1191476.533 5    928423.473 5  25119293.819    25119296.822    25119294.263
         9.000           4.000
 03  4 13  2 39 30.0000000  0 11G 9G18G23G30G21G17G 6G26G 5G29G10
   1213638.476 6    945710.968 6  24119659.070    24119663.157    24119659.284
        17.000          12.000
  -9135630.017 8  -7118654.614 7  21904649.962    21904652.262    21904650.090
       103.000          59.000
 -10361807.708 8  -8074118.555 7  22054046.876    22054051.022    22054047.588
       100.000          81.000
   2496564.689 8   1945378.147 7  21562197.042    21562199.713    21562196.849
       124.000          98.000
  -1408216.026 6  -1097298.929 6  23623496.341    23623497.652    23623496.824
        26.000          13.000
   -151916.725 6   -118367.808 6  23107685.876    23107688.971    23107686.401
        31.000          22.000
  -9967150.099 8  -7766608.573 8  20896280.804    20896283.404    20896281.013
       232.000         182.000
  -1810824.864 8  -1411024.773 8  21698902.655    21698904.673    21698902.688
       148.000         132.000
  10346946.490 7   8062557.019 7  22773855.549    22773859.324    22773856.146
        59.000          42.000
   1716547.243 7   1337573.905 7  22243167.373    22243169.301    22243167.487
        61.000          61.000
   1282140.061 5    999070.381 4  25136544.569    25136548.254    25136545.574
         9.000           3.000
 03  4 13  2 40  0.0000000  0 11G 9G18G23G30G21G17G 6G26G 5G29G10
   1206232.444 6    939940.168 6  24118249.452    24118254.048    24118249.811
        18.000          15.000
  -9165963.695 8  -7142291.153 7  21898877.731    21898879.845    21898878.104
       107.000          61.000
 -10402831.935 8  -8106085.395 7  22046240.105    22046244.076    22046240.967
       106.000          81.000
   2542620.680 8   1981265.964 7  21570960.968    21570963.830    21570960.706
       121.000          92.000
  -1423127.596 6  -1108918.294 6  23620658.634    23620660.350    23620659.284
        27.000          13.000
   -155737.692 7   -121345.136 6  23106958.721    23106961.922    23106959.050
        33.000          23.000
 -10014782.387 8  -7803724.607 8  20887216.613    20887219.218    20887216.909
       244.000         184.000
  -1791983.883 8  -1396343.447 8  21702487.811    21702490.109    21702487.869
       153.000         136.000
  10427708.827 7   8125488.749 7  22789223.561    22789228.077    22789224.308
        57.000          44.000
   1766089.692 7   1376178.442 7  22252594.875    22252597.056    22252595.250
        62.000          61.000
   1372659.346 6   1069604.885 4  25153771.361    25153774.042    25153771.859
        12.000           3.000
 03  4 13  2 40 30.0000000  0 12G 9G18G23G30G21G17G15G 6G26G 5G29G10
   1198644.613 6    934027.689 6  24116805.684    24116809.667    24116806.176
        19.000          15.000
  -9195858.076 8  -7165585.411 7  21893188.861    21893190.988    21893189.216
       107.000          60.000
 -10443431.739 8  -8137721.522 7  22038514.330    22038517.824    22038514.977
       106.000          82.000
   2588963.633 8   2017377.396 7  21579779.650    21579782.591    21579779.487
       125.000          99.000
  -1438159.737 6  -1120631.623 6  23617798.389    23617799.723    23617799.016
        28.000          13.000
   -159652.112 7   -124395.294 6  23106213.726    23106217.040    23106214.277
        33.000          23.000
          .08715          .23914  25252581.866    25252583.302    25252582.051
         9.000           1.000
 -10062033.911 8  -7840543.951 8  20878224.898    20878227.615    20878225.222
       245.000         184.000
  -1772677.706 8  -1381299.642 8  21706161.688    21706163.856    21706161.730
       151.000         136.000
  10508487.852 7   8188433.457 7  22804595.389    22804599.646    22804596.008
        58.000          41.000
   1816139.948 7   1415178.663 7  22262119.017    22262121.196    22262119.427
        61.000          61.000
   1463032.944 6   1140025.869 4  25170969.327    25170971.717    25170970.228
        13.000           2.000
 03  4 13  2 41  0.0000000  0 11G 9G18G23G30G21G17G 6G26G 5G29G10
   1190862.651 6    927963.924 6  24115324.448    24115328.138    24115325.045
        20.000          14.000
  -9225326.899 8  -7188548.059 7  21887580.746    21887583.325    21887581.032
       105.000          62.000
 -10483620.208 8  -8169037.142 7  22030866.656    22030870.336    22030867.617
       104.000          82.000
   2635577.518 8   2053699.928 7  21588649.962    21588653.022    21588649.708
       118.000          91.000
  -1453326.671 6  -1132449.983 6  23614911.913    23614913.566    23614912.766
        28.000          13.000
   -163673.710 7   -127528.972 6  23105448.607    23105451.686    23105449.405
        33.000          22.000
 -10108915.719 8  -7877075.210 8  20869303.662    20869306.375    20869303.944
       249.000         188.000
  -1752919.529 8  -1365903.638 8  21709921.451    21709923.681    21709921.444
       149.000         135.000
  10589267.372 7   8251378.578 7  22819967.415    22819971.001    22819968.134
        60.000          36.000
   1866683.585 7   1454563.330 7  22271737.181    22271739.279    22271737.262
        59.000          59.000
   1553245.843 6   1210321.652 4  25188135.952    25188138.305    25188136.747
        10.000           1.000
 03  4 13  2 41 30.0000000  0 11G 9G18G23G30G21G17G15G 6G26G 5G29
   1182903.482 6    921762.041 6  24113809.693    24113813.704    24113810.334
        20.000          14.000
  -9254355.075 8  -7211167.388 7  21882056.985    21882059.593    21882057.433
       108.000          63.000
 -10523381.670 8  -8200020.070 7  22023299.844    22023304.125    22023300.528
       104.000          84.000
   2682475.316 8   2090243.664 7  21597574.207    21597576.916    21597573.977
       123.000          95.000
  -1468613.035 6  -1144361.443 6  23612003.101    23612004.436    23612003.605
        29.000          13.000
   -167787.484 7   -130734.507 6  23104665.610    23104668.734    23104666.487
        32.000          22.000
         -.32015         -.94414  25245763.426    25245768.628    25245764.018
         8.000           3.000
 -10155409.902 8  -7913304.458 8  20860455.935    20860458.593    20860456.098
       244.000         186.000
  -1732693.413 8  -1350143.046 8  21713770.164    21713772.487    21713770.038
       144.000         135.000
  10670060.497 7   8314334.249 7  22835341.811    22835345.235    22835342.396
        58.000          35.000
   1917735.304 7   1494343.870 7  22281451.919    22281454.162    22281451.992
        59.000          58.000
 03  4 13  2 42  0.0000000  0 12G 9G18G23G30G21G17G15G 6G26G 5G29G10
   1174751.241 6    915409.640 6  24112258.717    24112262.207    24112258.948
        23.000          13.000
  -9282959.605 8  -7233456.666 7  21876613.706    21876616.352    21876613.905
       114.000          65.000
 -10562733.234 8  -8230683.650 7  22015811.358    22015815.628    22015811.805
       104.000          86.000
   2729637.346 8   2126993.226 7  21606548.473    21606551.672    21606548.134
       117.000          88.000
  -1484036.623 6  -1156379.892 6  23609067.914    23609069.247    23609068.154
        29.000          13.000
   -172011.801 7   -134026.247 6  23103861.400    23103864.752    23103862.277
        32.000          23.000
    -18071.313 6    -14082.278 4  25242323.625    25242326.112    25242324.273
        10.000           2.000
 -10201531.202 8  -7949243.214 8  20851679.208    20851681.878    20851679.212
       251.000         186.000
  -1712016.353 8  -1334031.130 8  21717704.760    21717707.122    21717704.697
       143.000         135.000
  10750847.487 7   8377285.068 7  22850714.686    22850719.053    22850715.243
        58.000          41.000
   1969276.908 7   1534506.074 7  22291259.720    22291262.276    22291259.837
        60.000          58.000
         -.97916         -.79014  25222381.671    25222384.206    25222382.340
        11.000           1.000
 03  4 13  2 42 30.0000000  0 11G 9G18G23G30G21G17G15G 6G26G 5G29
   1166413.243 6    908912.606 6  24110671.421    24110675.255    24110671.764
        23.000          14.000
  -9311135.197 8  -7255411.601 7  21871251.911    21871254.503    21871252.081
       115.000          66.000
 -10601668.967 8  -8261023.119 7  22008401.986    22008406.280    22008402.525
       107.000          87.000
   2777067.100 8   2163951.522 7  21615573.908    21615577.454    21615573.417
       123.000          99.000
  -1499592.400 6  -1168501.239 6  23606107.481    23606108.937    23606107.840
        30.000          13.000
   -176341.925 7   -137400.325 6  23103037.125    23103040.816    23103037.747
        33.000          24.000
    -36248.327 6    -28246.128 4  25238865.109    25238867.007    25238865.713
        10.000           2.000
 -10247271.363 8  -7984884.871 8  20842975.030    20842977.846    20842975.018
       256.000         185.000
  -1690882.129 8  -1317562.881 8  21721726.259    21721728.880    21721726.008
       145.000         137.000
  10831631.939 7   8440234.017 7  22866087.514    22866091.767    22866087.966
        61.000          41.000
   2021313.554 7   1575054.130 7  22301162.129    22301164.395    22301162.164
        63.000          56.000
 03  4 13  2 43  0.0000000  0 12G 9G18G23G30G21G17G15G 6G26G 5G29G10
   1157881.514 6    902264.590 6  24109048.121    24109052.097    24109048.300
        24.000          16.000
  -9338891.122 8  -7277039.548 7  21865969.916    21865972.644    21865970.005
       115.000          66.000
 -10640197.734 8  -8291045.476 7  22001070.210    22001074.437    22001070.614
       107.000          87.000
   2824752.872 8   2201109.304 7  21624648.296    21624651.421    21624647.907
       123.000          98.000
  -1515289.614 6  -1180732.813 6  23603120.338    23603121.944    23603120.825
        30.000          13.000
   -180787.095 7   -140864.077 6  23102191.086    23102194.987    23102191.420
        33.000          25.000
    -54541.626 6    -42500.630 4  25235383.528    25235385.423    25235384.037
        10.000           1.000
 -10292637.061 8  -8020234.758 8  20834342.292    20834344.921    20834342.375
       260.000         186.000
  -1669299.541 8  -1300745.274 8  21725833.137    21725835.896    21725833.090
       140.000         137.000
  10912402.449 7   8503172.082 7  22881457.610    22881461.646    22881458.113
        58.000          39.000
   2073835.031 7   1615979.960 7  22311156.559    22311158.710    22311156.511
        66.000          56.000
         -.28015         -.60714  25256504.471    25256507.261    25256504.758
         9.000           1.000
 03  4 13  2 43 30.0000000  0 10G 9G18G23G30G21G17G 6G26G 5G29
   1149187.568 6    895490.216 6  24107393.743    24107397.714    24107394.365
        22.000          16.000
  -9366197.839 8  -7298317.418 7  21860773.567    21860776.274    21860773.459
       113.000          65.000
 -10678289.444 8  -8320727.233 7  21993821.870    21993825.764    21993822.534
       106.000          88.000
   2872721.995 8   2238487.885 7  21633776.414    21633779.886    21633775.972
       118.000          95.000
  -1531099.104 6  -1193051.839 6  23600111.973    23600113.603    23600112.371
        29.000          13.000
   -185317.687 7   -144394.359 6  23101329.135    23101332.895    23101329.571
        33.000          26.000
 -10337596.028 8  -8055267.679 8  20825786.941    20825789.453    20825786.937
       257.000         187.000
  -1647238.203 8  -1283554.575 8  21730031.450    21730033.921    21730031.301
       139.000         135.000
  10993186.508 7   8566120.738 7  22896830.094    22896833.936    22896830.641
        54.000          35.000
   2126870.349 7   1657306.221 7  22321248.897    22321251.026    22321249.040
        61.000          54.000
 03  4 13  2 44  0.0000000  0 11G 9G18G23G30G21G17G15G 6G26G 5G29
   1140350.577 6    888604.389 6  24105711.802    24105715.597    24105711.752
        21.000          14.000
  -9393037.893 8  -7319231.650 7  21855666.323    21855668.602    21855666.693
       114.000          65.000
 -10715926.161 8  -8350054.447 7  21986659.550    21986663.585    21986660.275
       104.000          87.000
   2920989.988 8   2276099.359 7  21642962.032    21642965.007    21642961.874
       119.000          94.000
  -1547003.615 6  -1205444.901 6  23597085.500    23597086.942    23597085.592
        29.000          14.000
   -189916.861 7   -147978.063 6  23100454.220    23100457.652    23100455.110
        34.000          26.000
         -.20816         -.24914  25228374.497    25228377.401    25228375.401
        10.000           1.000
 -10382127.889 8  -8089967.772 8  20817312.835    20817315.456    20817312.988
       252.000         192.000
  -1624680.213 8  -1265976.872 8  21734324.235    21734326.540    21734324.199
       141.000         133.000
  11073999.611 7   8629092.044 7  22912208.413    22912212.292    22912208.889
        54.000          36.000
   2180436.431 7   1699046.067 7  22331442.156    22331444.563    22331442.502
        60.000          57.000
 03  4 13  2 44 30.0000000  0 11G 9G18G23G30G21G17G 6G26G 5G29G10
   1131342.920 6    881585.515 6  24103997.905    24104001.914    24103998.315
        20.000          13.000
  -9419440.495 8  -7339805.062 7  21850641.902    21850644.248    21850642.089
       116.000          66.000
 -10753136.611 8  -8379049.547 7  21979578.469    21979582.561    21979578.966
       103.000          86.000
   2969525.330 8   2313919.100 7  21652197.469    21652200.646    21652196.943
       114.000          90.000
  -1563032.452 6  -1217934.888 6  23594035.381    23594036.863    23594035.328
        30.000          13.000
   -194613.961 7   -151638.128 6  23099560.573    23099563.961    23099561.306
        33.000          26.000
 -10426259.279 8  -8124355.866 8  20808914.909    20808917.563    20808915.000
       255.000         194.000
  -1601654.303 8  -1248034.603 8  21738705.961    21738708.286    21738705.916
       146.000         132.000
  11154810.366 7   8692061.460 7  22927586.257    22927590.491    22927586.651
        52.000          39.000
   2234503.206 7   1741176.016 7  22341730.888    22341733.169    22341730.831
        63.000          58.000
         -.85616                  25307481.044                    25307481.180
        10.000
 03  4 13  2 45  0.0000000  0 10G 9G18G23G30G21G17G 6G26G 5G29
   1122150.300 6    874422.507 6  24102248.260    24102252.378    24102248.314
        21.000          11.000
  -9445421.955 8  -7360050.312 7  21845697.711    21845700.277    21845697.862
       118.000          68.000
 -10789936.664 8  -8407724.881 7  21972575.691    21972579.668    21972576.316
       107.000          88.000
   3018309.522 8   2351932.733 7  21661481.066    21661484.104    21661480.795
       112.000          84.000
  -1579201.964 6  -1230534.510 6  23590958.305    23590959.945    23590958.628
        30.000          14.000
   -199425.800 7   -155387.610 6  23098644.367    23098648.239    23098645.098
        33.000          26.000
 -10470003.817 8  -8158442.531 8  20800590.586    20800593.120    20800590.756
       256.000         197.000
  -1578176.047 8  -1229739.871 8  21743173.764    21743176.128    21743173.569
       154.000         134.000
  11235600.449 7   8755014.745 7  22942960.123    22942964.277    22942960.622
        54.000          39.000
   2289053.729 7   1783682.901 7  22352111.271    22352113.616    22352111.135
        63.000          56.000
 03  4 13  2 45 30.0000000  0 12G 9G18G23G30G21G17G15G 6G26G 5G29G10
   1112785.226 6    867125.134 6  24100465.726    24100470.151    24100465.761
        20.000          10.000
  -9470971.301 8  -7379958.834 7  21840835.695    21840838.426    21840836.021
       118.000          69.000
 -10826315.112 8  -8436071.660 7  21965653.133    21965657.127    21965653.643
       110.000          90.000
   3067351.566 8   2390147.350 7  21670812.984    21670816.288    21670812.477
       114.000          89.000
  -1595501.478 6  -1243235.402 6  23587856.377    23587858.041    23587856.817
        31.000          15.000
   -204341.535 7   -159218.034 6  23097708.787    23097712.685    23097709.273
        33.000          25.000
         -.34516         -.41414  25217717.412    25217719.761    25217718.002
        12.000           1.000
 -10513347.887 8  -8192217.114 8  20792342.185    20792344.995    20792342.197
       253.000         201.000
  -1554234.125 8  -1211083.812 8  21747729.750    21747732.035    21747729.598
       157.000         130.000
  11316378.810 7   8817958.924 7  22958331.228    22958335.733    22958331.699
        51.000          37.000
   2344098.476 7   1826574.924 7  22362585.761    22362588.214    22362585.830
        63.000          57.000
         -.58315         -.73214  25341310.631    25341315.542    25341311.688
         9.000           1.000
 03  4 13  2 46  0.0000000  0 10G 9G18G23G30G21G17G 6G26G 5G29
   1103249.528 6    859694.860 6  24098651.206    24098655.434    24098651.494
        19.000          11.000
  -9496088.588 8  -7399530.642 7  21836055.839    21836058.651    21836055.959
       113.000          69.000
 -10862271.508 8  -8464089.521 7  21958811.063    21958814.879    21958811.694
       108.000          90.000
   3116649.113 8   2428561.098 7  21680194.211    21680197.240    21680193.944
       109.000          83.000
  -1611931.093 6  -1256037.623 6  23584730.057    23584731.719    23584730.617
        29.000          15.000
   -209361.364 7   -163129.524 6  23096753.705    23096757.291    23096754.138
        32.000          23.000
 -10556288.755 8  -8225677.470 8  20784170.910    20784173.690    20784170.936
       249.000         203.000
  -1529827.817 8  -1192065.850 8  21752374.258    21752376.281    21752374.235
       161.000         130.000
  11397143.381 7   8880892.413 7  22973700.434    22973704.451    22973701.027
        50.000          34.000
   2399636.629 7   1869851.459 7  22373154.874    22373156.909    22373155.045
        64.000          57.000
 03  4 13  2 46 30.0000000  0 12G 9G18G23G30G21G17G15G 6G26G 5G29G10
   1093545.166 6    852133.165 6  24096804.641    24096809.273    24096804.668
        20.000          13.000
  -9520773.669 8  -7418765.672 7  21831358.570    21831361.200    21831358.734
       116.000          70.000
 -10897805.073 8  -8491777.907 7  21952049.021    21952053.012    21952049.645
       109.000          89.000
   3166200.393 8   2467172.573 7  21689623.708    21689626.758    21689623.461
       115.000          91.000
  -1628490.499 6  -1268940.987 6  23581578.872    23581580.782    23581579.561
        28.000          14.000
   -214485.279 7   -167122.133 6  23095778.965    23095782.261    23095779.214
        32.000          23.000
         -.58416                  25210509.163                    25210509.885
        10.000
 -10598823.351 8  -8258821.258 8  20776077.041    20776079.646    20776077.126
       251.000         205.000
  -1504956.551 8  -1172685.593 8  21757107.186    21757109.089    21757107.111
       160.000         128.000
  11477892.544 7   8943813.898 7  22989067.078    22989070.765    22989067.678
        56.000          35.000
   2455667.639 7   1913512.026 7  22383816.988    22383819.234    22383817.220
        62.000          56.000
         -.56615                  25375018.982                    25375019.778
         6.000
 03  4 13  2 47  0.0000000  0 10G 9G18G23G30G21G17G 6G26G 5G29
   1083694.536 6    844457.427 6  24094930.015    24094933.801    24094930.145
        22.000          12.000
  -9545006.198 8  -7437648.139 7  21826747.513    21826749.821    21826747.888
       121.000          70.000
 -10932894.948 8  -8519120.636 7  21945371.621    21945375.415    21945372.429
       110.000          89.000
   3216023.563 8   2505995.812 7  21699104.389    21699107.576    21699103.914
       109.000          89.000
  -1645159.495 6  -1281929.823 6  23578406.978    23578408.600    23578407.324
        29.000          15.000
   -219693.304 7   -171180.348 6  23094788.029    23094791.273    23094788.679
        32.000          24.000
 -10640928.606 8  -8291630.570 8  20768064.497    20768067.226    20768064.521
       248.000         209.000
  -1479599.214 8  -1152926.650 8  21761932.398    21761934.468    21761932.316
       157.000         128.000
  11558644.697 7   9006737.622 7  23004433.714    23004437.622    23004434.215
        55.000          37.000
   2512211.361 7   1957572.046 7  22394576.497    22394579.102    22394576.544
        61.000          56.000
 03  4 13  2 47 30.0000000  0 12G 9G18G23G30G21G17G15G 6G26G 5G29G10
   1073660.776 6    836638.985 6  24093020.337    24093024.490    24093019.875
        24.000          12.000
  -9568824.679 8  -7456207.963 7  21822215.134    21822217.194    21822215.392
       124.000          70.000
 -10967579.619 8  -8546147.622 7  21938771.028    21938774.864    21938771.560
       113.000          90.000
   3266077.794 8   2544999.096 7  21708629.610    21708632.682    21708629.174
       114.000          89.000
  -1661976.798 6  -1295034.223 6  23575206.646    23575208.393    23575206.751
        31.000          16.000
   -225024.289 7   -175334.369 6  23093773.383    23093776.845    23093774.364
        32.000          24.000
         -.34416         -.06214  25203221.280    25203223.348    25203221.437
        10.000           1.000
 -10682640.496 8  -8324133.360 8  20760126.902    20760129.771    20760126.900
       251.000         214.000
  -1453794.124 8  -1132818.806 8  21766842.879    21766844.997    21766842.809
       158.000         128.000
  11639359.137 7   9069631.957 7  23019792.341    23019797.233    23019792.860
        48.000          39.000
   2569228.110 7   2002000.660 7  22405426.793    22405429.048    22405426.770
        61.000          55.000
         -.67115                  25408603.992                    25408604.356
         7.000
 03  4 13  2 48  0.0000000  0 10G 9G18G23G30G21G17G 6G26G 5G29
   1063484.782 6    828709.748 6  24091083.652    24091087.437    24091083.986
        24.000          11.000
  -9592190.300 8  -7474414.882 7  21817768.490    21817770.825    21817768.690
       120.000          71.000
 -11001819.650 8  -8572828.094 7  21932255.319    21932259.265    21932255.747
       115.000          92.000
   3316400.124 8   2584211.330 7  21718205.477    21718208.757    21718205.078
       114.000          90.000
  -1678902.883 6  -1308223.352 6  23571985.710    23571987.285    23571985.717
        30.000          15.000
   -230438.600 6   -179553.286 6  23092742.790    23092746.594    23092743.620
        31.000          24.000
 -10723917.236 8  -8356297.038 8  20752272.270    20752275.095    20752272.401
       256.000         218.000
  -1427501.623 8  -1112331.132 8  21771846.190    21771848.282    21771846.029
       157.000         127.000
  11720073.057 7   9132525.931 7  23035152.051    23035156.118    23035152.501
        49.000          33.000
   2626756.417 7   2046827.919 7  22416374.071    22416376.255    22416374.320
        62.000          54.000
 03  4 13  2 48 30.0000000  0 11G 9G18G23G30G21G17G15G 6G26G 5G29
   1053136.229 6    820646.049 6  24089114.655    24089118.016    24089114.307
        23.000          10.000
  -9615135.467 8  -7492294.158 7  21813401.782    21813404.439    21813401.689
       119.000          72.000
 -11035647.080 8  -8599187.050 7  21925818.653    21925822.134    21925819.403
       120.000          93.000
   3366955.948 8   2623605.524 7  21727826.103    21727828.720    21727825.787
       118.000          91.000
  -1695970.084 6  -1321522.429 6  23568737.825    23568739.286    23568738.508
        30.000          16.000
   -235969.055 7   -183862.694 6  23091690.123    23091694.323    23091690.161
        32.000          25.000
         -.88515                  25195849.555                    25195849.898
         8.000
 -10764788.554 8  -8388144.786 8  20744494.580    20744497.493    20744494.590
       253.000         219.000
  -1400753.583 8  -1091488.476 8  21776935.991    21776938.244    21776935.832
       150.000         129.000
  11800752.161 7   9195392.790 7  23050505.247    23050508.778    23050505.933
        52.000          33.000
   2684763.083 7   2092027.942 7  22427412.141    22427414.443    22427412.243
        60.000          53.000
 03  4 13  2 49  0.0000000  0 11G 9G18G23G30G21G17G 6G26G 5G29G10
   1042597.267 6    812433.983 6  24087109.182    24087112.489    24087109.060
        24.000          11.000
  -9637679.951 8  -7509861.227 7  21809111.937    21809114.249    21809112.211
       120.000          73.000
 -11069081.187 8  -8625239.535 7  21919456.196    21919459.849    21919456.864
       120.000          93.000
   3417723.473 8   2663164.665 7  21737486.688    21737489.663    21737486.307
       111.000          85.000
  -1713198.379 6  -1334947.042 6  23565459.635    23565460.764    23565460.631
        30.000          15.000
   -241635.520 7   -188278.104 6  23090612.156    23090615.930    23090612.063
        33.000          24.000
 -10805271.455 8  -8419689.887 8  20736791.017    20736793.779    20736791.007
       255.000         218.000
  -1373569.382 8  -1070305.962 8  21782108.931    21782111.225    21782108.762
       140.000         126.000
  11881375.072 7   9258215.851 7  23065847.108    23065850.605    23065847.881
        47.000          32.000
   2743227.820 7   2137584.891 7  22438537.691    22438539.893    22438537.841
        61.000          54.000
         -.60315                  25458739.886                    25458741.039
         5.000
 03  4 13  2 49 30.0000000  0 11G 9G18G23G30G21G17G15G 6G26G 5G29
   1031925.368 6    804118.321 6  24085078.384    24085081.327    24085078.159
        25.000          12.000
  -9659768.505 8  -7527073.041 7  21804908.577    21804910.731    21804908.950
       124.000          72.000
 -11102066.290 8  -8650942.144 7  21913178.830    21913183.034    21913179.221
       119.000          96.000
   3468756.004 8   2702930.291 7  21747197.728    21747201.232    21747197.337
       109.000          86.000
  -1730532.438 7  -1348454.073 6  23562160.881    23562162.308    23562161.718
        32.000          15.000
   -247382.635 7   -192756.354 6  23089518.560    23089521.908    23089519.318
        33.000          24.000
        -1.03616                  25188384.454                    25188384.826
        11.000
 -10845307.910 8  -8450887.112 8  20729172.335    20729175.006    20729172.301
       263.000         216.000
  -1345893.066 8  -1048739.992 8  21787375.452    21787377.759    21787375.292
       143.000         128.000
  11961995.147 7   9321036.694 7  23081187.945    23081192.859    23081188.554
        42.000          37.000
   2802204.993 7   2183541.144 7  22449760.750    22449762.974    22449760.707
        65.000          55.000
 03  4 13  2 50  0.0000000  0 10G 9G18G23G30G21G17G 6G26G 5G29
   1021103.666 6    795685.945 6  24083018.986    24083022.064    24083018.700
        25.000          11.000
  -9681420.025 8  -7543944.292 7  21800788.275    21800790.645    21800788.221
       125.000          72.000
 -11134620.902 8  -8676309.313 7  21906983.643    21906987.995    21906984.124
       120.000          98.000
   3520032.732 8   2742886.214 7  21756955.385    21756958.471    21756955.018
       112.000          90.000
  -1747990.578 7  -1362057.798 6  23558838.644    23558840.111    23558838.594
        33.000          16.000
   -253229.319 7   -197312.178 6  23088406.052    23088409.242    23088407.040
        35.000          24.000
 -10884914.035 8  -8481749.013 8  20721635.410    20721638.239    20721635.374
       266.000         216.000
  -1317743.000 8  -1026804.866 8  21792732.111    21792734.564    21792731.874
       140.000         127.000
  12042591.791 7   9383839.268 7  23096524.906    23096529.355    23096525.343
        44.000          34.000
   2861675.215 7   2229881.588 7  22461077.458    22461079.789    22461077.408
        62.000          53.000
 03  4 13  2 50 30.0000000  0 10G 9G18G23G30G21G17G 6G26G 5G29
   1010077.042 6    787093.887 6  24080920.569    24080923.956    24080920.361
        23.000          13.000
  -9702691.569 8  -7560519.461 7  21796740.342    21796742.712    21796740.452
       123.000          72.000
 -11166801.662 8  -8701385.169 7  21900860.100    21900864.181    21900860.709
       124.000          99.000
   3571494.499 8   2782986.307 7  21766747.899    21766751.308    21766747.352
       104.000          81.000
  -1765630.017 7  -1375802.789 6  23555481.888    23555483.370    23555481.674
        33.000          16.000
   -259232.266 7   -201989.765 6  23087263.525    23087266.979    23087264.336
        34.000          24.000
 -10924143.996 8  -8512317.802 8  20714170.185    20714172.984    20714170.144
       268.000         216.000
  -1289175.693 8  -1004544.612 8  21798168.086    21798170.868    21798167.885
       137.000         128.000
  12123106.199 7   9446577.766 7  23111846.502    23111851.331    23111846.889
        44.000          36.000
   2921580.795 7   2276561.273 7  22472476.948    22472479.420    22472477.005
        60.000          52.000
 03  4 13  2 51  0.0000000  0 11G 9G18G23G30G21G17G15G 6G26G 5G29
    998892.120 6    778378.459 6  24078791.991    24078795.243    24078792.318
        23.000          11.000
  -9723538.585 8  -7576763.839 7  21792772.960    21792775.494    21792773.227
       119.000          72.000
 -11198563.458 8  -8726134.559 8  21894816.200    21894820.029    21894816.745
       128.000         100.000
   3623184.029 8   2823263.872 7  21776584.524    21776587.707    21776584.020
       115.000          90.000
  -1783405.673 6  -1389653.931 6  23552099.217    23552100.842    23552099.183
        31.000          16.000
   -265347.187 7   -206754.609 6  23086099.678    23086103.458    23086099.927
        35.000          24.000
        -1.01715         -.78914  25177012.697    25177014.838    25177013.160
         9.000           1.000
 -10962950.458 8  -8542556.586 8  20706785.555    20706788.218    20706785.425
       262.000         209.000
  -1260146.113 8   -981924.144 8  21803692.296    21803694.951    21803692.007
       136.000         127.000
  12203581.233 7   9509285.597 7  23127160.136    23127164.309    23127160.608
        42.000          32.000
   2981965.416 7   2323614.244 7  22483967.659    22483970.163    22483967.346
        57.000          50.000
 03  4 13  2 51 30.0000000  0 10G 9G18G23G30G21G17G 6G26G 5G29
    987562.781 6    769550.488 6  24076635.705    24076639.343    24076635.844
        21.000          13.000
  -9743949.310 8  -7592668.253 7  21788889.029    21788891.455    21788889.114
       124.000          74.000
 -11229894.133 8  -8750548.008 7  21888854.005    21888857.786    21888854.264
       127.000          99.000
   3675110.908 8   2863726.407 7  21786465.542    21786468.605    21786464.983
       105.000          80.000
  -1801305.782 6  -1403602.043 6  23548692.765    23548694.400    23548692.958
        30.000          16.000
   -271561.678 7   -211597.048 6  23084917.021    23084920.729    23084917.219
        33.000          23.000
 -11001318.936 8  -8572454.084 8  20699484.162    20699486.895    20699484.114
       264.000         210.000
  -1230641.879 8   -958933.816 8  21809306.901    21809309.366    21809306.664
       142.000         127.000
  12284027.057 7   9571970.654 7  23142468.568    23142473.247    23142469.130
        40.000          34.000
   3042840.214 7   2371049.164 7  22495551.906    22495554.157    22495551.891
        56.000          50.000
 03  4 13  2 52  0.0000000  0 10G 9G18G23G30G21G17G 6G26G 5G29
    976071.496 6    760596.331 6  24074448.852    24074453.023    24074448.879
        19.000          15.000
  -9763943.265 8  -7608247.908 7  21785084.412    21785086.882    21785084.406
       126.000          76.000
 -11260813.106 8  -8774640.656 8  21882970.165    21882973.924    21882970.860
       124.000         100.000
   3727253.557 8   2904357.060 7  21796388.008    21796391.191    21796387.376
       110.000          89.000
  -1819349.662 6  -1417662.175 6  23545259.142    23545260.939    23545259.630
        29.000          16.000
   -277895.891 7   -216532.766 6  23083711.793    23083715.287    23083712.321
        32.000          23.000
 -11039266.496 8  -8602023.595 8  20692263.090    20692265.835    20692263.158
       267.000         213.000
  -1200682.356 8   -935588.719 8  21815007.992    21815010.430    21815007.688
       145.000         125.000
  12364422.084 7   9634616.132 7  23157767.112    23157771.778    23157767.700
        40.000          33.000
   3104184.611 7   2418850.005 7  22507225.188    22507227.739    22507225.167
        57.000          51.000
 03  4 13  2 52 30.0000000  0 11G 9G18G23G30G21G17G15G 6G26G 5G29
    964428.093 6    751523.653 6  24072233.120    24072237.134    24072233.055
        19.000          13.000
  -9783513.248 8  -7623497.186 7  21781360.429    21781362.759    21781360.395
       126.000          75.000
 -11291312.190 8  -8798406.126 8  21877166.069    21877170.325    21877166.586
       122.000         102.000
   3779617.571 8   2945160.211 7  21806352.889    21806355.814    21806352.436
       108.000          82.000
  -1837529.084 6  -1431827.921 6  23541799.738    23541801.187    23541800.371
        29.000          16.000
   -284341.875 6   -221555.575 6  23082484.996    23082488.737    23082485.994
        31.000          24.000
         -.80816         -.78814  25165426.270    25165428.153    25165427.081
        10.000           1.000
 -11076782.614 8  -8631256.914 8  20685124.030    20685126.773    20685123.990
       273.000         219.000
  -1170259.007 8   -911882.197 8  21820797.507    21820799.832    21820797.193
       154.000         133.000
  12444772.649 7   9697226.971 7  23173057.599    23173062.049    23173057.980
        44.000          34.000
   3166005.661 7   2467022.268 7  22518989.170    22518991.888    22518989.003
        55.000          51.000
 03  4 13  2 53  0.0000000  0 10G 9G18G23G30G21G17G 6G26G 5G29
    952630.498 6    742330.812 6  24069988.026    24069991.988    24069988.021
        20.000          11.000
  -9802663.658 8  -7638419.531 7  21777716.138    21777718.424    21777716.379
       124.000          74.000
 -11321395.482 8  -8821847.595 8  21871441.363    21871445.767    21871441.870
       123.000         103.000
   3832196.743 8   2986131.002 7  21816357.733    21816361.064    21816357.029
       102.000          80.000
  -1855848.019 6  -1446102.380 6  23538313.903    23538315.282    23538314.203
        30.000          15.000
   -290903.682 7   -226668.635 6  23081236.265    23081240.050    23081236.828
        33.000          25.000
 -11113868.910 8  -8660155.313 8  20678066.580    20678069.392    20678066.479
       272.000         218.000
  -1139376.167 8   -887817.626 8  21826674.308    21826676.785    21826674.038
       148.000         128.000
  12525072.581 7   9759798.357 7  23188338.152    23188342.427    23188338.643
        43.000          32.000
   3228298.068 7   2515561.820 7  22530843.158    22530845.626    22530843.158
        56.000          51.000
 03  4 13  2 53 30.0000000  0 11G 9G18G23G30G21G17G15G 6G26G 5G29
    940701.727 6    733035.751 5  24067718.015    24067720.907    24067717.811
        19.000           8.000
  -9821373.340 8  -7652998.460 7  21774155.394    21774158.077    21774155.459
       120.000          74.000
 -11351041.582 8  -8844948.399 8  21865800.348    21865804.175    21865800.905
       128.000         105.000
   3885010.005 8   3027284.210 7  21826408.581    21826411.433    21826408.161
       107.000          80.000
  -1874285.177 7  -1460468.961 6  23534805.503    23534806.738    23534805.316
        32.000          16.000
   -297560.107 7   -231855.431 6  23079969.348    23079973.420    23079969.720
        34.000          25.000
         -.59015                  25157584.392                    25157585.396
         9.000
 -11150501.641 8  -8688700.280 8  20671095.725    20671098.446    20671095.724
       275.000         224.000
  -1108012.186 8   -863378.144 8  21832642.479    21832645.063    21832642.225
       145.000         127.000
  12605341.265 7   9822345.401 6  23203612.858    23203616.871    23203613.484
        41.000          31.000
   3291082.106 7   2564484.459 7  22542790.607    22542793.091    22542790.655
        55.000          52.000
 03  4 13  2 54  0.0000000  0 10G 9G18G23G30G21G17G 6G26G 5G29
    928623.157 6    723623.966 5  24065419.825    24065422.870    24065419.900
        21.000           9.000
  -9839663.568 8  -7667250.536 7  21770674.977    21770677.400    21770674.917
       120.000          74.000
 -11380271.174 8  -8867724.644 8  21860238.021    21860241.742    21860238.318
       127.000         104.000
   3938034.510 8   3068602.031 7  21836498.202    21836501.729    21836497.530
       100.000          80.000
  -1892861.449 7  -1474943.947 6  23531270.505    23531271.738    23531270.257
        33.000          16.000
   -304331.723 7   -237131.990 6  23078681.063    23078684.704    23078681.662
        35.000          24.000
 -11186698.926 8  -8716905.941 8  20664207.683    20664210.363    20664207.666
       281.000         227.000
  -1076187.618 8   -838579.764 8  21838698.688    21838700.890    21838698.402
       145.000         124.000
  12685556.229 7   9884850.577 7  23218877.005    23218881.729    23218877.367
        41.000          32.000
   3354336.213 7   2613773.385 7  22554827.620    22554830.134    22554827.485
        56.000          53.000
 03  4 13  2 54 30.0000000  0 11G 9G18G23G30G21G17G15G 6G26G 5G29
    916407.587 6    714105.447 6  24063095.077    24063098.656    24063094.878
        21.000          10.000
  -9857523.714 8  -7681167.487 7  21767276.628    21767278.734    21767276.918
       125.000          75.000
 -11409073.210 8  -8890167.732 8  21854756.809    21854760.704    21854757.280
       121.000         103.000
   3991278.972 8   3110091.225 7  21846630.393    21846633.368    21846629.880
       105.000          83.000
  -1911564.887 7  -1489518.025 6  23527711.098    23527712.641    23527711.336
        33.000          17.000
   -311207.777 7   -242489.923 6  23077372.769    23077376.414    23077373.409
        35.000          25.000
         -.54216                  25149649.926                    25149650.957
        10.000
 -11222447.420 8  -8744761.894 8  20657404.889    20657407.581    20657404.847
       281.000         228.000
  -1043891.462 8   -813413.917 8  21844844.408    21844846.659    21844844.164
       141.000         122.000
  12765726.499 7   9947320.923 6  23234132.910    23234137.394    23234133.296
        40.000          31.000
   3418070.000 7   2663436.088 7  22566955.867    22566958.044    22566955.821
        54.000          52.000
 03  4 13  2 55  0.0000000  0 10G 9G18G23G30G21G17G 6G26G 5G29
    904081.030 6    704500.437 5  24060749.088    24060752.482    24060749.193
        21.000           9.000
  -9874930.111 8  -7694730.865 7  21763964.099    21763966.490    21763964.083
       125.000          74.000
 -11437423.556 8  -8912258.860 8  21849361.690    21849365.791    21849361.903
       123.000         105.000
   4044765.112 8   3151768.770 7  21856808.823    21856811.704    21856808.518
       102.000          80.000
  -1930372.503 7  -1504173.273 6  23524132.476    23524133.630    23524132.692
        32.000          17.000
   -318164.347 7   -247910.594 6  23076048.883    23076052.240    23076049.463
        36.000          26.000
 -11257720.551 8  -8772247.436 8  20650692.605    20650695.390    20650692.624
       275.000         226.000
  -1011099.356 8   -787861.616 8  21851084.226    21851086.880    21851083.992
       136.000         124.000
  12845874.256 7  10009773.729 6  23249384.925    23249388.834    23249385.239
        43.000          29.000
   3482306.783 7   2713490.734 7  22579179.731    22579181.598    22579179.681
        53.000          51.000
 03  4 13  2 55 30.0000000  0 10G 9G18G23G30G21G17G 6G26G 5G29
    891608.100 6    694781.353 5  24058375.528    24058379.005    24058375.549
        22.000           8.000
  -9891920.558 8  -7707970.121 7  21760730.570    21760733.279    21760730.484
       123.000          76.000
 -11465359.852 8  -8934027.349 8  21844045.742    21844049.862    21844046.166
       120.000         104.000
   4098453.294 8   3193603.722 7  21867024.594    21867028.217    21867023.832
       100.000          85.000
  -1949321.684 7  -1518938.822 6  23520526.181    23520527.786    23520526.638
        32.000          17.000
   -325238.832 7   -253423.147 6  23074702.513    23074706.040    23074702.749
        37.000          26.000
 -11292553.612 8  -8799390.067 8  20644064.106    20644066.856    20644064.066
       282.000         228.000
   -977848.785 8   -761952.065 8  21857411.638    21857414.336    21857411.372
       132.000         123.000
  12925960.206 7  10072178.391 6  23264624.911    23264628.685    23264625.196
        44.000          29.000
   3547007.747 7   2763907.080 7  22591491.653    22591493.926    22591491.400
        52.000          52.000
 03  4 13  2 56  0.0000000  0 10G 9G18G23G30G21G17G 6G26G 5G29
    878998.801 6    684956.010 5  24055975.861    24055979.234    24055975.737
        23.000           9.000
  -9908487.643 8  -7720879.495 7  21757578.038    21757580.385    21757578.339
       122.000          75.000
 -11492873.913 8  -8955466.829 8  21838810.228    21838814.066    21838810.813
       124.000         106.000
   4152349.347 7   3235600.661 7  21877281.504    21877284.068    21877280.983
        99.000          76.000
  -1968405.137 6  -1533808.996 6  23516894.790    23516896.145    23516895.107
        31.000          18.000
   -332423.189 7   -259021.320 6  23073335.323    23073338.849    23073335.435
        37.000          26.000
 -11326936.086 8  -8826181.591 8  20637521.373    20637523.974    20637521.342
       282.000         229.000
   -944131.518 8   -735678.857 8  21863827.980    21863830.438    21863827.784
       137.000         123.000
  13005990.609 7  10134539.759 6  23279853.480    23279857.899    23279853.954
        39.000          28.000
   3612179.825 7   2814690.530 7  22603893.458    22603896.090    22603893.292
        50.000          52.000
 03  4 13  2 56 30.0000000  0 11G 9G18G23G30G21G17G15G 6G26G 5G29
    866224.575 6    675002.167 5  24053544.819    24053548.626    24053544.962
        25.000           9.000
  -9924662.271 8  -7733483.056 7  21754500.203    21754502.392    21754500.481
       126.000          73.000
 -11519996.263 8  -8976601.075 8  21833648.771    21833652.615    21833648.987
       122.000         102.000
   4206420.500 7   3277734.046 7  21887570.200    21887573.544    21887569.729
        94.000          78.000
  -1987652.058 7  -1548806.554 6  23513232.180    23513233.612    23513232.444
        32.000          18.000
   -339747.993 7   -264728.935 6  23071941.224    23071944.962    23071941.485
        38.000          25.000
          .21115                  25133508.714                    25133508.201
         9.000
 -11360896.047 8  -8852643.884 8  20631059.035    20631061.756    20631058.946
       286.000         236.000
   -909977.940 8   -709065.673 8  21870327.145    21870329.435    21870326.866
       137.000         118.000
  13085933.131 7  10196832.641 6  23295066.520    23295070.579    23295066.868
        40.000          28.000
   3677791.334 7   2865816.392 7  22616379.204    22616381.482    22616379.087
        53.000          53.000
 03  4 13  2 57  0.0000000  0 10G 9G18G23G30G21G17G 6G26G 5G29
    853285.002 6    664919.467 5  24051082.666    24051086.125    24051082.352
        27.000           9.000
  -9940447.200 8  -7745782.951 7  21751496.573    21751498.682    21751496.636
       127.000          73.000
 -11546729.276 8  -8997431.938 8  21828561.497    21828565.329    21828562.036
       119.000         102.000
   4260662.218 7   3320000.311 7  21897892.285    21897895.325    21897891.635
        90.000          69.000
  -2007064.390 7  -1563933.004 6  23509538.077    23509539.612    23509537.896
        33.000          18.000
   -347215.419 7   -270547.682 6  23070520.458    23070523.911    23070521.041
        37.000          25.000
 -11394433.423 8  -8878776.893 8  20624676.949    20624679.841    20624676.831
       282.000         238.000
   -875390.596 8   -682114.482 8  21876908.719    21876911.189    21876908.370
       135.000         119.000
  13165783.535 7  10259053.736 6  23310261.578    23310265.647    23310261.977
        42.000          28.000
   3743838.696 7   2917281.880 7  22628947.464    22628949.801    22628947.310
        51.000          51.000
 03  4 13  2 57 30.0000000  0 11G 9G18G23G30G21G17G15G 6G26G 5G29
    840188.904 6    654714.807 5  24048590.394    24048594.282    24048590.029
        28.000           9.000
  -9955836.048 8  -7757774.212 7  21748568.010    21748570.256    21748568.066
       127.000          74.000
 -11573066.322 8  -9017954.268 8  21823549.597    21823553.493    21823550.086
       120.000         101.000
   4315078.920 7   3362402.959 7  21908247.781    21908250.216    21908247.333
        92.000          70.000
  -2026635.093 7  -1579182.865 6  23505813.859    23505815.274    23505813.707
        32.000          19.000
   -354818.912 7   -276472.456 6  23069073.529    23069077.133    23069074.389
        36.000          26.000
         -.88815         -.22114  25125266.604    25125270.029    25125265.311
         9.000           1.000
 -11427539.094 8  -8904573.509 8  20618377.055    20618379.888    20618377.015
       279.000         236.000
   -840362.395 8   -654819.765 8  21883574.587    21883577.181    21883574.424
       140.000         123.000
  13245546.912 7  10321207.039 6  23325440.182    23325444.446    23325440.658
        42.000          28.000
   3810327.460 7   2969091.314 7  22641599.693    22641601.914    22641599.468
        48.000          47.000
 03  4 13  2 58  0.0000000  0 10G 9G18G23G30G21G17G 6G26G 5G29
    826961.913 6    644408.155 5  24046073.591    24046076.995    24046073.705
        31.000           9.000
  -9970805.761 8  -7769438.877 7  21745719.096    21745721.556    21745718.955
       129.000          77.000
 -11598983.798 8  -9038149.648 8  21818617.800    21818621.599    21818617.990
       124.000         101.000
   4369692.049 7   3404958.654 7  21918639.725    21918643.071    21918638.967
        91.000          73.000
  -2046340.481 7  -1594537.670 6  23502064.087    23502065.726    23502064.426
        32.000          18.000
   -362534.296 7   -282484.417 6  23067605.100    23067608.713    23067605.465
        36.000          28.000
 -11460187.260 8  -8930013.624 8  20612164.378    20612167.151    20612164.322
       273.000         231.000
   -804869.917 8   -627163.280 8  21890328.658    21890331.230    21890328.494
       144.000         124.000
  13325244.920 7  10383309.384 6  23340605.612    23340609.910    23340605.832
        37.000          28.000
   3877280.289 7   3021262.355 7  22654340.571    22654342.672    22654340.417
        46.000          45.000
 03  4 13  2 58 30.0000000  0 11G 9G18G23G30G21G17G15G 6G26G 5G29
    813625.618 6    634016.317 5  24043535.617    24043539.051    24043535.529
        31.000           9.000
  -9985337.668 8  -7780762.395 7  21742953.760    21742956.177    21742953.925
       128.000          75.000
 -11624462.337 8  -9058003.001 8  21813769.633    21813773.180    21813770.107
       127.000         101.000
   4424518.849 7   3447680.848 7  21929073.573    21929076.429    21929073.245
        94.000          76.000
  -2066161.834 7  -1609982.833 6  23498292.123    23498293.625    23498292.929
        32.000          18.000
   -370342.080 7   -288568.386 6  23066119.030    23066123.078    23066119.092
        35.000          29.000
          .16215                  25116924.470                    25116923.826
         8.000
 -11492355.806 8  -8955080.012 8  20606042.804    20606045.623    20606042.678
       274.000         232.000
   -768893.635 8   -599129.804 8  21897174.610    21897177.106    21897174.371
       144.000         122.000
  13404895.464 7  10445374.738 6  23355762.859    23355767.056    23355763.459
        38.000          27.000
   3944715.216 7   3073809.055 7  22667172.855    22667175.227    22667172.759
        44.000          43.000
 03  4 13  2 59  0.0000000  0 10G 9G18G23G30G21G17G 6G26G 5G29
    800170.660 6    623532.033 6  24040974.967    24040979.034    24040974.952
        29.000          10.000
  -9999443.214 8  -7791753.689 7  21740269.784    21740271.908    21740269.988
       135.000          77.000
 -11649513.386 8  -9077523.250 7  21809002.408    21809006.018    21809002.895
       124.000          98.000
   4479545.643 7   3490558.891 7  21939544.377    21939547.252    21939543.910
        88.000          72.000
  -2086109.554 6  -1625526.463 6  23494496.193    23494497.626    23494496.686
        31.000          17.000
   -378254.068 7   -294733.551 6  23064613.557    23064617.316    23064613.813
        35.000          29.000
 -11524053.909 8  -8979779.823 8  20600010.893    20600013.574    20600010.817
       271.000         225.000
   -732444.975 8   -570728.241 8  21904110.588    21904113.043    21904110.265
       145.000         121.000
  13484485.312 7  10507392.809 6  23370908.605    23370912.157    23370909.044
        41.000          25.000
   4012619.665 7   3126721.629 7  22680094.523    22680097.124    22680094.594
        42.000          42.000
 03  4 13  2 59 30.0000000  0 11G 9G18G23G30G21G17G15G 6G26G 5G29
    786572.995 7    612936.538 5  24038387.708    24038390.907    24038387.859
        32.000           9.000
 -10013149.172 8  -7802433.604 7  21737661.601    21737663.622    21737661.642
       138.000          76.000
 -11674163.052 8  -9096730.731 7  21804311.380    21804315.403    21804311.748
       122.000          99.000
   4534744.240 7   3533570.784 7  21950048.173    21950051.421    21950047.587
        88.000          74.000
  -2106209.414 7  -1641188.652 6  23490671.248    23490672.757    23490671.229
        34.000          18.000
   -386296.240 7   -301000.153 6  23063083.400    23063086.962    23063084.167
        35.000          30.000
         -.40115                  25108483.689                    25108483.449
         8.000
 -11555305.491 8  -9004131.695 8  20594063.948    20594066.526    20594063.776
       274.000         225.000
   -695550.087 8   -541978.967 8  21911131.506    21911133.823    21911131.133
       147.000         117.000
  13563986.367 7  10569341.697 6  23386037.146    23386041.525    23386037.669
        40.000          27.000
   4080966.338 7   3179978.791 7  22693100.584    22693102.826    22693100.265
        43.000          38.000
 03  4 13  3  0  0.0000000  0 10G 9G18G23G30G21G17G 6G26G 5G29
    772834.204 6    602231.061 6  24035772.964    24035776.914    24035773.152
        30.000          10.000
 -10026456.691 8  -7812803.052 7  21735129.088    21735131.192    21735129.319
       135.000          76.000
 -11698411.999 8  -9115625.970 7  21799696.935    21799700.998    21799697.418
       124.000          99.000
   4590111.760 7   3576714.330 7  21960584.649    21960587.762    21960584.223
        85.000          71.000
  -2126461.844 7  -1656969.737 6  23486817.373    23486819.034    23486817.136
        35.000          19.000
   -394468.871 7   -307368.412 6  23061528.171    23061531.931    23061528.624
        36.000          30.000
 -11586108.585 8  -9028134.099 8  20588202.284    20588204.959    20588202.171
       268.000         225.000
   -658209.424 8   -512882.332 8  21918237.236    21918239.462    21918236.942
       146.000         115.000
  13643396.659 7  10631219.842 6  23401148.006    23401152.281    23401148.615
        36.000          26.000
   4149753.503 7   3233579.184 7  22706190.331    22706192.248    22706190.407
        45.000          37.000
 03  4 13  3  0 30.0000000  0 11G 9G18G23G30G21G17G15G 6G26G 5G29
    758962.607 6    591422.117 6  24033133.194    24033137.244    24033133.301
        30.000          12.000
 -10039360.043 8  -7822857.570 7  21732673.673    21732675.797    21732674.015
       138.000          78.000
 -11722254.000 8  -9134204.101 7  21795160.202    21795163.862    21795160.521
       128.000          97.000
   4645652.722 7   3619993.007 7  21971153.172    21971156.446    21971152.708
        85.000          73.000
  -2146860.061 7  -1672864.419 6  23482935.604    23482937.448    23482936.050
        36.000          20.000
   -402765.019 7   -313832.920 7  23059949.184    23059953.341    23059949.397
        36.000          32.000
         -.13216          .49214  25099931.009    25099933.439    25099931.652
        11.000           1.000
 -11616454.482 8  -9051780.241 8  20582427.711    20582430.331    20582427.742
       271.000         228.000
   -620416.575 8   -483433.343 8  21925428.970    21925431.278    21925428.692
       142.000         115.000
  13722721.018 7  10693031.033 6  23416243.218    23416247.336    23416243.527
        35.000          24.000
   4218986.332 7   3287526.855 7  22719364.659    22719366.677    22719364.799
        45.000          37.000
 03  4 13  3  1  0.0000000  0 10G 9G18G23G30G21G17G 6G26G 5G29
    744928.544 6    580486.559 6  24030462.485    24030466.732    24030462.466
        29.000          12.000
 -10051891.484 8  -7832622.285 7  21730289.045    21730291.105    21730289.046
       142.000          76.000
 -11745721.173 8  -9152490.156 7  21790694.642    21790698.211    21790695.134
       130.000          97.000
   4701332.779 7   3663380.073 7  21981749.388    21981751.846    21981748.887
        89.000          70.000
  -2167435.718 7  -1688897.359 6  23479020.406    23479022.147    23479021.164
        36.000          21.000
   -411216.630 7   -320418.569 7  23058341.109    23058345.025    23058341.512
        35.000          33.000
 -11646372.809 8  -9075093.210 8  20576734.302    20576736.939    20576734.176
       272.000         229.000
   -582203.698 8   -453657.068 8  21932700.584    21932702.904    21932700.363
       138.000         113.000
  13801925.632 7  10754748.927 6  23431315.571    23431319.305    23431316.009
        37.000          24.000
   4288631.560 7   3341795.878 7  22732617.765    22732620.250    22732617.637
        44.000          37.000
 03  4 13  3  1 30.0000000  0 10G 9G18G23G30G21G17G 6G26G 5G29
    730813.995 6    569488.287 6  24027776.316    24027780.607    24027776.308
        28.000          11.000
 -10063972.037 8  -7842035.651 7  21727990.270    21727992.196    21727990.268
       143.000          76.000
 -11768733.869 8  -9170422.079 7  21786315.310    21786318.992    21786315.680
       129.000          97.000
   4757229.401 7   3706935.904 7  21992385.822    21992388.932    21992385.332
        85.000          73.000
  -2188109.059 7  -1705006.416 6  23475086.479    23475088.071    23475087.178
        36.000          21.000
   -419743.630 7   -327062.952 7  23056718.447    23056722.392    23056719.164
        36.000          34.000
 -11675781.671 8  -9098009.195 8  20571138.151    20571140.747    20571138.116
       277.000         235.000
   -543491.138 8   -423491.427 8  21940067.251    21940069.464    21940066.876
       137.000         113.000
  13881088.787 7  10816434.505 6  23446379.582    23446383.247    23446379.821
        35.000          22.000
   4358767.679 7   3396447.410 7  22745964.275    22745967.084    22745964.170
        46.000          40.000
 03  4 13  3  2  0.0000000  0 11G 9G18G23G30G21G17G15G 6G26G 5G29
    716574.491 6    558392.653 6  24025066.589    24025070.469    24025066.104
        26.000          10.000
 -10075648.600 8  -7851134.222 7  21725768.223    21725770.191    21725768.379
       137.000          76.000
 -11791338.611 8  -9188036.119 7  21782013.592    21782017.537    21782013.892
       131.000          99.000
   4813294.185 7   3750622.741 7  22003054.485    22003057.758    22003053.982
        87.000          77.000
  -2208925.882 7  -1721227.280 6  23471124.860    23471126.698    23471125.104
        37.000          22.000
   -428392.179 7   -333802.050 7  23055072.403    23055076.399    23055072.922
        37.000          33.000
        -1.21716         -.25114  25086890.927    25086893.689    25086891.028
        11.000           2.000
 -11704725.105 8  -9120562.507 8  20565630.455    20565633.158    20565630.395
       283.000         240.000
   -504325.312 8   -392972.592 8  21947520.070    21947522.532    21947519.772
       131.000         113.000
  13960162.454 7  10878050.373 6  23461426.497    23461430.693    23461426.916
        32.000          23.000
   4429347.007 7   3451444.300 7  22759395.166    22759397.741    22759395.201
        47.000          40.000
 03  4 13  3  2 30.0000000  0 11G 9G18G23G30G21G17G15G 6G26G 5G29
    702211.383 6    547200.696 5  24022333.189    24022337.160    24022333.154
        27.000           9.000
 -10086922.672 8  -7859919.177 7  21723622.620    21723624.679    21723622.912
       138.000          78.000
 -11813536.282 8  -9205332.961 7  21777789.613    21777793.392    21777790.097
       134.000          99.000
   4869524.072 7   3794438.256 7  22013755.159    22013757.877    22013754.587
        87.000          74.000
  -2229886.623 7  -1737560.297 6  23467136.052    23467138.070    23467135.592
        38.000          21.000
   -437163.028 7   -340636.455 7  23053403.503    23053407.487    23053403.477
        38.000          32.000
    -23121.271 6    -18015.879 4  25082490.947    25082492.842    25082490.725
        11.000           1.000
 -11733201.619 8  -9142751.986 8  20560211.368    20560214.109    20560211.255
       276.000         237.000
   -464707.156 8   -362101.296 8  21955059.307    21955061.769    21955059.031
       131.000         113.000
  14039144.062 6  10939594.475 6  23476456.099    23476460.720    23476456.600
        30.000          24.000
   4500367.352 7   3506784.836 7  22772909.818    22772911.963    22772909.990
        44.000          37.000
 03  4 13  3  3  0.0000000  0 10G 9G18G23G30G21G17G 6G26G 5G29
    687728.780 6    535915.630 5  24019577.347    24019580.831    24019577.315
        26.000           9.000
 -10097793.038 8  -7868389.554 7  21721554.114    21721555.995    21721554.195
       137.000          77.000
 -11835325.499 8  -9222311.524 7  21773643.320    21773646.910    21773643.782
       136.000          95.000
   4925918.756 7   3838382.171 7  22024486.011    22024489.495    22024485.470
        81.000          72.000
  -2250989.070 7  -1754003.736 6  23463120.537    23463122.044    23463120.354
        38.000          20.000
   -446054.233 7   -347564.647 7  23051711.817    23051715.351    23051712.142
        39.000          32.000
 -11761207.286 8  -9164574.574 8  20554882.184    20554884.715    20554882.191
       278.000         239.000
   -424634.791 8   -330876.069 8  21962684.910    21962687.269    21962684.658
       131.000         111.000
  14118034.046 7  11001067.197 6  23491468.756    23491472.725    23491469.145
        32.000          21.000
   4571829.370 7   3562469.532 7  22786508.299    22786510.766    22786508.311
        42.000          38.000
 03  4 13  3  3 30.0000000  0 11G 9G18G23G30G21G17G15G 6G26G 5G29
    673134.275 6    524543.370 5  24016800.336    24016803.539    24016800.225
        27.000           8.000
 -10108254.637 8  -7876541.405 7  21719563.215    21719565.321    21719563.272
       136.000          77.000
 -11856701.067 8  -9238967.761 7  21769575.622    21769579.169    21769575.842
       136.000          95.000
   4982481.442 7   3882456.992 7  22035250.269    22035252.837    22035249.845
        87.000          69.000
  -2272227.647 7  -1770553.242 6  23459079.245    23459080.355    23459079.475
        39.000          19.000
   -455060.198 7   -354582.253 6  23049998.087    23050001.547    23049998.728
        39.000          31.000
         -.93016         -.17514  25073608.761    25073611.878    25073609.369
        10.000           3.000
 -11788734.273 8  -9186024.155 8  20549643.944    20549646.596    20549643.954
       273.000         243.000
   -384103.147 8   -299292.962 8  21970397.613    21970399.938    21970397.331
       131.000         109.000
  14196836.192 7  11062471.485 6  23506464.364    23506468.228    23506464.467
        33.000          21.000
   4643736.882 7   3618501.372 7  22800192.182    22800194.584    22800192.055
        42.000          39.000
 03  4 13  3  4  0.0000000  0 11G 9G18G23G30G21G17G15G 6G26G 5G29
    658405.159 6    513066.204 5  24013997.082    24014000.531    24013997.450
        28.000           8.000
 -10118333.376 8  -7884394.926 7  21717645.141    21717647.471    21717645.240
       135.000          80.000
 -11877688.120 8  -9255321.260 7  21765581.791    21765585.440    21765581.982
       134.000          96.000
   5039184.995 7   3926641.599 7  22046040.347    22046042.904    22046039.799
        85.000          68.000
  -2293626.714 7  -1787227.806 6  23455007.240    23455008.293    23455007.653
        40.000          19.000
   -464205.685 7   -361708.578 7  23048257.729    23048261.346    23048258.412
        40.000          32.000
    -23573.959 6    -18368.751 4  25069123.584    25069126.159    25069123.948
        10.000           3.000
 -11815805.364 8  -9207118.502 8  20544492.280    20544495.206    20544492.135
       269.000         245.000
   -343137.265 8   -267371.485 8  21978193.137    21978195.512    21978192.853
       134.000         107.000
  14275523.942 7  11123786.628 6  23521437.929    23521442.064    23521438.341
        32.000          21.000
   4716063.901 7   3674860.090 7  22813955.656    22813958.075    22813955.576
        42.000          40.000
 03  4 13  3  4 30.0000000  0 11G 9G18G23G30G21G17G15G 6G26G 5G29
    643547.702 6    501489.040 5  24011169.999    24011172.904    24011170.203
        28.000           9.000
 -10128025.692 8  -7891947.337 7  21715800.595    21715803.063    21715800.502
       131.000          78.000
 -11898282.538 8  -9271368.820 7  21761662.828    21761666.415    21761663.450
       132.000          98.000
   5096031.587 7   3970937.645 7  22056857.621    22056860.738    22056857.094
        83.000          69.000
  -2315181.610 7  -1804023.798 6  23450905.203    23450906.592    23450905.474
        42.000          20.000
   -473485.974 7   -368939.943 7  23046491.686    23046495.485    23046492.212
        41.000          33.000
    -47309.559 6    -36864.067 5  25064606.723    25064610.130    25064607.396
        11.000           4.000
 -11842414.125 8  -9227852.590 8  20539429.075    20539431.680    20539429.082
       272.000         248.000
   -301733.060 8   -235108.455 8  21986072.254    21986074.509    21986072.056
       134.000         107.000
  14354099.700 6  11185014.514 6  23536389.882    23536394.089    23536390.455
        28.000          19.000
   4788813.175 7   3731547.838 7  22827799.313    22827801.725    22827799.121
        41.000          39.000
 03  4 13  3  5  0.0000000  0 11G 9G18G23G30G21G17G15G 6G26G 5G29
    628568.501 6    489817.007 6  24008319.338    24008322.727    24008319.498
        27.000          10.000
 -10137327.791 8  -7899195.687 7  21714030.605    21714032.871    21714030.723
       132.000          78.000
 -11918480.382 8  -9287107.361 7  21757819.329    21757822.871    21757819.908
       132.000          97.000
   5153023.117 7   4015346.642 7  22067703.252    22067706.097    22067702.880
        86.000          69.000
  -2336887.893 7  -1820937.756 6  23446774.341    23446776.073    23446774.275
        43.000          20.000
   -482896.256 7   -376272.604 7  23044701.108    23044704.718    23044701.109
        42.000          33.000
    -71203.822 5    -55482.978 4  25060059.551    25060063.352    25060059.048
         9.000           3.000
 -11868554.264 8  -9248221.518 8  20534454.591    20534457.357    20534454.547
       268.000         248.000
   -259886.694 8   -202500.883 8  21994035.358    21994037.620    21994035.102
       133.000         106.000
  14432566.081 7  11246157.155 6  23551322.290    23551326.584    23551322.749
        32.000          24.000
   4861987.459 7   3788566.770 7  22841723.737    22841726.068    22841723.728
        39.000          37.000
 03  4 13  3  5 30.0000000  0 11G 9G18G23G30G21G17G15G 6G26G 5G29
    613471.023 6    478052.801 5  24005446.493    24005449.542    24005446.379
        25.000           9.000
 -10146239.548 8  -7906139.875 7  21712334.868    21712336.883    21712334.886
       134.000          78.000
 -11938280.824 8  -9302536.232 7  21754051.382    21754055.005    21754051.641
       133.000          96.000
   5210158.554 7   4059867.766 7  22078575.137    22078578.393    22078574.575
        82.000          69.000
  -2358744.060 7  -1837968.508 6  23442615.265    23442616.968    23442615.229
        41.000          20.000
   -492435.688 7   -383705.906 7  23042885.972    23042889.202    23042886.264
        44.000          32.000
    -95256.124 6    -74225.014 4  25055483.779    25055485.183    25055484.130
        10.000           2.000
 -11894222.497 8  -9268222.730 8  20529570.014    20529572.865    20529569.910
       265.000         249.000
   -217597.294 8   -169548.092 8  22002082.627    22002084.994    22002082.222
       129.000         103.000
  14510922.716 6  11307214.284 6  23566232.671    23566237.417    23566232.831
        30.000          22.000
   4935586.432 7   3845916.620 7  22855729.325    22855731.365    22855729.288
        40.000          37.000
 03  4 13  3  6  0.0000000  0 11G 9G18G23G30G21G17G15G 6G26G 5G29
    598257.168 6    466197.912 6  24002550.954    24002554.771    24002551.082
        25.000          10.000
 -10154761.663 8  -7912780.442 7  21710713.047    21710715.078    21710712.966
       133.000          78.000
 -11957684.223 8  -9317655.716 7  21750358.791    21750362.582    21750359.190
       129.000          94.000
   5267435.646 7   4104499.271 7  22089474.835    22089477.795    22089474.452
        84.000          70.000
  -2380749.691 7  -1855115.718 6  23438427.764    23438429.185    23438428.424
        40.000          19.000
   -502103.433 7   -391239.186 6  23041046.497    23041049.324    23041047.160
        43.000          29.000
   -119466.845 5    -93090.488 4  25050876.299    25050879.107    25050875.666
         9.000           1.000
 -11919416.766 8  -9287854.617 8  20524775.797    20524778.554    20524775.767
       268.000         253.000
   -174865.120 8   -136250.285 8  22010214.157    22010216.561    22010213.906
       121.000         102.000
  14589168.108 7  11368184.731 6  23581122.534    23581126.659    23581122.869
        32.000          22.000
   5009608.591 7   3903596.228 7  22869815.244    22869817.673    22869815.083
        41.000          37.000
 03  4 13  3  6 30.0000000  0 10G 9G18G23G30G21G17G 6G26G 5G29
    582950.968 6    454271.068 6  23999638.620    23999642.282    23999638.706
        26.000          10.000
 -10162872.823 8  -7919100.790 7  21709169.360    21709171.634    21709169.550
       133.000          80.000
 -11976669.017 8  -9332449.023 7  21746745.998    21746749.883    21746746.510
       128.000          96.000
   5324874.089 7   4149256.510 7  22100404.982    22100408.189    22100404.323
        84.000          72.000
  -2402882.376 7  -1872361.931 6  23434216.277    23434217.402    23434216.952
        40.000          19.000
   -511877.797 7   -398855.541 6  23039186.307    23039189.292    23039186.605
        43.000          28.000
 -11944112.977 8  -9307098.409 8  20520076.070    20520078.964    20520076.030
       263.000         250.000
   -131668.458 8   -102590.542 8  22018434.269    22018436.702    22018434.022
       117.000         103.000
  14667322.614 6  11429084.347 6  23595994.452    23595998.738    23595994.891
        28.000          21.000
   5084074.469 7   3961621.595 7  22883985.763    22883987.918    22883985.643
        43.000          35.000
 03  4 13  3  7  0.0000000  0 11G 9G18G23G30G21G17G15G 6G26G 5G29
    567513.481 6    442241.921 6  23996700.912    23996704.244    23996701.274
        25.000          10.000
 -10170615.078 8  -7925133.684 7  21707695.974    21707698.215    21707696.214
       131.000          80.000
 -11995276.767 8  -9346948.530 7  21743205.342    21743208.984    21743206.011
       129.000          94.000
   5382430.608 7   4194105.740 7  22111357.331    22111360.636    22111356.688
        82.000          69.000
  -2425182.995 7  -1889738.998 6  23429972.336    23429973.648    23429972.641
        39.000          18.000
   -521799.592 7   -406586.788 6  23037297.821    23037301.092    23037297.755
        43.000          27.000
         -.67115          .01914  25041576.079    25041577.508    25041575.295
         9.000           1.000
 -11968350.364 8  -9325984.680 8  20515463.886    20515466.707    20515463.803
       263.000         247.000
    -88048.788 8    -68601.186 8  22026734.721    22026737.408    22026734.572
       114.000         102.000
  14745343.505 6  11489879.863 6  23610841.759    23610845.701    23610842.294
        30.000          18.000
   5158941.431 7   4019959.496 7  22898232.335    22898234.380    22898232.165
        42.000          34.000
 03  4 13  3  7 30.0000000  0 10G 9G18G23G30G21G17G 6G26G 5G29
    551946.834 6    430112.128 6  23993739.016    23993742.299    23993739.234
        27.000          10.000
 -10177989.736 8  -7930880.136 7  21706292.738    21706294.875    21706292.902
       136.000          81.000
 -12013508.113 8  -9361154.733 7  21739736.039    21739739.409    21739736.605
       131.000          93.000
   5440102.675 7   4239045.013 7  22122332.286    22122335.206    22122331.716
        81.000          64.000
  -2447651.520 7  -1907246.915 6  23425696.621    23425698.063    23425696.125
        40.000          16.000
   -531868.650 7   -414432.788 6  23035381.540    23035384.818    23035382.006
        41.000          25.000
 -11992127.281 8  -9344512.139 8  20510939.352    20510942.072    20510939.294
       263.000         243.000
    -44006.740 8    -34282.699 8  22035115.486    22035118.281    22035115.300
       113.000         103.000
  14823228.997 6  11550569.866 6  23625662.618    23625666.697    23625663.080
        31.000          19.000
   5234207.427 7   4078608.337 7  22912554.788    22912557.044    22912554.623
        40.000          32.000
 03  4 13  3  8  0.0000000  0 11G 9G18G23G30G21G17G15G 6G26G 5G29
    536284.209 6    417907.565 6  23990758.581    23990761.640    23990758.751
        29.000          11.000
 -10184966.218 8  -7936316.316 7  21704965.184    21704967.293    21704965.220
       136.000          81.000
 -12031332.368 8  -9375043.719 7  21736343.812    21736347.423    21736344.252
       123.000          90.000
   5497919.211 7   4284096.867 7  22133334.035    22133337.422    22133333.544
        76.000          64.000
  -2470256.127 7  -1924860.873 6  23421395.089    23421396.386    23421394.731
        39.000          17.000
   -542053.392 7   -422368.930 6  23033443.769    23033446.672    23033444.511
        40.000          23.000
         -.35015         -.88915  25032144.171    25032148.864    25032143.347
         9.000           4.000
 -12015410.561 8  -9362654.949 8  20506508.637    20506511.312    20506508.488
       267.000         241.000
       488.275 8       388.748 8  22043582.758    22043585.252    22043582.502
       114.000         101.000
  14901008.483 6  11611177.284 6  23640463.443    23640467.843    23640463.763
        31.000          20.000
   5309902.456 7   4137591.483 7  22926959.151    22926961.542    22926958.847
        40.000          32.000
 03  4 13  3  8 30.0000000  0 11G 9G18G23G30G21G17G15G 6G26G 5G29
    520528.206 7    405630.211 6  23987760.172    23987763.718    23987760.394
        32.000          11.000
 -10191544.970 8  -7941442.584 7  21703713.186    21703715.311    21703713.108
       134.000          81.000
 -12048749.467 8  -9388615.453 7  21733029.277    21733033.017    21733029.793
       122.000          90.000
   5555878.541 7   4329259.972 7  22144363.569    22144366.869    22144363.094
        79.000          66.000
  -2492995.901 7  -1942580.154 6  23417067.830    23417069.065    23417068.392
        40.000          16.000
   -552353.143 7   -430394.688 6  23031483.600    23031486.676    23031484.335
        39.000          23.000
    -25002.608 5    -19483.174 5  25027385.995    25027390.176    25027385.594
         8.000           4.000
 -12038197.555 8  -9380411.041 8  20502172.525    20502175.083    20502172.410
       272.000         240.000
     45436.511 8     35413.352 8  22052136.199    22052138.653    22052135.885
       116.000         100.000
  14978681.214 6  11671701.487 6  23655244.197    23655248.571    23655244.753
        30.000          19.000
   5386025.200 7   4196907.915 6  22941444.881    22941447.225    22941444.972
        39.000          30.000
 03  4 13  3  9  0.0000000  0 11G 9G18G23G30G21G17G15G 6G26G 5G29
    504672.208 7    393274.961 6  23984742.866    23984746.190    23984742.828
        32.000          12.000
 -10197735.951 8  -7946266.688 7  21702535.043    21702537.210    21702535.083
       133.000          82.000
 -12065768.789 8  -9401877.227 7  21729790.883    21729794.475    21729791.400
       125.000          90.000
   5613969.500 7   4374525.661 7  22155418.039    22155420.948    22155417.586
        79.000          63.000
  -2515879.458 7  -1960411.467 6  23412713.165    23412714.373    23412714.015
        39.000          17.000
   -562776.091 7   -438516.447 6  23029500.081    23029503.355    23029500.263
        40.000          23.000
    -50162.546 5    -39088.343 4  25022598.679    25022602.656    25022597.929
         9.000           2.000
 -12060495.286 8  -9397785.893 8  20497929.405    20497932.046    20497929.313
       275.000         245.000
     90828.492 8     70783.738 7  22060773.985    22060776.404    22060773.753
       116.000          98.000
  15056236.431 6  11732134.159 6  23670002.253    23670006.279    23670002.921
        29.000          17.000
   5462565.289 7   4256549.546 6  22956009.997    22956012.121    22956009.895
        38.000          29.000
 03  4 13  3  9 30.0000000  0 11G 9G18G23G30G21G17G15G 6G26G 5G29
    488694.125 7    380824.570 6  23981702.268    23981705.589    23981702.256
        33.000          11.000
 -10203564.319 8  -7950808.239 7  21701426.044    21701428.176    21701426.165
       137.000          83.000
 -12082415.172 8  -9414848.389 7  21726623.237    21726626.834    21726623.646
       125.000          90.000
   5672165.398 7   4419873.105 7  22166492.058    22166494.857    22166491.312
        78.000          61.000
  -2538930.678 7  -1978373.423 6  23408326.640    23408327.944    23408326.978
        38.000          17.000
   -573346.462 7   -446753.083 6  23027488.698    23027491.580    23027489.118
        38.000          22.000
    -75505.014 5    -58835.716 4  25017775.989    25017779.969    25017775.193
         9.000           3.000
 -12082326.122 8  -9414796.926 8  20493775.206    20493777.696    20493775.172
       275.000         246.000
    136639.461 8    106480.605 7  22069491.482    22069493.931    22069491.174
       118.000          99.000
  15133648.247 7  11792455.054 6  23684733.744    23684737.806    23684734.274
        34.000          18.000
   5539496.546 7   4316495.994 6  22970649.462    22970651.710    22970649.534
        38.000          29.000
 03  4 13  3 10  0.0000000  0 11G 9G18G23G30G21G17G15G 6G26G 5G29
    472619.423 6    368298.890 6  23978642.954    23978646.397    23978643.212
        29.000          11.000
 -10209007.757 8  -7955049.842 7  21700390.262    21700392.360    21700390.235
       140.000          83.000
 -12098665.882 8  -9427511.244 7  21723530.582    21723534.414    21723531.069
       121.000          90.000
   5730487.367 7   4465318.802 7  22177591.007    22177593.646    22177590.602
        81.000          64.000
  -2562125.759 7  -1996447.486 6  23403912.768    23403914.186    23403912.976
        39.000          17.000
   -584041.424 7   -455086.803 6  23025453.523    23025456.211    23025453.837
        37.000          21.000
   -101007.097 5    -78707.452 4  25012922.358    25012927.320    25012921.182
         8.000           2.000
 -12103664.951 8  -9431424.572 8  20489714.481    20489717.047    20489714.338
       277.000         250.000
    182892.137 8    142521.659 8  22078293.092    22078295.606    22078292.713
       121.000         100.000
  15210938.234 6  11852681.057 6  23699441.209    23699445.025    23699441.435
        31.000          15.000
   5616840.839 7   4376764.285 6  22985367.770    22985370.028    22985367.799
        38.000          28.000
 03  4 13  3 10 30.0000000  0 11G 9G18G23G30G21G17G15G 6G26G 5G29
    456453.148 6    355701.864 5  23975566.274    23975569.803    23975566.456
        27.000           9.000
 -10214064.253 8  -7958989.932 7  21699427.967    21699430.060    21699427.852
       141.000          83.000
 -12114518.749 8  -9439864.097 7  21720513.926    21720517.574    21720514.449
       120.000          88.000
   5788935.961 7   4510863.162 7  22188713.023    22188716.289    22188712.665
        76.000          63.000
  -2585461.370 7  -2014631.057 6  23399472.281    23399473.491    23399472.364
        40.000          18.000
   -594857.412 7   -463514.825 6  23023395.004    23023397.800    23023395.382
        37.000          22.000
   -126666.351 5    -98701.673 4  25008040.551    25008043.729    25008040.488
         9.000           2.000
 -12124507.293 8  -9447665.350 8  20485748.152    20485750.998    20485748.027
       271.000         254.000
    229588.911 8    178908.765 7  22087179.283    22087181.618    22087179.035
       121.000          98.000
  15288107.866 6  11912813.247 6  23714126.009    23714129.855    23714126.444
        30.000          16.000
   5694599.230 7   4437355.246 6  23000164.633    23000166.695    23000164.672
        35.000          30.000
 03  4 13  3 11  0.0000000  0 11G 9G18G23G30G21G17G15G 6G26G 5G29
    440186.663 6    343026.745 5  23972470.454    23972474.146    23972470.378
        24.000           8.000
 -10218745.924 8  -7962637.953 7  21698536.920    21698539.123    21698537.148
       139.000          82.000
 -12129985.234 8  -9451915.872 7  21717570.945    21717574.267    21717571.378
       125.000          89.000
   5847498.011 7   4556495.913 7  22199856.910    22199859.909    22199856.541
        75.000          61.000
  -2608948.505 7  -2032932.696 6  23395002.626    23395003.940    23395002.839
        40.000          17.000
   -605804.799 7   -472045.245 6  23021311.881    23021314.780    23021312.314
        37.000          21.000
   -152494.097 6   -118827.184 4  25003126.387    25003129.095    25003126.360
        11.000           2.000
 -12144861.990 8  -9463526.140 8  20481874.873    20481877.693    20481874.863
       270.000         259.000
    276718.392 8    215633.044 7  22096147.627    22096150.047    22096147.408
       120.000          97.000
  15365144.751 7  11972841.993 6  23728785.881    23728790.108    23728786.245
        34.000          19.000
   5772759.121 7   4498259.057 6  23015037.994    23015040.052    23015037.813
        34.000          30.000
 03  4 13  3 11 30.0000000  0 11G 9G18G23G30G21G17G15G 6G26G 5G29
    423837.593 6    330287.270 5  23969359.096    23969362.737    23969359.039
        25.000           8.000
 -10223038.083 8  -7965982.459 7  21697720.086    21697722.318    21697720.160
       142.000          83.000
 -12145050.486 8  -9463654.992 7  21714704.078    21714707.324    21714704.491
       126.000          88.000
   5906186.698 7   4602227.372 7  22211025.536    22211027.979    22211025.069
        80.000          63.000
  -2632571.030 7  -2051339.837 6  23390507.255    23390508.567    23390507.434
        39.000          18.000
   -616867.455 7   -480665.479 6  23019206.678    23019209.972    23019206.983
        38.000          23.000
   -178475.225 6   -139072.186 4  24998181.547    24998184.838    24998181.325
        10.000           2.000
 -12164711.776 8  -9478993.493 8  20478097.504    20478100.374    20478097.412
       269.000         260.000
    324295.209 8    252705.900 7  22105201.290    22105203.618    22105201.004
       122.000          97.000
  15442062.747 7  12032778.098 6  23743422.907    23743426.786    23743423.111
        34.000          15.000
   5851334.317 7   4559486.480 6  23029990.058    23029992.497    23029990.047
        32.000          31.000
 03  4 13  3 12  0.0000000  0 11G 9G18G23G30G21G17G15G 6G26G 5G29
    407415.009 6    317490.508 5  23966234.313    23966237.374    23966234.071
        25.000           7.000
 -10226934.912 8  -7969018.913 7  21696978.616    21696980.691    21696978.541
       146.000          82.000
 -12159708.017 8  -9475076.408 7  21711914.532    21711918.263    21711915.059
       120.000          89.000
   5965006.724 7   4648061.159 7  22222217.902    22222221.568    22222217.311
        75.000          64.000
  -2656321.256 7  -2069846.486 6  23385987.619    23385989.162    23385987.515
        38.000          17.000
   -628038.525 7   -489370.198 6  23017081.097    23017084.180    23017081.281
        39.000          24.000
   -204603.226 6   -159431.655 4  24993209.676    24993213.212    24993210.207
        10.000           3.000
 -12184047.850 8  -9494060.559 8  20474418.029    20474420.816    20474417.897
       271.000         258.000
    372325.940 8    290132.454 7  22114341.408    22114343.579    22114341.230
       123.000          96.000
  15518867.505 7  12092625.977 6  23758038.669    23758042.134    23758038.923
        35.000          15.000
   5930329.970 7   4621041.544 7  23045022.252    23045025.048    23045022.177
        32.000          33.000
 03  4 13  3 12 30.0000000  0 12G 9G18G23G30G21G17G15G 6G26G 5G29G14
    390914.467 6    304632.997 5  23963094.842    23963097.219    23963094.446
        30.000           7.000
 -10230444.178 8  -7971753.370 7  21696310.747    21696312.882    21696310.787
       148.000          84.000
 -12173965.330 8  -9486185.975 7  21709201.359    21709205.325    21709201.853
       117.000          90.000
   6023949.213 7   4693990.357 7  22233435.081    22233437.739    22233434.596
        78.000          63.000
  -2680205.637 7  -2088457.678 6  23381442.610    23381444.113    23381442.333
        38.000          19.000
   -639324.556 7   -498164.494 6  23014933.421    23014936.436    23014933.918
        39.000          26.000
   -230885.172 5   -179911.114 4  24988207.712    24988211.635    24988208.212
         9.000           3.000
 -12202875.282 8  -9508731.278 8  20470835.509    20470838.029    20470835.460
       275.000         258.000
    420803.295 8    327907.023 7  22123566.153    22123568.410    22123565.899
       120.000          96.000
  15595550.700 6  12152379.129 6  23772630.310    23772634.434    23772630.537
        29.000          15.000
   6009737.688 6   4682917.687 7  23060133.166    23060135.725    23060133.146
        31.000          33.000
         -.09715                  25500644.893                    25500644.471
         8.000
 03  4 13  3 13  0.0000000  0 11G 9G18G23G30G21G17G15G 6G26G 5G29
    374330.234 6    291710.248 5  23959939.037    23959941.435    23959938.697
        31.000           7.000
 -10233574.939 8  -7974192.894 7  21695714.995    21695717.175    21695715.053
       149.000          84.000
 -12187830.935 8  -9496990.313 7  21706563.006    21706566.615    21706563.593
       120.000          88.000
   6083003.952 7   4740007.050 7  22244672.574    22244675.133    22244672.128
        75.000          59.000
  -2704231.828 7  -2107179.364 6  23376870.631    23376872.225    23376871.114
        40.000          18.000
   -650732.630 7   -507053.885 6  23012762.559    23012765.526    23012762.955
        40.000          27.000
   -257329.284 5   -200516.924 4  24983175.546    24983180.136    24983175.951
         8.000           2.000
 -12221200.326 8  -9523010.523 8  20467348.105    20467350.785    20467348.059
       275.000         258.000
    469718.637 8    366022.880 7  22132874.282    22132876.772    22132873.974
       117.000          96.000
  15672102.828 6  12212030.121 6  23787197.860    23787201.588    23787198.376
        30.000          14.000
   6089547.737 7   4745107.333 7  23075320.585    23075323.217    23075320.494
        33.000          34.000
 03  4 13  3 13 30.0000000  0 12G 9G18G23G30G21G17G15G 6G26G 5G29G14
    357649.314 7    278712.180 5  23956765.029    23956766.952    23956764.939
        32.000           8.000
 -10236343.307 8  -7976350.033 7  21695188.334    21695190.267    21695188.453
       156.000          84.000
 -12201320.725 8  -9507501.801 7  21703996.034    21703999.385    21703996.470
       122.000          86.000
   6142153.523 7   4786097.618 7  22255927.691    22255931.229    22255927.226
        70.000          61.000
  -2728414.137 7  -2126022.698 6  23372269.095    23372270.450    23372270.098
        40.000          19.000
   -662277.956 7   -516050.227 6  23010565.518    23010568.713    23010565.839
        41.000          28.000
   -283951.216 6   -221261.283 4  24978110.679    24978113.665    24978111.332
        10.000           2.000
 -12239036.328 8  -9536908.700 8  20463954.155    20463956.758    20463954.151
       273.000         259.000
    519056.172 8    404467.721 7  22142262.929    22142265.495    22142262.600
       116.000          96.000
  15748507.179 7  12271566.001 6  23801737.458    23801741.319    23801737.842
        33.000          17.000
   6169743.309 7   4807597.381 7  23090581.387    23090584.188    23090581.423
        33.000          34.000
         -.37715                  25461803.843                    25461804.601
         8.000
